{"type":"FeatureCollection","features":[{"type":"Feature","properties":{"municipio":"8f75de01-c099-49b9-941e-8460e877e58d","title":"TO - PALMAS","tipo":null,"url":"\/dashboard\/details-assets\/8f75de01-c099-49b9-941e-8460e877e58d"},"geometry":{"type":"Point","coordinates":[-48.3170359140625,-10.2302993132777]}},{"type":"Feature","properties":{"municipio":"52fc8d5b-75ab-441b-905a-4ba6f3d04fb1","title":"TO - ARAGUAINA","tipo":null,"url":"\/dashboard\/details-assets\/52fc8d5b-75ab-441b-905a-4ba6f3d04fb1"},"geometry":{"type":"Point","coordinates":[-48.2874074,-7.2109414]}},{"type":"Feature","properties":{"municipio":"12667e6c-e308-4b7a-b53b-5593e82e31ac","title":"SE - SAO CRISTOVAO","tipo":null,"url":"\/dashboard\/details-assets\/12667e6c-e308-4b7a-b53b-5593e82e31ac"},"geometry":{"type":"Point","coordinates":[-37.2059339,-11.0122362]}},{"type":"Feature","properties":{"municipio":"99558f96-f385-49d8-ad2e-dba2b3cbfa37","title":"SE - ARACAJU","tipo":null,"url":"\/dashboard\/details-assets\/99558f96-f385-49d8-ad2e-dba2b3cbfa37"},"geometry":{"type":"Point","coordinates":[-37.0730823,-10.9472468]}},{"type":"Feature","properties":{"municipio":"26d31e77-3de3-4e95-979a-31c896da32ea","title":"SP - SAO PAULO","tipo":null,"url":"\/dashboard\/details-assets\/26d31e77-3de3-4e95-979a-31c896da32ea"},"geometry":{"type":"Point","coordinates":[-46.5703831821128,-23.567386499308]}},{"type":"Feature","properties":{"municipio":"1b7af946-22e8-4e93-99de-bbafc3a12fb4","title":"SP - SAO CARLOS","tipo":null,"url":"\/dashboard\/details-assets\/1b7af946-22e8-4e93-99de-bbafc3a12fb4"},"geometry":{"type":"Point","coordinates":[-53.017394273321,-27.0786350771308]}},{"type":"Feature","properties":{"municipio":"a6df4798-5cbb-4100-81e6-d4a8a5ca7572","title":"SP - SANTO ANDRE","tipo":null,"url":"\/dashboard\/details-assets\/a6df4798-5cbb-4100-81e6-d4a8a5ca7572"},"geometry":{"type":"Point","coordinates":[-46.5308742576295,-23.6575099993059]}},{"type":"Feature","properties":{"municipio":"c247835d-9e8c-4f0d-80f7-8cd46542e0ee","title":"SP - GUARULHOS","tipo":null,"url":"\/dashboard\/details-assets\/c247835d-9e8c-4f0d-80f7-8cd46542e0ee"},"geometry":{"type":"Point","coordinates":[-46.5310840856611,-23.4685059993102]}},{"type":"Feature","properties":{"municipio":"2fc1e797-e770-49e6-9c37-aaea55bfb9a2","title":"SC - FLORIANOPOLIS","tipo":null,"url":"\/dashboard\/details-assets\/2fc1e797-e770-49e6-9c37-aaea55bfb9a2"},"geometry":{"type":"Point","coordinates":[-48.5476373781933,-27.5877955477749]}},{"type":"Feature","properties":{"municipio":"5b6c7883-22f8-462e-b77d-e5991884b2e6","title":"SC - CHAPECO","tipo":null,"url":"\/dashboard\/details-assets\/5b6c7883-22f8-462e-b77d-e5991884b2e6"},"geometry":{"type":"Point","coordinates":[-52.615699,-27.1009343]}},{"type":"Feature","properties":{"municipio":"5792adbc-41ac-4f63-97e7-d9d9a32e4568","title":"RR - BOA VISTA","tipo":null,"url":"\/dashboard\/details-assets\/5792adbc-41ac-4f63-97e7-d9d9a32e4568"},"geometry":{"type":"Point","coordinates":[-60.6705326729651,2.81668191901165]}},{"type":"Feature","properties":{"municipio":"a083f518-c822-42c8-91b8-8ac8ebb500af","title":"RO - PORTO VELHO","tipo":null,"url":"\/dashboard\/details-assets\/a083f518-c822-42c8-91b8-8ac8ebb500af"},"geometry":{"type":"Point","coordinates":[-63.8314456543611,-8.76889178971532]}},{"type":"Feature","properties":{"municipio":"92464b1f-d1a6-4882-95fc-5bf183fe3c7b","title":"RS - SANTA MARIA","tipo":null,"url":"\/dashboard\/details-assets\/92464b1f-d1a6-4882-95fc-5bf183fe3c7b"},"geometry":{"type":"Point","coordinates":[-53.809876,-29.690439]}},{"type":"Feature","properties":{"municipio":"bdf6b4d4-1a46-4986-ac47-69fdba6b8ad1","title":"RS - RIO GRANDE","tipo":null,"url":"\/dashboard\/details-assets\/bdf6b4d4-1a46-4986-ac47-69fdba6b8ad1"},"geometry":{"type":"Point","coordinates":[-52.0867696991135,-32.0504457918034]}},{"type":"Feature","properties":{"municipio":"5cb5e39b-60bb-43a6-b922-b720e2faf417","title":"RS - PORTO ALEGRE","tipo":null,"url":"\/dashboard\/details-assets\/5cb5e39b-60bb-43a6-b922-b720e2faf417"},"geometry":{"type":"Point","coordinates":[-51.2176584,-30.0346471]}},{"type":"Feature","properties":{"municipio":"c5e18cf8-7288-47a4-ac8f-66403d5b02fe","title":"RS - PELOTAS","tipo":null,"url":"\/dashboard\/details-assets\/c5e18cf8-7288-47a4-ac8f-66403d5b02fe"},"geometry":{"type":"Point","coordinates":[-52.34432,-31.7499652966305]}},{"type":"Feature","properties":{"municipio":"c24af52e-efdd-4e50-8de1-8491c4463b28","title":"RN - NATAL","tipo":null,"url":"\/dashboard\/details-assets\/c24af52e-efdd-4e50-8de1-8491c4463b28"},"geometry":{"type":"Point","coordinates":[-35.2158627880859,-5.79872025536009]}},{"type":"Feature","properties":{"municipio":"11d157d9-e88b-4862-af71-84a12be27365","title":"RJ - SEROPEDICA","tipo":null,"url":"\/dashboard\/details-assets\/11d157d9-e88b-4862-af71-84a12be27365"},"geometry":{"type":"Point","coordinates":[-43.6950804,-22.7691646]}},{"type":"Feature","properties":{"municipio":"6951d92a-b891-4812-b49c-04251428159a","title":"RN - MOSSORO","tipo":null,"url":"\/dashboard\/details-assets\/6951d92a-b891-4812-b49c-04251428159a"},"geometry":{"type":"Point","coordinates":[-37.3568741367043,-5.19380123453833]}},{"type":"Feature","properties":{"municipio":"2074ca89-35a8-4573-be17-06198fd4792e","title":"RJ - RIO DE JANEIRO","tipo":null,"url":"\/dashboard\/details-assets\/2074ca89-35a8-4573-be17-06198fd4792e"},"geometry":{"type":"Point","coordinates":[-43.16743575,-22.8361572211111]}},{"type":"Feature","properties":{"municipio":"990eace6-37e5-4b76-bf33-c39d319b02a2","title":"RJ - NITEROI","tipo":null,"url":"\/dashboard\/details-assets\/990eace6-37e5-4b76-bf33-c39d319b02a2"},"geometry":{"type":"Point","coordinates":[-43.1152211,-22.8858975]}},{"type":"Feature","properties":{"municipio":"00dd027f-ca9a-4d7e-a795-ab2b30e48424","title":"PI - TERESINA","tipo":null,"url":"\/dashboard\/details-assets\/00dd027f-ca9a-4d7e-a795-ab2b30e48424"},"geometry":{"type":"Point","coordinates":[-42.8052704582233,-5.08634195215484]}},{"type":"Feature","properties":{"municipio":"a58b510f-7c38-4967-b77e-daaa0f0f6ab5","title":"PE - RECIFE","tipo":null,"url":"\/dashboard\/details-assets\/a58b510f-7c38-4967-b77e-daaa0f0f6ab5"},"geometry":{"type":"Point","coordinates":[-34.8889419445777,-8.06276248279001]}},{"type":"Feature","properties":{"municipio":"87fb1fd4-4d1c-42e3-bc1b-76a7593e34d4","title":"PE - PETROLINA","tipo":null,"url":"\/dashboard\/details-assets\/87fb1fd4-4d1c-42e3-bc1b-76a7593e34d4"},"geometry":{"type":"Point","coordinates":[-40.4999993346523,-9.39737551469565]}},{"type":"Feature","properties":{"municipio":"e25fd9da-8585-4ade-a06d-9d19ded6bce2","title":"PR - LONDRINA","tipo":null,"url":"\/dashboard\/details-assets\/e25fd9da-8585-4ade-a06d-9d19ded6bce2"},"geometry":{"type":"Point","coordinates":[-51.1627734238781,-23.3121559993137]}},{"type":"Feature","properties":{"municipio":"d5317b36-d86e-4ddf-b3bc-1660ae5d9794","title":"PB - JOAO PESSOA","tipo":null,"url":"\/dashboard\/details-assets\/d5317b36-d86e-4ddf-b3bc-1660ae5d9794"},"geometry":{"type":"Point","coordinates":[-34.8733848135386,-7.14938201976666]}},{"type":"Feature","properties":{"municipio":"4dd82c36-1861-414f-8b02-c658e4c6cc48","title":"PR - CURITIBA","tipo":null,"url":"\/dashboard\/details-assets\/4dd82c36-1861-414f-8b02-c658e4c6cc48"},"geometry":{"type":"Point","coordinates":[-49.2718478850774,-25.4329559992677]}},{"type":"Feature","properties":{"municipio":"32ca609a-19e7-4638-a724-84b3aae778c5","title":"PB - CAMPINA GRANDE","tipo":null,"url":"\/dashboard\/details-assets\/32ca609a-19e7-4638-a724-84b3aae778c5"},"geometry":{"type":"Point","coordinates":[-35.8838591147815,-7.22149703976438]}},{"type":"Feature","properties":{"municipio":"d096747d-603b-49eb-837e-ea0667facc23","title":"PA - MARABA","tipo":null,"url":"\/dashboard\/details-assets\/d096747d-603b-49eb-837e-ea0667facc23"},"geometry":{"type":"Point","coordinates":[-49.1420253334067,-5.35260576295475]}},{"type":"Feature","properties":{"municipio":"0aa60d70-5f38-4588-a51a-bc152e8ce43a","title":"PA - BELEM","tipo":null,"url":"\/dashboard\/details-assets\/0aa60d70-5f38-4588-a51a-bc152e8ce43a"},"geometry":{"type":"Point","coordinates":[-48.4878256874876,-1.45984499995188]}},{"type":"Feature","properties":{"municipio":"79f903ae-83bc-4a73-9dcd-8cbf6f5a0976","title":"MG - VICOSA","tipo":null,"url":"\/dashboard\/details-assets\/79f903ae-83bc-4a73-9dcd-8cbf6f5a0976"},"geometry":{"type":"Point","coordinates":[-42.8794773756709,-20.7520720064035]}},{"type":"Feature","properties":{"municipio":"283c2fe6-5f61-4964-9197-ede94279a20d","title":"MG - UBERABA","tipo":null,"url":"\/dashboard\/details-assets\/283c2fe6-5f61-4964-9197-ede94279a20d"},"geometry":{"type":"Point","coordinates":[-47.9836248955742,-19.7135346065023]}},{"type":"Feature","properties":{"municipio":"fc81c727-bea7-4ce6-bc7b-51356a71bbe7","title":"MG - UBERLANDIA","tipo":null,"url":"\/dashboard\/details-assets\/fc81c727-bea7-4ce6-bc7b-51356a71bbe7"},"geometry":{"type":"Point","coordinates":[-48.2779501847345,-18.9189986087263]}},{"type":"Feature","properties":{"municipio":"0770fb88-b984-40f8-8cdc-aa727ad3f80a","title":"MG - OURO PRETO","tipo":null,"url":"\/dashboard\/details-assets\/0770fb88-b984-40f8-8cdc-aa727ad3f80a"},"geometry":{"type":"Point","coordinates":[-43.5064475197137,-20.3867763672491]}},{"type":"Feature","properties":{"municipio":"56b22f80-d946-4fb0-b1e0-6cc21d4ca83c","title":"MG - MONTES CLAROS","tipo":null,"url":"\/dashboard\/details-assets\/56b22f80-d946-4fb0-b1e0-6cc21d4ca83c"},"geometry":{"type":"Point","coordinates":[-43.8654224343832,-16.7227066394632]}},{"type":"Feature","properties":{"municipio":"e847892d-a5ed-4b13-98ce-4d73aa9be6a3","title":"MG - LAVRAS","tipo":null,"url":"\/dashboard\/details-assets\/e847892d-a5ed-4b13-98ce-4d73aa9be6a3"},"geometry":{"type":"Point","coordinates":[-44.9999311091152,-21.242870236663]}},{"type":"Feature","properties":{"municipio":"ee2ff0e5-473c-4bc8-aa30-d4044c137e08","title":"MG - JUIZ DE FORA","tipo":null,"url":"\/dashboard\/details-assets\/ee2ff0e5-473c-4bc8-aa30-d4044c137e08"},"geometry":{"type":"Point","coordinates":[-43.3488172724747,-21.760924308024]}},{"type":"Feature","properties":{"municipio":"b5cd49be-dc59-4e56-9f3e-256963db2511","title":"MG - ITAJUBA","tipo":null,"url":"\/dashboard\/details-assets\/b5cd49be-dc59-4e56-9f3e-256963db2511"},"geometry":{"type":"Point","coordinates":[-45.4645825045044,-22.4306005738282]}},{"type":"Feature","properties":{"municipio":"2280e43d-406f-468b-87a9-18c5d4941891","title":"MG - BELO HORIZONTE","tipo":null,"url":"\/dashboard\/details-assets\/2280e43d-406f-468b-87a9-18c5d4941891"},"geometry":{"type":"Point","coordinates":[-43.9264531735305,-19.9375242931696]}},{"type":"Feature","properties":{"municipio":"dee8e464-4213-47c9-ba72-58186cde23b3","title":"MS - DOURADOS","tipo":null,"url":"\/dashboard\/details-assets\/dee8e464-4213-47c9-ba72-58186cde23b3"},"geometry":{"type":"Point","coordinates":[-54.8112891228926,-22.2272355362375]}},{"type":"Feature","properties":{"municipio":"96cbd0a6-d917-415e-ad6b-227cf600b264","title":"MS - CAMPO GRANDE","tipo":null,"url":"\/dashboard\/details-assets\/96cbd0a6-d917-415e-ad6b-227cf600b264"},"geometry":{"type":"Point","coordinates":[-54.6157435664588,-20.4580299872454]}},{"type":"Feature","properties":{"municipio":"5f42b422-2dac-458a-89b6-b489be626cc1","title":"MT - RONDONOPOLIS","tipo":null,"url":"\/dashboard\/details-assets\/5f42b422-2dac-458a-89b6-b489be626cc1"},"geometry":{"type":"Point","coordinates":[-54.6335870401784,-16.4701628729862]}},{"type":"Feature","properties":{"municipio":"16f8f781-0211-4b80-8f5e-c0836bbd1aef","title":"MT - CUIABA","tipo":null,"url":"\/dashboard\/details-assets\/16f8f781-0211-4b80-8f5e-c0836bbd1aef"},"geometry":{"type":"Point","coordinates":[-56.0732520381911,-15.5699890126321]}},{"type":"Feature","properties":{"municipio":"e00ea8b3-7755-4187-b1f8-9e36bbfbfb2f","title":"MA - SAO LUIS","tipo":null,"url":"\/dashboard\/details-assets\/e00ea8b3-7755-4187-b1f8-9e36bbfbfb2f"},"geometry":{"type":"Point","coordinates":[-44.2979185642444,-2.531885985]}},{"type":"Feature","properties":{"municipio":"972bcf8d-c0ee-40a7-9106-ce3b28b4de87","title":"GO - JATAI","tipo":null,"url":"\/dashboard\/details-assets\/972bcf8d-c0ee-40a7-9106-ce3b28b4de87"},"geometry":{"type":"Point","coordinates":[-51.7208180375605,-17.8862323332883]}},{"type":"Feature","properties":{"municipio":"cae83594-36b6-4170-bb19-5eee429fc364","title":"GO - GOIANIA","tipo":null,"url":"\/dashboard\/details-assets\/cae83594-36b6-4170-bb19-5eee429fc364"},"geometry":{"type":"Point","coordinates":[-49.2558142758158,-16.6733097733198]}},{"type":"Feature","properties":{"municipio":"ee4029d0-5cb4-4d6f-99af-6816277ca5fa","title":"GO - CATALAO","tipo":null,"url":"\/dashboard\/details-assets\/ee4029d0-5cb4-4d6f-99af-6816277ca5fa"},"geometry":{"type":"Point","coordinates":[-47.9477032172158,-18.1695733628583]}},{"type":"Feature","properties":{"municipio":"e72754db-031f-4217-9c56-532df9be374f","title":"ES - VITORIA","tipo":null,"url":"\/dashboard\/details-assets\/e72754db-031f-4217-9c56-532df9be374f"},"geometry":{"type":"Point","coordinates":[-40.3222087267266,-20.3201537922382]}},{"type":"Feature","properties":{"municipio":"02aa59ba-8ca3-41d4-a26d-1282f8454b18","title":"ES - SAO MATEUS","tipo":null,"url":"\/dashboard\/details-assets\/02aa59ba-8ca3-41d4-a26d-1282f8454b18"},"geometry":{"type":"Point","coordinates":[-39.856734,-18.7190705]}},{"type":"Feature","properties":{"municipio":"98d79b58-ffc0-411b-a5b9-07642b468742","title":"DF - BRASILIA","tipo":null,"url":"\/dashboard\/details-assets\/98d79b58-ffc0-411b-a5b9-07642b468742"},"geometry":{"type":"Point","coordinates":[-47.8821658,-15.7942287]}},{"type":"Feature","properties":{"municipio":"01817f5e-0da9-4e4c-a859-c05052a00ff7","title":"CE - JUAZEIRO DO NORTE","tipo":null,"url":"\/dashboard\/details-assets\/01817f5e-0da9-4e4c-a859-c05052a00ff7"},"geometry":{"type":"Point","coordinates":[-39.3169933556143,-7.21076599976472]}},{"type":"Feature","properties":{"municipio":"a720e806-01d8-4fa9-ab87-6ea74ebbf70d","title":"BA - SALVADOR","tipo":null,"url":"\/dashboard\/details-assets\/a720e806-01d8-4fa9-ab87-6ea74ebbf70d"},"geometry":{"type":"Point","coordinates":[-38.4894342910156,-12.9906865792986]}},{"type":"Feature","properties":{"municipio":"d6f5165a-b0fa-4b16-a491-4c69b2bc7691","title":"CE - FORTALEZA","tipo":null,"url":"\/dashboard\/details-assets\/d6f5165a-b0fa-4b16-a491-4c69b2bc7691"},"geometry":{"type":"Point","coordinates":[-38.5899275550432,-3.72380503487754]}},{"type":"Feature","properties":{"municipio":"fb327b11-5148-46c4-9f05-b7fde781554c","title":"BA - CRUZ DAS ALMAS","tipo":null,"url":"\/dashboard\/details-assets\/fb327b11-5148-46c4-9f05-b7fde781554c"},"geometry":{"type":"Point","coordinates":[-39.1007361428306,-12.6637862123716]}},{"type":"Feature","properties":{"municipio":"391f3919-46ad-45b1-846d-a68b5b7feacb","title":"BA - BARREIRAS","tipo":null,"url":"\/dashboard\/details-assets\/391f3919-46ad-45b1-846d-a68b5b7feacb"},"geometry":{"type":"Point","coordinates":[-45.0041684370285,-12.144924888002]}},{"type":"Feature","properties":{"municipio":"9aa3eb86-3d55-43b8-8a92-183e3afd792f","title":"AM - MANAUS","tipo":null,"url":"\/dashboard\/details-assets\/9aa3eb86-3d55-43b8-8a92-183e3afd792f"},"geometry":{"type":"Point","coordinates":[-60.023335181061,-3.13469149109877]}},{"type":"Feature","properties":{"municipio":"bf3a3f20-4082-4b43-9ffc-7de2040d0680","title":"AP - MACAPA","tipo":null,"url":"\/dashboard\/details-assets\/bf3a3f20-4082-4b43-9ffc-7de2040d0680"},"geometry":{"type":"Point","coordinates":[-51.057405457036,0.0389510099987162]}},{"type":"Feature","properties":{"municipio":"d050d59c-6f46-4563-896c-291a8460fd20","title":"AL - MACEIO","tipo":null,"url":"\/dashboard\/details-assets\/d050d59c-6f46-4563-896c-291a8460fd20"},"geometry":{"type":"Point","coordinates":[-35.7016299134895,-9.66082215131856]}},{"type":"Feature","properties":{"municipio":"fca891bb-390c-4bac-b39e-a145d1a82770","title":"AL - ARAPIRACA","tipo":null,"url":"\/dashboard\/details-assets\/fca891bb-390c-4bac-b39e-a145d1a82770"},"geometry":{"type":"Point","coordinates":[-36.6572965062872,-9.75590701038918]}},{"type":"Feature","properties":{"municipio":"b3b36e8e-158e-4e8e-b8de-14463041e6e4","title":"AC - RIO BRANCO","tipo":null,"url":"\/dashboard\/details-assets\/b3b36e8e-158e-4e8e-b8de-14463041e6e4"},"geometry":{"type":"Point","coordinates":[-67.8298530625,-9.97343719016406]}}]}