{"type":"FeatureCollection","features":[{"type":"Feature","properties":{"municipio":"bf2fef59-9328-4014-9d03-c4bb63e6b68b","title":"GO - IPORA","tipo":null,"url":"\/dashboard\/details-assets\/bf2fef59-9328-4014-9d03-c4bb63e6b68b"},"geometry":{"type":"Point","coordinates":[-67.829853,-9.973437]}},{"type":"Feature","properties":{"municipio":"6cf559c3-cfce-448a-95b1-074367322dcd","title":"PB - SAO JOAO DO CARIRI","tipo":null,"url":"\/dashboard\/details-assets\/6cf559c3-cfce-448a-95b1-074367322dcd"},"geometry":{"type":"Point","coordinates":[-67.829853,-9.973437]}},{"type":"Feature","properties":{"municipio":"d8abc463-cc3c-486a-9c3f-868d5cbbbf48","title":"GO - BRAZABRANTES","tipo":null,"url":"\/dashboard\/details-assets\/d8abc463-cc3c-486a-9c3f-868d5cbbbf48"},"geometry":{"type":"Point","coordinates":[-67.829853,-9.973437]}},{"type":"Feature","properties":{"municipio":"d33fc749-0ad6-415c-bb37-8deb8a4b59e3","title":"GO - GOIAS","tipo":null,"url":"\/dashboard\/details-assets\/d33fc749-0ad6-415c-bb37-8deb8a4b59e3"},"geometry":{"type":"Point","coordinates":[-67.829853,-9.973437]}},{"type":"Feature","properties":{"municipio":"95ebb77d-77bf-4248-929e-b68756f3ac26","title":"SP - TABOAO DA SERRA","tipo":null,"url":"\/dashboard\/details-assets\/95ebb77d-77bf-4248-929e-b68756f3ac26"},"geometry":{"type":"Point","coordinates":[-46.7857800342102,-23.6233284993067]}},{"type":"Feature","properties":{"municipio":"75de0897-da00-4b95-b00e-78bf278617e1","title":"TO - XAMBIOA","tipo":null,"url":"\/dashboard\/details-assets\/75de0897-da00-4b95-b00e-78bf278617e1"},"geometry":{"type":"Point","coordinates":[-48.4387577,-6.5348814]}},{"type":"Feature","properties":{"municipio":"76013933-4068-4c8d-a057-cb9182ca1a1b","title":"TO - WANDERLANDIA","tipo":null,"url":"\/dashboard\/details-assets\/76013933-4068-4c8d-a057-cb9182ca1a1b"},"geometry":{"type":"Point","coordinates":[-47.9879822890625,-6.85203354754569]}},{"type":"Feature","properties":{"municipio":"3be36743-1b6c-412d-a1c9-e2c78ccd13dc","title":"TO - TOCANTINOPOLIS","tipo":null,"url":"\/dashboard\/details-assets\/3be36743-1b6c-412d-a1c9-e2c78ccd13dc"},"geometry":{"type":"Point","coordinates":[-47.4294977,-6.324747]}},{"type":"Feature","properties":{"municipio":"b8b07c63-8637-432a-a3a3-3cc7ceba4132","title":"TO - TALISMA","tipo":null,"url":"\/dashboard\/details-assets\/b8b07c63-8637-432a-a3a3-3cc7ceba4132"},"geometry":{"type":"Point","coordinates":[-49.09,-12.79]}},{"type":"Feature","properties":{"municipio":"1e948745-db63-4d09-a605-208eb2e50c32","title":"TO - TAGUATINGA","tipo":null,"url":"\/dashboard\/details-assets\/1e948745-db63-4d09-a605-208eb2e50c32"},"geometry":{"type":"Point","coordinates":[-46.4340888,-12.4060068]}},{"type":"Feature","properties":{"municipio":"63ca0c17-f487-4aff-ade5-b37c6a05f215","title":"TO - SANTA FE DO ARAGUAIA","tipo":null,"url":"\/dashboard\/details-assets\/63ca0c17-f487-4aff-ade5-b37c6a05f215"},"geometry":{"type":"Point","coordinates":[-48.72,-7.15]}},{"type":"Feature","properties":{"municipio":"478e9a2b-4605-4bdc-b93e-476620f24dde","title":"TO - PIUM","tipo":null,"url":"\/dashboard\/details-assets\/478e9a2b-4605-4bdc-b93e-476620f24dde"},"geometry":{"type":"Point","coordinates":[-49.1798964,-10.4427779]}},{"type":"Feature","properties":{"municipio":"46e914e1-77c7-4a49-8566-1af98be3afa6","title":"TO - PORTO NACIONAL","tipo":null,"url":"\/dashboard\/details-assets\/46e914e1-77c7-4a49-8566-1af98be3afa6"},"geometry":{"type":"Point","coordinates":[-48.4084858,-10.703164]}},{"type":"Feature","properties":{"municipio":"e46b7bb5-9235-4117-8aa6-6b60d781e0b3","title":"TO - PEIXE","tipo":null,"url":"\/dashboard\/details-assets\/e46b7bb5-9235-4117-8aa6-6b60d781e0b3"},"geometry":{"type":"Point","coordinates":[-48.5486964,-12.0258526]}},{"type":"Feature","properties":{"municipio":"ace03914-f278-433d-aaf3-6c8e2374f15f","title":"TO - PEDRO AFONSO","tipo":null,"url":"\/dashboard\/details-assets\/ace03914-f278-433d-aaf3-6c8e2374f15f"},"geometry":{"type":"Point","coordinates":[-48.1789749726562,-8.96294299493553]}},{"type":"Feature","properties":{"municipio":"e969b22e-e25f-472e-a682-ad143436a918","title":"TO - PARAISO DO TOCANTINS","tipo":null,"url":"\/dashboard\/details-assets\/e969b22e-e25f-472e-a682-ad143436a918"},"geometry":{"type":"Point","coordinates":[-48.8749632890625,-10.1022178708894]}},{"type":"Feature","properties":{"municipio":"8815fdd8-3232-449e-87ef-ff667baba27d","title":"TO - PALMEIROPOLIS","tipo":null,"url":"\/dashboard\/details-assets\/8815fdd8-3232-449e-87ef-ff667baba27d"},"geometry":{"type":"Point","coordinates":[-48.4,-13.04]}},{"type":"Feature","properties":{"municipio":"9ccd9df9-f33d-49b7-bb83-2e9aad922881","title":"TO - PALMAS","tipo":null,"url":"\/dashboard\/details-assets\/9ccd9df9-f33d-49b7-bb83-2e9aad922881"},"geometry":{"type":"Point","coordinates":[-48.3170359140625,-10.2302993132777]}},{"type":"Feature","properties":{"municipio":"41ae98d9-9add-48b8-87c5-72719919cbe4","title":"TO - NOVO ALEGRE","tipo":null,"url":"\/dashboard\/details-assets\/41ae98d9-9add-48b8-87c5-72719919cbe4"},"geometry":{"type":"Point","coordinates":[-46.574058,-12.9002047]}},{"type":"Feature","properties":{"municipio":"413c1270-5f78-46d6-aeb6-24cdfdf617ef","title":"TO - MIRANORTE","tipo":null,"url":"\/dashboard\/details-assets\/413c1270-5f78-46d6-aeb6-24cdfdf617ef"},"geometry":{"type":"Point","coordinates":[-48.5952299480469,-9.5164249529529]}},{"type":"Feature","properties":{"municipio":"d8d51e64-55b5-49e6-baff-8e46fa5f973a","title":"TO - MIRACEMA DO TOCANTINS","tipo":null,"url":"\/dashboard\/details-assets\/d8d51e64-55b5-49e6-baff-8e46fa5f973a"},"geometry":{"type":"Point","coordinates":[-48.393409,-9.5659692]}},{"type":"Feature","properties":{"municipio":"2a4964fa-5754-47a4-92bc-a90de5de2058","title":"TO - LAJEADO","tipo":null,"url":"\/dashboard\/details-assets\/2a4964fa-5754-47a4-92bc-a90de5de2058"},"geometry":{"type":"Point","coordinates":[-48.35,-9.75]}},{"type":"Feature","properties":{"municipio":"89206e55-1dc4-49c1-ac3f-f9359f84d300","title":"TO - LUZINOPOLIS","tipo":null,"url":"\/dashboard\/details-assets\/89206e55-1dc4-49c1-ac3f-f9359f84d300"},"geometry":{"type":"Point","coordinates":[-47.8606275,-6.1900539]}},{"type":"Feature","properties":{"municipio":"1b17c347-33f4-4410-be00-ba2637305e4a","title":"TO - GURUPI","tipo":null,"url":"\/dashboard\/details-assets\/1b17c347-33f4-4410-be00-ba2637305e4a"},"geometry":{"type":"Point","coordinates":[-49.06,-11.72]}},{"type":"Feature","properties":{"municipio":"502f44e4-9e15-4517-bdc6-47f2e8598f6a","title":"TO - GUARAI","tipo":null,"url":"\/dashboard\/details-assets\/502f44e4-9e15-4517-bdc6-47f2e8598f6a"},"geometry":{"type":"Point","coordinates":[-48.511861,-8.8358375]}},{"type":"Feature","properties":{"municipio":"adcd027c-9609-4799-a28d-ded8fffad36e","title":"TO - DIANOPOLIS","tipo":null,"url":"\/dashboard\/details-assets\/adcd027c-9609-4799-a28d-ded8fffad36e"},"geometry":{"type":"Point","coordinates":[-46.825933703125,-11.7480617579576]}},{"type":"Feature","properties":{"municipio":"1633caae-1e34-487f-bfaa-b2acc56ec2a3","title":"TO - FORMOSO DO ARAGUAIA","tipo":null,"url":"\/dashboard\/details-assets\/1633caae-1e34-487f-bfaa-b2acc56ec2a3"},"geometry":{"type":"Point","coordinates":[-49.5366012,-11.8057599]}},{"type":"Feature","properties":{"municipio":"876133c2-3d9c-4a2f-8039-115321779ecb","title":"TO - CRISTALANDIA","tipo":null,"url":"\/dashboard\/details-assets\/876133c2-3d9c-4a2f-8039-115321779ecb"},"geometry":{"type":"Point","coordinates":[-49.2213807734375,-10.5799465392555]}},{"type":"Feature","properties":{"municipio":"842feffe-f8c3-4311-9e84-d1f5789ca8ee","title":"TO - COLINAS DO TOCANTINS","tipo":null,"url":"\/dashboard\/details-assets\/842feffe-f8c3-4311-9e84-d1f5789ca8ee"},"geometry":{"type":"Point","coordinates":[-48.4485905,-7.99054549221896]}},{"type":"Feature","properties":{"municipio":"19a06e87-c258-4b1f-8d3d-58f3727fadf1","title":"TO - COLMEIA","tipo":null,"url":"\/dashboard\/details-assets\/19a06e87-c258-4b1f-8d3d-58f3727fadf1"},"geometry":{"type":"Point","coordinates":[-48.7689258371094,-8.71691408780074]}},{"type":"Feature","properties":{"municipio":"e06367b1-e7f8-4b61-a651-809c1dfc9a7b","title":"TO - CARIRI DO TOCANTINS","tipo":null,"url":"\/dashboard\/details-assets\/e06367b1-e7f8-4b61-a651-809c1dfc9a7b"},"geometry":{"type":"Point","coordinates":[-49.1625989,-11.9598899]}},{"type":"Feature","properties":{"municipio":"c0e637ff-0081-4362-b06c-a658e402fa64","title":"TO - BERNARDO SAYAO","tipo":null,"url":"\/dashboard\/details-assets\/c0e637ff-0081-4362-b06c-a658e402fa64"},"geometry":{"type":"Point","coordinates":[-48.8945273,-7.8818515]}},{"type":"Feature","properties":{"municipio":"af585ad5-bf78-4dda-8fcb-29a4545801b2","title":"TO - BARROLANDIA","tipo":null,"url":"\/dashboard\/details-assets\/af585ad5-bf78-4dda-8fcb-29a4545801b2"},"geometry":{"type":"Point","coordinates":[-48.7285037277344,-9.82362514573541]}},{"type":"Feature","properties":{"municipio":"a6f7b9e0-d078-492b-99d5-948ff03d916d","title":"TO - BABACULANDIA","tipo":null,"url":"\/dashboard\/details-assets\/a6f7b9e0-d078-492b-99d5-948ff03d916d"},"geometry":{"type":"Point","coordinates":[-47.759016,-7.2032092]}},{"type":"Feature","properties":{"municipio":"11a0068c-3bb7-409a-a21b-82db25e622d6","title":"TO - AUGUSTINOPOLIS","tipo":null,"url":"\/dashboard\/details-assets\/11a0068c-3bb7-409a-a21b-82db25e622d6"},"geometry":{"type":"Point","coordinates":[-47.88,-5.46]}},{"type":"Feature","properties":{"municipio":"2a5338da-47da-4c97-85df-6dbef506d740","title":"TO - ARRAIAS","tipo":null,"url":"\/dashboard\/details-assets\/2a5338da-47da-4c97-85df-6dbef506d740"},"geometry":{"type":"Point","coordinates":[-46.9805103,-12.6770601]}},{"type":"Feature","properties":{"municipio":"33f8f84f-14c6-4cbe-8ee7-49285980779c","title":"TO - ARAPOEMA","tipo":null,"url":"\/dashboard\/details-assets\/33f8f84f-14c6-4cbe-8ee7-49285980779c"},"geometry":{"type":"Point","coordinates":[-49.06,-7.65]}},{"type":"Feature","properties":{"municipio":"176fe0c3-406c-45bf-9907-6367475f309a","title":"TO - ARAGUATINS","tipo":null,"url":"\/dashboard\/details-assets\/176fe0c3-406c-45bf-9907-6367475f309a"},"geometry":{"type":"Point","coordinates":[-48.1193893,-5.6484113]}},{"type":"Feature","properties":{"municipio":"a62c99d1-cdba-4de5-9924-3dd469c0d5a1","title":"TO - ARAGUACU","tipo":null,"url":"\/dashboard\/details-assets\/a62c99d1-cdba-4de5-9924-3dd469c0d5a1"},"geometry":{"type":"Point","coordinates":[-49.82,-12.93]}},{"type":"Feature","properties":{"municipio":"678b2ddd-b368-40b8-a007-8b2578089298","title":"TO - ARAGUAINA","tipo":null,"url":"\/dashboard\/details-assets\/678b2ddd-b368-40b8-a007-8b2578089298"},"geometry":{"type":"Point","coordinates":[-48.2874074,-7.2109414]}},{"type":"Feature","properties":{"municipio":"125a61dd-13cb-47a4-8f0f-86cfe2721027","title":"TO - ANANAS","tipo":null,"url":"\/dashboard\/details-assets\/125a61dd-13cb-47a4-8f0f-86cfe2721027"},"geometry":{"type":"Point","coordinates":[-48.0705306839844,-6.35184785303923]}},{"type":"Feature","properties":{"municipio":"156725e6-506d-40d5-99d3-c07920c5cc3f","title":"SE - SAO CRISTOVAO","tipo":null,"url":"\/dashboard\/details-assets\/156725e6-506d-40d5-99d3-c07920c5cc3f"},"geometry":{"type":"Point","coordinates":[-37.2,-11.01]}},{"type":"Feature","properties":{"municipio":"8ecf681f-60b2-46de-abdf-4496f787b49e","title":"SE - NOSSA SENHORA DA GLORIA","tipo":null,"url":"\/dashboard\/details-assets\/8ecf681f-60b2-46de-abdf-4496f787b49e"},"geometry":{"type":"Point","coordinates":[-37.42,-10.21]}},{"type":"Feature","properties":{"municipio":"a67f44f6-de40-417c-aaed-bdc84573c057","title":"SE - NOSSA SENHORA DO SOCORRO","tipo":null,"url":"\/dashboard\/details-assets\/a67f44f6-de40-417c-aaed-bdc84573c057"},"geometry":{"type":"Point","coordinates":[-37.1269791,-10.8531643]}},{"type":"Feature","properties":{"municipio":"b3cd3637-0f65-471d-ad6e-91cf56906988","title":"SE - ESTANCIA","tipo":null,"url":"\/dashboard\/details-assets\/b3cd3637-0f65-471d-ad6e-91cf56906988"},"geometry":{"type":"Point","coordinates":[-37.43854,-11.268661]}},{"type":"Feature","properties":{"municipio":"68246099-9145-41ef-b584-f4a6ad18644c","title":"SE - AREIA BRANCA","tipo":null,"url":"\/dashboard\/details-assets\/68246099-9145-41ef-b584-f4a6ad18644c"},"geometry":{"type":"Point","coordinates":[-37.329580128125,-10.7520532110041]}},{"type":"Feature","properties":{"municipio":"46cc322d-db80-444b-8a10-523e0ed71e53","title":"SE - ARACAJU","tipo":null,"url":"\/dashboard\/details-assets\/46cc322d-db80-444b-8a10-523e0ed71e53"},"geometry":{"type":"Point","coordinates":[-37.0730823,-10.9472468]}},{"type":"Feature","properties":{"municipio":"ccb75a40-510d-47d7-8fc9-a66ad1c09e6b","title":"SP - VALPARAISO","tipo":null,"url":"\/dashboard\/details-assets\/ccb75a40-510d-47d7-8fc9-a66ad1c09e6b"},"geometry":{"type":"Point","coordinates":[-50.8593077,-21.2294354]}},{"type":"Feature","properties":{"municipio":"84bef256-6777-4a78-b1e4-25b4a51cd972","title":"SP - VOTORANTIM","tipo":null,"url":"\/dashboard\/details-assets\/84bef256-6777-4a78-b1e4-25b4a51cd972"},"geometry":{"type":"Point","coordinates":[-47.4445978,-23.540286]}},{"type":"Feature","properties":{"municipio":"076ce774-00a6-4550-a571-60fbb9f09cc4","title":"SP - TUPI PAULISTA","tipo":null,"url":"\/dashboard\/details-assets\/076ce774-00a6-4550-a571-60fbb9f09cc4"},"geometry":{"type":"Point","coordinates":[-51.5754829,-21.3829234]}},{"type":"Feature","properties":{"municipio":"84f2ae20-e300-4a7c-a722-2a544db1f329","title":"SP - TAUBATE","tipo":null,"url":"\/dashboard\/details-assets\/84f2ae20-e300-4a7c-a722-2a544db1f329"},"geometry":{"type":"Point","coordinates":[-45.5563555,-23.0204559]}},{"type":"Feature","properties":{"municipio":"c704c6bd-9a2f-4804-8e8d-dc3679601338","title":"SP - TREMEMBE","tipo":null,"url":"\/dashboard\/details-assets\/c704c6bd-9a2f-4804-8e8d-dc3679601338"},"geometry":{"type":"Point","coordinates":[-45.5468234761719,-22.9536763147576]}},{"type":"Feature","properties":{"municipio":"ef31daac-9ad6-404a-9ae6-27516febe781","title":"SP - TAQUARITUBA","tipo":null,"url":"\/dashboard\/details-assets\/ef31daac-9ad6-404a-9ae6-27516febe781"},"geometry":{"type":"Point","coordinates":[-49.2459964,-23.5263997]}},{"type":"Feature","properties":{"municipio":"3575c685-b73d-4b5d-b512-4b2f720779df","title":"SP - TAQUARITINGA","tipo":null,"url":"\/dashboard\/details-assets\/3575c685-b73d-4b5d-b512-4b2f720779df"},"geometry":{"type":"Point","coordinates":[-48.5067421828536,-21.4100079993582]}},{"type":"Feature","properties":{"municipio":"33793984-ed0b-4c41-a842-83317173e993","title":"SP - TAIUVA","tipo":null,"url":"\/dashboard\/details-assets\/33793984-ed0b-4c41-a842-83317173e993"},"geometry":{"type":"Point","coordinates":[-48.4537633,-21.1245903]}},{"type":"Feature","properties":{"municipio":"5e99a6b0-0f59-4ef3-ab2b-fc08aa9d0551","title":"SP - TANABI","tipo":null,"url":"\/dashboard\/details-assets\/5e99a6b0-0f59-4ef3-ab2b-fc08aa9d0551"},"geometry":{"type":"Point","coordinates":[-49.6546435,-20.6286479]}},{"type":"Feature","properties":{"municipio":"8ccccdba-1955-45d6-9274-cc93b84e4330","title":"SP - SUMARE","tipo":null,"url":"\/dashboard\/details-assets\/8ccccdba-1955-45d6-9274-cc93b84e4330"},"geometry":{"type":"Point","coordinates":[-47.2658027320901,-22.8221449993248]}},{"type":"Feature","properties":{"municipio":"507999b5-7408-4217-a77e-e6701fe96956","title":"SP - SERTAOZINHO","tipo":null,"url":"\/dashboard\/details-assets\/507999b5-7408-4217-a77e-e6701fe96956"},"geometry":{"type":"Point","coordinates":[-47.990137,-21.1379949]}},{"type":"Feature","properties":{"municipio":"2afcf009-4f06-4c77-b506-67f4a57e67b0","title":"SP - SOROCABA","tipo":null,"url":"\/dashboard\/details-assets\/2afcf009-4f06-4c77-b506-67f4a57e67b0"},"geometry":{"type":"Point","coordinates":[-47.457853253204,-23.4993229993095]}},{"type":"Feature","properties":{"municipio":"4f8a3f59-61df-44a9-b93a-695a9c49a966","title":"SP - SERRA AZUL","tipo":null,"url":"\/dashboard\/details-assets\/4f8a3f59-61df-44a9-b93a-695a9c49a966"},"geometry":{"type":"Point","coordinates":[-47.5642475,-21.311503]}},{"type":"Feature","properties":{"municipio":"bba7f4b9-f9e0-4b28-8869-9d07817127b5","title":"SP - SAO VICENTE","tipo":null,"url":"\/dashboard\/details-assets\/bba7f4b9-f9e0-4b28-8869-9d07817127b5"},"geometry":{"type":"Point","coordinates":[-46.3844908173176,-23.967372999299]}},{"type":"Feature","properties":{"municipio":"cddb0221-6cb3-4610-9187-c61a177b6ce2","title":"SP - SAO PAULO","tipo":null,"url":"\/dashboard\/details-assets\/cddb0221-6cb3-4610-9187-c61a177b6ce2"},"geometry":{"type":"Point","coordinates":[-46.5703831821128,-23.567386499308]}},{"type":"Feature","properties":{"municipio":"54a39351-3210-4126-b3d0-ae3795534144","title":"SP - SAO JOSE DOS CAMPOS","tipo":null,"url":"\/dashboard\/details-assets\/54a39351-3210-4126-b3d0-ae3795534144"},"geometry":{"type":"Point","coordinates":[-45.899405,-23.23021]}},{"type":"Feature","properties":{"municipio":"97d2be3b-243f-4871-96bb-d60e83e351b2","title":"SP - SAO JOSE DO RIO PRETO","tipo":null,"url":"\/dashboard\/details-assets\/97d2be3b-243f-4871-96bb-d60e83e351b2"},"geometry":{"type":"Point","coordinates":[-46.8877455,-21.5957703]}},{"type":"Feature","properties":{"municipio":"76b345ad-5c1b-49f1-b892-f1bef920ddd5","title":"SP - SAO BERNARDO DO CAMPO","tipo":null,"url":"\/dashboard\/details-assets\/76b345ad-5c1b-49f1-b892-f1bef920ddd5"},"geometry":{"type":"Point","coordinates":[-46.5502572476783,-23.7103044993048]}},{"type":"Feature","properties":{"municipio":"f7f9f2a7-9342-4aa8-a832-90d941c958b0","title":"SP - SAO CARLOS","tipo":null,"url":"\/dashboard\/details-assets\/f7f9f2a7-9342-4aa8-a832-90d941c958b0"},"geometry":{"type":"Point","coordinates":[-53.017394273321,-27.0786350771308]}},{"type":"Feature","properties":{"municipio":"34d85200-401b-4acf-a6f5-eeb1e5ccbce4","title":"SP - SANTOS","tipo":null,"url":"\/dashboard\/details-assets\/34d85200-401b-4acf-a6f5-eeb1e5ccbce4"},"geometry":{"type":"Point","coordinates":[-46.3313708491907,-23.9337374992997]}},{"type":"Feature","properties":{"municipio":"bc15c952-9343-46d4-8cf3-09e67f5e29f4","title":"SP - SANTO ANDRE","tipo":null,"url":"\/dashboard\/details-assets\/bc15c952-9343-46d4-8cf3-09e67f5e29f4"},"geometry":{"type":"Point","coordinates":[-46.5308742576295,-23.6575099993059]}},{"type":"Feature","properties":{"municipio":"aef5588e-1893-4274-8ef9-5c735c3d80c9","title":"SP - RIOLANDIA","tipo":null,"url":"\/dashboard\/details-assets\/aef5588e-1893-4274-8ef9-5c735c3d80c9"},"geometry":{"type":"Point","coordinates":[-49.680085,-19.9818737]}},{"type":"Feature","properties":{"municipio":"21a6e429-3aaa-4545-8bb2-1a534b5a7ab3","title":"SP - RIO CLARO","tipo":null,"url":"\/dashboard\/details-assets\/21a6e429-3aaa-4545-8bb2-1a534b5a7ab3"},"geometry":{"type":"Point","coordinates":[-47.5635332384344,-22.4125114993344]}},{"type":"Feature","properties":{"municipio":"957ffa11-5fdc-49ba-af5e-7a106a4d0a2b","title":"SP - RIBEIRAO PRETO","tipo":null,"url":"\/dashboard\/details-assets\/957ffa11-5fdc-49ba-af5e-7a106a4d0a2b"},"geometry":{"type":"Point","coordinates":[-47.8054759155415,-21.1848344993636]}},{"type":"Feature","properties":{"municipio":"5f90364b-a586-4361-b53b-eff9fe19f863","title":"SP - PRESIDENTE VENCESLAU","tipo":null,"url":"\/dashboard\/details-assets\/5f90364b-a586-4361-b53b-eff9fe19f863"},"geometry":{"type":"Point","coordinates":[-51.8402588050568,-21.875939504347]}},{"type":"Feature","properties":{"municipio":"004c715f-b0e0-41eb-8fa7-3df4bc61181e","title":"SP - REGINOPOLIS","tipo":null,"url":"\/dashboard\/details-assets\/004c715f-b0e0-41eb-8fa7-3df4bc61181e"},"geometry":{"type":"Point","coordinates":[-49.2241724,-21.8888654]}},{"type":"Feature","properties":{"municipio":"e3aa1ec2-e2c4-43e0-91a0-af441d2d161d","title":"SP - PRESIDENTE PRUDENTE","tipo":null,"url":"\/dashboard\/details-assets\/e3aa1ec2-e2c4-43e0-91a0-af441d2d161d"},"geometry":{"type":"Point","coordinates":[-51.3867655819124,-22.1227434993411]}},{"type":"Feature","properties":{"municipio":"8a6358de-63f4-4fd9-bfe7-666056e6fa9d","title":"SP - PRESIDENTE BERNARDES","tipo":null,"url":"\/dashboard\/details-assets\/8a6358de-63f4-4fd9-bfe7-666056e6fa9d"},"geometry":{"type":"Point","coordinates":[-51.5531899,-22.0077937]}},{"type":"Feature","properties":{"municipio":"9bb828d2-2647-4f65-aeab-ec19d5dac733","title":"SP - PRAIA GRANDE","tipo":null,"url":"\/dashboard\/details-assets\/9bb828d2-2647-4f65-aeab-ec19d5dac733"},"geometry":{"type":"Point","coordinates":[-46.4124616,-24.0088421]}},{"type":"Feature","properties":{"municipio":"464d1cb8-f8e3-48be-b465-46d0c7192c78","title":"SP - PRACINHA","tipo":null,"url":"\/dashboard\/details-assets\/464d1cb8-f8e3-48be-b465-46d0c7192c78"},"geometry":{"type":"Point","coordinates":[-46.4124616,-24.0088421]}},{"type":"Feature","properties":{"municipio":"44852491-1461-4d70-b592-4ddbad3374bd","title":"SP - POTIM","tipo":null,"url":"\/dashboard\/details-assets\/44852491-1461-4d70-b592-4ddbad3374bd"},"geometry":{"type":"Point","coordinates":[-45.2554893,-22.8401139]}},{"type":"Feature","properties":{"municipio":"106d2655-7aaa-4f71-a1d8-efceff3354ae","title":"SP - PONTAL","tipo":null,"url":"\/dashboard\/details-assets\/106d2655-7aaa-4f71-a1d8-efceff3354ae"},"geometry":{"type":"Point","coordinates":[-48.0378373025419,-21.0257099993675]}},{"type":"Feature","properties":{"municipio":"b541b601-f415-4a89-b6f8-e262fd8d9008","title":"SP - PORTO FELIZ","tipo":null,"url":"\/dashboard\/details-assets\/b541b601-f415-4a89-b6f8-e262fd8d9008"},"geometry":{"type":"Point","coordinates":[-47.5245965730655,-23.2144122673158]}},{"type":"Feature","properties":{"municipio":"6412abdd-a68c-41da-8fee-db63ad6a48e3","title":"SP - PIRAJUI","tipo":null,"url":"\/dashboard\/details-assets\/6412abdd-a68c-41da-8fee-db63ad6a48e3"},"geometry":{"type":"Point","coordinates":[-49.457917,-21.974887]}},{"type":"Feature","properties":{"municipio":"2fc4f071-9026-4b03-ba8d-ab8cfadcb8b8","title":"SP - PIRACICABA","tipo":null,"url":"\/dashboard\/details-assets\/2fc4f071-9026-4b03-ba8d-ab8cfadcb8b8"},"geometry":{"type":"Point","coordinates":[-47.6468462361582,-22.7237219993271]}},{"type":"Feature","properties":{"municipio":"a8cc14af-86aa-4854-b2f2-ca4ad0e90fdb","title":"SP - PERUIBE","tipo":null,"url":"\/dashboard\/details-assets\/a8cc14af-86aa-4854-b2f2-ca4ad0e90fdb"},"geometry":{"type":"Point","coordinates":[-47.0016573,-24.3124785]}},{"type":"Feature","properties":{"municipio":"54a849fe-bbd1-4d2a-9840-5df2204b2e40","title":"SP - PARAGUACU PAULISTA","tipo":null,"url":"\/dashboard\/details-assets\/54a849fe-bbd1-4d2a-9840-5df2204b2e40"},"geometry":{"type":"Point","coordinates":[-50.5750285304782,-22.4177110193342]}},{"type":"Feature","properties":{"municipio":"22b3af92-f6cc-498e-a742-27d56e824386","title":"SP - PACAEMBU","tipo":null,"url":"\/dashboard\/details-assets\/22b3af92-f6cc-498e-a742-27d56e824386"},"geometry":{"type":"Point","coordinates":[-51.2658432,-21.563131]}},{"type":"Feature","properties":{"municipio":"41481ba2-996a-4aaf-b623-3c0d5646ca14","title":"SP - OURINHOS","tipo":null,"url":"\/dashboard\/details-assets\/41481ba2-996a-4aaf-b623-3c0d5646ca14"},"geometry":{"type":"Point","coordinates":[-49.868579835937,-22.9772674993213]}},{"type":"Feature","properties":{"municipio":"3c40a735-7bdf-4ef8-8b73-756b33c6a620","title":"SP - OSVALDO CRUZ","tipo":null,"url":"\/dashboard\/details-assets\/3c40a735-7bdf-4ef8-8b73-756b33c6a620"},"geometry":{"type":"Point","coordinates":[-50.8731391102635,-21.7970834993489]}},{"type":"Feature","properties":{"municipio":"b77c74e6-b750-4be8-b1df-aad3a968f5d8","title":"SP - OSASCO","tipo":null,"url":"\/dashboard\/details-assets\/b77c74e6-b750-4be8-b1df-aad3a968f5d8"},"geometry":{"type":"Point","coordinates":[-46.7888101442714,-23.5336119993087]}},{"type":"Feature","properties":{"municipio":"06a6d4ed-f7d7-4d18-bc80-a11aef2adcf7","title":"SP - MOJI MIRIM","tipo":null,"url":"\/dashboard\/details-assets\/06a6d4ed-f7d7-4d18-bc80-a11aef2adcf7"},"geometry":{"type":"Point","coordinates":[-46.956367126579,-22.4326954993339]}},{"type":"Feature","properties":{"municipio":"b48294c0-fd59-453a-8c0d-1e94cb4fa8d9","title":"SP - MONGAGUA","tipo":null,"url":"\/dashboard\/details-assets\/b48294c0-fd59-453a-8c0d-1e94cb4fa8d9"},"geometry":{"type":"Point","coordinates":[-46.619992725371,-24.0941161442961]}},{"type":"Feature","properties":{"municipio":"19878b0d-75e4-48b9-9c27-61fd49ae4321","title":"SP - MOGI GUACU","tipo":null,"url":"\/dashboard\/details-assets\/19878b0d-75e4-48b9-9c27-61fd49ae4321"},"geometry":{"type":"Point","coordinates":[-46.9444740881491,-22.365720188847]}},{"type":"Feature","properties":{"municipio":"29f074c9-d99a-4205-aaf2-875f6410332d","title":"SP - MOCOCA","tipo":null,"url":"\/dashboard\/details-assets\/29f074c9-d99a-4205-aaf2-875f6410332d"},"geometry":{"type":"Point","coordinates":[-47.0071709787367,-21.4689905093567]}},{"type":"Feature","properties":{"municipio":"47967b99-18a0-4a7c-bafe-a679577ae96f","title":"SP - MIRANDOPOLIS","tipo":null,"url":"\/dashboard\/details-assets\/47967b99-18a0-4a7c-bafe-a679577ae96f"},"geometry":{"type":"Point","coordinates":[-51.1023381,-21.1331045]}},{"type":"Feature","properties":{"municipio":"e5c55ab5-cdc1-4ac6-997b-cedfd6b93350","title":"SP - MIRASSOL","tipo":null,"url":"\/dashboard\/details-assets\/e5c55ab5-cdc1-4ac6-997b-cedfd6b93350"},"geometry":{"type":"Point","coordinates":[-49.5121392179273,-20.8170044993726]}},{"type":"Feature","properties":{"municipio":"b37bafc2-b138-4924-a3bd-6040643bc223","title":"SP - MAUA","tipo":null,"url":"\/dashboard\/details-assets\/b37bafc2-b138-4924-a3bd-6040643bc223"},"geometry":{"type":"Point","coordinates":[-46.4617086,-23.668163]}},{"type":"Feature","properties":{"municipio":"e67301aa-ba7e-4ab9-8860-a5d3537026e4","title":"SP - MARTINOPOLIS","tipo":null,"url":"\/dashboard\/details-assets\/e67301aa-ba7e-4ab9-8860-a5d3537026e4"},"geometry":{"type":"Point","coordinates":[-51.1721045,-22.1495283]}},{"type":"Feature","properties":{"municipio":"19ffa8f3-c3a3-4578-b7f6-b39ea5ea4f5c","title":"SP - MARILIA","tipo":null,"url":"\/dashboard\/details-assets\/19ffa8f3-c3a3-4578-b7f6-b39ea5ea4f5c"},"geometry":{"type":"Point","coordinates":[-49.9505291,-22.2175846]}},{"type":"Feature","properties":{"municipio":"d2a2f145-6329-4bf0-8d0b-96527f7d175c","title":"SP - MARABA PAULISTA","tipo":null,"url":"\/dashboard\/details-assets\/d2a2f145-6329-4bf0-8d0b-96527f7d175c"},"geometry":{"type":"Point","coordinates":[-51.9623009648437,-22.0761350517241]}},{"type":"Feature","properties":{"municipio":"7db49cc9-71c7-4bd5-a27b-e9158330f8ac","title":"SP - LUCELIA","tipo":null,"url":"\/dashboard\/details-assets\/7db49cc9-71c7-4bd5-a27b-e9158330f8ac"},"geometry":{"type":"Point","coordinates":[-51.0219868,-21.7186744]}},{"type":"Feature","properties":{"municipio":"24fb30e7-82d7-43ee-922c-13a49310a1f1","title":"SP - MAIRINQUE","tipo":null,"url":"\/dashboard\/details-assets\/24fb30e7-82d7-43ee-922c-13a49310a1f1"},"geometry":{"type":"Point","coordinates":[-47.1947232,-23.5297232]}},{"type":"Feature","properties":{"municipio":"27753d32-436a-4954-aabc-9fba4f2176fe","title":"SP - LORENA","tipo":null,"url":"\/dashboard\/details-assets\/27753d32-436a-4954-aabc-9fba4f2176fe"},"geometry":{"type":"Point","coordinates":[-45.1242481441632,-22.7316930319565]}},{"type":"Feature","properties":{"municipio":"43c026b2-6108-493b-ba14-a511a9ad1e29","title":"SP - LINS","tipo":null,"url":"\/dashboard\/details-assets\/43c026b2-6108-493b-ba14-a511a9ad1e29"},"geometry":{"type":"Point","coordinates":[-49.7514233866855,-21.6723464993518]}},{"type":"Feature","properties":{"municipio":"c0f9797c-6ac1-4eec-a86e-5977f1398918","title":"SP - LIMEIRA","tipo":null,"url":"\/dashboard\/details-assets\/c0f9797c-6ac1-4eec-a86e-5977f1398918"},"geometry":{"type":"Point","coordinates":[-47.4019395233101,-22.5621939993309]}},{"type":"Feature","properties":{"municipio":"07452743-292c-41b3-9fe3-53acf3df2fac","title":"SP - LAVINIA","tipo":null,"url":"\/dashboard\/details-assets\/07452743-292c-41b3-9fe3-53acf3df2fac"},"geometry":{"type":"Point","coordinates":[-51.0428566,-21.1655923]}},{"type":"Feature","properties":{"municipio":"0e49d852-aa4f-4b3d-a2f3-9ee42f2806b9","title":"SP - JUNQUEIROPOLIS","tipo":null,"url":"\/dashboard\/details-assets\/0e49d852-aa4f-4b3d-a2f3-9ee42f2806b9"},"geometry":{"type":"Point","coordinates":[-51.4346653,-21.5108173]}},{"type":"Feature","properties":{"municipio":"4a68216c-cc7c-4f29-8932-66657a58483e","title":"SP - JAU","tipo":null,"url":"\/dashboard\/details-assets\/4a68216c-cc7c-4f29-8932-66657a58483e"},"geometry":{"type":"Point","coordinates":[-48.5581413878331,-22.2957909893371]}},{"type":"Feature","properties":{"municipio":"46f23ed2-c1a6-457b-9e80-30cbe502305a","title":"SP - JUNDIAI","tipo":null,"url":"\/dashboard\/details-assets\/46f23ed2-c1a6-457b-9e80-30cbe502305a"},"geometry":{"type":"Point","coordinates":[-46.8852739679967,-23.1876679993165]}},{"type":"Feature","properties":{"municipio":"d839d793-1b67-442d-9f7e-648b437ae29e","title":"SP - JARDINOPOLIS","tipo":null,"url":"\/dashboard\/details-assets\/d839d793-1b67-442d-9f7e-648b437ae29e"},"geometry":{"type":"Point","coordinates":[-47.7772049,-21.0277616]}},{"type":"Feature","properties":{"municipio":"afcaf448-7afb-485b-a418-364267bae647","title":"SP - JACAREi","tipo":null,"url":"\/dashboard\/details-assets\/afcaf448-7afb-485b-a418-364267bae647"},"geometry":{"type":"Point","coordinates":[-45.96,-23.3]}},{"type":"Feature","properties":{"municipio":"67da108c-48f6-47d9-a60a-cebaa877c4e6","title":"SP - ITIRAPINA","tipo":null,"url":"\/dashboard\/details-assets\/67da108c-48f6-47d9-a60a-cebaa877c4e6"},"geometry":{"type":"Point","coordinates":[-47.8170462,-22.2567218]}},{"type":"Feature","properties":{"municipio":"28f149d2-fcff-49eb-87e1-0840710ddb86","title":"SP - ITATINGA","tipo":null,"url":"\/dashboard\/details-assets\/28f149d2-fcff-49eb-87e1-0840710ddb86"},"geometry":{"type":"Point","coordinates":[-48.6123867,-23.1067087]}},{"type":"Feature","properties":{"municipio":"84518ebf-e91b-485a-a126-a99fd5be455a","title":"SP - ITAQUAQUECETUBA","tipo":null,"url":"\/dashboard\/details-assets\/84518ebf-e91b-485a-a126-a99fd5be455a"},"geometry":{"type":"Point","coordinates":[-46.3516031409654,-23.47689749931]}},{"type":"Feature","properties":{"municipio":"49c5d673-aa7f-434b-874e-5bb7d4090d8b","title":"SP - ITAPETININGA","tipo":null,"url":"\/dashboard\/details-assets\/49c5d673-aa7f-434b-874e-5bb7d4090d8b"},"geometry":{"type":"Point","coordinates":[-48.0461428954547,-23.5878724993075]}},{"type":"Feature","properties":{"municipio":"72e008b6-3ad2-4069-9108-7d1785a3c0a4","title":"SP - ITAPECERICA DA SERRA","tipo":null,"url":"\/dashboard\/details-assets\/72e008b6-3ad2-4069-9108-7d1785a3c0a4"},"geometry":{"type":"Point","coordinates":[-46.8505519668521,-23.7153569993047]}},{"type":"Feature","properties":{"municipio":"2c7f10a8-be50-4b6d-a2a6-0e676a691400","title":"SP - ITANHAEM","tipo":null,"url":"\/dashboard\/details-assets\/2c7f10a8-be50-4b6d-a2a6-0e676a691400"},"geometry":{"type":"Point","coordinates":[-46.7909914828787,-24.1861206661269]}},{"type":"Feature","properties":{"municipio":"1e2bfa45-12e8-4753-a86b-fc67051182a7","title":"SP - ITAI","tipo":null,"url":"\/dashboard\/details-assets\/1e2bfa45-12e8-4753-a86b-fc67051182a7"},"geometry":{"type":"Point","coordinates":[-49.0810322484854,-23.4190553843113]}},{"type":"Feature","properties":{"municipio":"d7f3029c-a0f7-4328-a351-492c3bec9ac7","title":"SP - IRAPURU","tipo":null,"url":"\/dashboard\/details-assets\/d7f3029c-a0f7-4328-a351-492c3bec9ac7"},"geometry":{"type":"Point","coordinates":[-51.3542584898437,-21.5632692181591]}},{"type":"Feature","properties":{"municipio":"8dc34e66-9357-4c4b-b480-e1a3b167c0af","title":"SP - IPERO","tipo":null,"url":"\/dashboard\/details-assets\/8dc34e66-9357-4c4b-b480-e1a3b167c0af"},"geometry":{"type":"Point","coordinates":[-47.6939091,-23.3518726]}},{"type":"Feature","properties":{"municipio":"74cecdb6-13ff-435d-9478-0bd4d3d76ba6","title":"SP - ICEM","tipo":null,"url":"\/dashboard\/details-assets\/74cecdb6-13ff-435d-9478-0bd4d3d76ba6"},"geometry":{"type":"Point","coordinates":[-49.1625989,-20.4053212]}},{"type":"Feature","properties":{"municipio":"e228daf5-30c6-4a45-8dcc-155c35dfae51","title":"SP - IARAS","tipo":null,"url":"\/dashboard\/details-assets\/e228daf5-30c6-4a45-8dcc-155c35dfae51"},"geometry":{"type":"Point","coordinates":[-49.1582282316406,-22.8596149511488]}},{"type":"Feature","properties":{"municipio":"a4f9a873-334d-4518-ab13-d8f572e57e23","title":"SP - HORTOLANDIA","tipo":null,"url":"\/dashboard\/details-assets\/a4f9a873-334d-4518-ab13-d8f572e57e23"},"geometry":{"type":"Point","coordinates":[-47.2210966097575,-22.858394999324]}},{"type":"Feature","properties":{"municipio":"ce488981-f487-4e10-992a-7c11203451e6","title":"SP - GUARULHOS","tipo":null,"url":"\/dashboard\/details-assets\/ce488981-f487-4e10-992a-7c11203451e6"},"geometry":{"type":"Point","coordinates":[-46.5310840856611,-23.4685059993102]}},{"type":"Feature","properties":{"municipio":"7ac04980-2400-452b-a394-3f4f705cb4fc","title":"SP - GUARUJA","tipo":null,"url":"\/dashboard\/details-assets\/7ac04980-2400-452b-a394-3f4f705cb4fc"},"geometry":{"type":"Point","coordinates":[-46.2568758,-23.9949104]}},{"type":"Feature","properties":{"municipio":"6528fc0b-de92-4e93-a7b8-f50a17cf76c3","title":"SP - GUARIBA","tipo":null,"url":"\/dashboard\/details-assets\/6528fc0b-de92-4e93-a7b8-f50a17cf76c3"},"geometry":{"type":"Point","coordinates":[-48.22,-21.36]}},{"type":"Feature","properties":{"municipio":"4020baca-19a5-4e62-9cf0-4385e24138e0","title":"SP - GUAREI","tipo":null,"url":"\/dashboard\/details-assets\/4020baca-19a5-4e62-9cf0-4385e24138e0"},"geometry":{"type":"Point","coordinates":[-48.1841739,-23.3718457]}},{"type":"Feature","properties":{"municipio":"357823c7-a038-4846-84de-99b04857eb1d","title":"SP - GETULINA","tipo":null,"url":"\/dashboard\/details-assets\/357823c7-a038-4846-84de-99b04857eb1d"},"geometry":{"type":"Point","coordinates":[-49.9225158984375,-21.7872473898313]}},{"type":"Feature","properties":{"municipio":"0ff47df6-6536-46ab-a118-ef4b8dbfb7af","title":"SP - FRANCO DA ROCHA","tipo":null,"url":"\/dashboard\/details-assets\/0ff47df6-6536-46ab-a118-ef4b8dbfb7af"},"geometry":{"type":"Point","coordinates":[-46.7278746685526,-23.3203024993135]}},{"type":"Feature","properties":{"municipio":"6fb44a13-3db2-4c5c-9d01-652d2d6abc89","title":"SP - FRANCA","tipo":null,"url":"\/dashboard\/details-assets\/6fb44a13-3db2-4c5c-9d01-652d2d6abc89"},"geometry":{"type":"Point","coordinates":[-47.4023316256775,-20.5360969993796]}},{"type":"Feature","properties":{"municipio":"7a64b812-3024-4f64-a4ac-86678568c97e","title":"SP - FLORINIA","tipo":null,"url":"\/dashboard\/details-assets\/7a64b812-3024-4f64-a4ac-86678568c97e"},"geometry":{"type":"Point","coordinates":[-50.7358395664062,-22.8908020037891]}},{"type":"Feature","properties":{"municipio":"d152b52d-e5af-46a7-88b5-c9008b8f6c93","title":"SP - FLORIDA PAULISTA","tipo":null,"url":"\/dashboard\/details-assets\/d152b52d-e5af-46a7-88b5-c9008b8f6c93"},"geometry":{"type":"Point","coordinates":[-51.1729216,-21.6131815]}},{"type":"Feature","properties":{"municipio":"014836d7-b3c6-4588-9670-936b8385edd6","title":"SP - FERRAZ DE VASCONCELOS","tipo":null,"url":"\/dashboard\/details-assets\/014836d7-b3c6-4588-9670-936b8385edd6"},"geometry":{"type":"Point","coordinates":[-46.3644930634766,-23.5287960783909]}},{"type":"Feature","properties":{"municipio":"2c3c3be3-486c-4205-af60-cc2dd40f19dc","title":"SP - DRACENA","tipo":null,"url":"\/dashboard\/details-assets\/2c3c3be3-486c-4205-af60-cc2dd40f19dc"},"geometry":{"type":"Point","coordinates":[-51.5340496600627,-21.4861375343563]}},{"type":"Feature","properties":{"municipio":"4f8e6b42-1012-4134-bf8f-9c73052ab4a9","title":"SP - DIADEMA","tipo":null,"url":"\/dashboard\/details-assets\/4f8e6b42-1012-4134-bf8f-9c73052ab4a9"},"geometry":{"type":"Point","coordinates":[-51.5340496600627,-21.4861375343563]}},{"type":"Feature","properties":{"municipio":"e155f1d4-4d70-449f-a54f-87d33b4e7309","title":"SP - CERQUEIRA CESAR","tipo":null,"url":"\/dashboard\/details-assets\/e155f1d4-4d70-449f-a54f-87d33b4e7309"},"geometry":{"type":"Point","coordinates":[-46.623381393203,-23.6892949993052]}},{"type":"Feature","properties":{"municipio":"31af457f-3fb7-486f-932a-912da5738a6c","title":"SP - CASA BRANCA","tipo":null,"url":"\/dashboard\/details-assets\/31af457f-3fb7-486f-932a-912da5738a6c"},"geometry":{"type":"Point","coordinates":[-49.1653301708879,-23.0347974986399]}},{"type":"Feature","properties":{"municipio":"d1078257-716a-42e0-b110-d9af21a3147f","title":"SP - CARAGUATATUBA","tipo":null,"url":"\/dashboard\/details-assets\/d1078257-716a-42e0-b110-d9af21a3147f"},"geometry":{"type":"Point","coordinates":[-47.0797582048272,-21.7779869893493]}},{"type":"Feature","properties":{"municipio":"dfdd8e53-81e2-48cc-8b2b-fae5549f10ed","title":"SP - CAPELA DO ALTO","tipo":null,"url":"\/dashboard\/details-assets\/dfdd8e53-81e2-48cc-8b2b-fae5549f10ed"},"geometry":{"type":"Point","coordinates":[-45.4108183822497,-23.6220064993066]}},{"type":"Feature","properties":{"municipio":"76e0388d-3f67-4869-b161-117d588d1a86","title":"SP - CAMPINAS","tipo":null,"url":"\/dashboard\/details-assets\/76e0388d-3f67-4869-b161-117d588d1a86"},"geometry":{"type":"Point","coordinates":[-47.0601562729732,-22.9073424993229]}},{"type":"Feature","properties":{"municipio":"1fd44db4-e44b-4461-a224-b57a4907a9a4","title":"SP - BRAGANCA PAULISTA","tipo":null,"url":"\/dashboard\/details-assets\/1fd44db4-e44b-4461-a224-b57a4907a9a4"},"geometry":{"type":"Point","coordinates":[-46.5423333739798,-22.9568954993218]}},{"type":"Feature","properties":{"municipio":"53878673-b9cf-47f1-8210-0d6f8f2bd635","title":"SP - BOTUCATU","tipo":null,"url":"\/dashboard\/details-assets\/53878673-b9cf-47f1-8210-0d6f8f2bd635"},"geometry":{"type":"Point","coordinates":[-48.4412893843503,-22.8883814993234]}},{"type":"Feature","properties":{"municipio":"1642cb21-ae08-4675-8608-8a0b5dd6c04f","title":"SP - BIRIGUI","tipo":null,"url":"\/dashboard\/details-assets\/1642cb21-ae08-4675-8608-8a0b5dd6c04f"},"geometry":{"type":"Point","coordinates":[-50.339328516987,-21.2923922876104]}},{"type":"Feature","properties":{"municipio":"21170935-12b2-4ef4-aa1c-84ec7403163f","title":"SP - BAURU","tipo":null,"url":"\/dashboard\/details-assets\/21170935-12b2-4ef4-aa1c-84ec7403163f"},"geometry":{"type":"Point","coordinates":[-49.0830008670904,-22.3251224993364]}},{"type":"Feature","properties":{"municipio":"021758be-3615-44f4-9e05-d1ac561c98c6","title":"SP - BERNARDINO DE CAMPOS","tipo":null,"url":"\/dashboard\/details-assets\/021758be-3615-44f4-9e05-d1ac561c98c6"},"geometry":{"type":"Point","coordinates":[-49.4731864,-23.0147985]}},{"type":"Feature","properties":{"municipio":"ade7899d-0a24-4072-8b75-3b37382e9875","title":"SP - BATATAIS","tipo":null,"url":"\/dashboard\/details-assets\/ade7899d-0a24-4072-8b75-3b37382e9875"},"geometry":{"type":"Point","coordinates":[-47.5861067268682,-20.8919294993708]}},{"type":"Feature","properties":{"municipio":"794b19bf-3df8-49ce-989f-4e920b51d90d","title":"SP - BALBINOS","tipo":null,"url":"\/dashboard\/details-assets\/794b19bf-3df8-49ce-989f-4e920b51d90d"},"geometry":{"type":"Point","coordinates":[-49.3348621,-21.8924794]}},{"type":"Feature","properties":{"municipio":"676f1e1e-293c-4f36-a38f-5a03bed48c23","title":"SP - AVARE","tipo":null,"url":"\/dashboard\/details-assets\/676f1e1e-293c-4f36-a38f-5a03bed48c23"},"geometry":{"type":"Point","coordinates":[-48.9232631943567,-23.1031934993184]}},{"type":"Feature","properties":{"municipio":"00b2dc69-b4ca-4b51-9f3f-c30766695a8d","title":"SP - AVANHANDAVA","tipo":null,"url":"\/dashboard\/details-assets\/00b2dc69-b4ca-4b51-9f3f-c30766695a8d"},"geometry":{"type":"Point","coordinates":[-49.9481429,-21.461674]}},{"type":"Feature","properties":{"municipio":"9269b83e-00ee-4a99-a381-a26c4f73ce1d","title":"SP - ATIBAIA","tipo":null,"url":"\/dashboard\/details-assets\/9269b83e-00ee-4a99-a381-a26c4f73ce1d"},"geometry":{"type":"Point","coordinates":[-46.5550625006743,-23.1163079993181]}},{"type":"Feature","properties":{"municipio":"67e41970-ca32-4c57-a5b5-f4f83b68ddc6","title":"SP - ASSIS","tipo":null,"url":"\/dashboard\/details-assets\/67e41970-ca32-4c57-a5b5-f4f83b68ddc6"},"geometry":{"type":"Point","coordinates":[-50.41751004,-22.6628350193285]}},{"type":"Feature","properties":{"municipio":"fb50a24f-cd99-4c1f-9a59-1559072d4265","title":"SP - ARUJA","tipo":null,"url":"\/dashboard\/details-assets\/fb50a24f-cd99-4c1f-9a59-1559072d4265"},"geometry":{"type":"Point","coordinates":[-46.3204896001138,-23.3958267403117]}},{"type":"Feature","properties":{"municipio":"8a98a9e1-b07c-48b3-bd65-3670906c3a13","title":"SP - ARARAQUARA","tipo":null,"url":"\/dashboard\/details-assets\/8a98a9e1-b07c-48b3-bd65-3670906c3a13"},"geometry":{"type":"Point","coordinates":[-48.1744399375437,-21.790359499349]}},{"type":"Feature","properties":{"municipio":"cd3e83f9-d152-4a0c-968f-b9d41280ffb4","title":"SP - ARACATUBA","tipo":null,"url":"\/dashboard\/details-assets\/cd3e83f9-d152-4a0c-968f-b9d41280ffb4"},"geometry":{"type":"Point","coordinates":[-50.4392260727526,-21.2054759993631]}},{"type":"Feature","properties":{"municipio":"9987be1a-b3c4-452f-9ce9-464414fdc175","title":"SP - ANDRADINA","tipo":null,"url":"\/dashboard\/details-assets\/9987be1a-b3c4-452f-9ce9-464414fdc175"},"geometry":{"type":"Point","coordinates":[-51.3788477947637,-20.9014635143705]}},{"type":"Feature","properties":{"municipio":"f2ea6901-4cef-484b-bb94-7c30c2b76014","title":"SP - AMERICANA","tipo":null,"url":"\/dashboard\/details-assets\/f2ea6901-4cef-484b-bb94-7c30c2b76014"},"geometry":{"type":"Point","coordinates":[-47.3337008,-22.7378203]}},{"type":"Feature","properties":{"municipio":"e71a69b6-3c66-4f9a-910f-30e06b5c8f5f","title":"SP - ALVARO DE CARVALHO","tipo":null,"url":"\/dashboard\/details-assets\/e71a69b6-3c66-4f9a-910f-30e06b5c8f5f"},"geometry":{"type":"Point","coordinates":[-49.7205015838867,-22.0800934323394]}},{"type":"Feature","properties":{"municipio":"1e1b2393-4d29-440c-837b-6a02321c3183","title":"SC - XANXERE","tipo":null,"url":"\/dashboard\/details-assets\/1e1b2393-4d29-440c-837b-6a02321c3183"},"geometry":{"type":"Point","coordinates":[-52.4046671389754,-26.8745844984772]}},{"type":"Feature","properties":{"municipio":"e4711875-4478-4572-8ba7-0f932e29f651","title":"SC - VIDEIRA","tipo":null,"url":"\/dashboard\/details-assets\/e4711875-4478-4572-8ba7-0f932e29f651"},"geometry":{"type":"Point","coordinates":[-51.1517052828326,-27.0061290672059]}},{"type":"Feature","properties":{"municipio":"a5722daf-f313-4c99-a5c9-701a873db5bc","title":"SC - TUBARAO","tipo":null,"url":"\/dashboard\/details-assets\/a5722daf-f313-4c99-a5c9-701a873db5bc"},"geometry":{"type":"Point","coordinates":[-49.0052680770245,-28.4800339470587]}},{"type":"Feature","properties":{"municipio":"2f22e2c5-ecab-4335-a543-a349b000b2dc","title":"SC - TIJUCAS","tipo":null,"url":"\/dashboard\/details-assets\/2f22e2c5-ecab-4335-a543-a349b000b2dc"},"geometry":{"type":"Point","coordinates":[-48.6320705638696,-27.2394536064421]}},{"type":"Feature","properties":{"municipio":"2d1ff3cf-367b-4364-bdcf-7439b65fc176","title":"SC - SAO PEDRO DE ALCANTARA","tipo":null,"url":"\/dashboard\/details-assets\/2d1ff3cf-367b-4364-bdcf-7439b65fc176"},"geometry":{"type":"Point","coordinates":[-48.8063346527344,-27.562096352644]}},{"type":"Feature","properties":{"municipio":"a7d27bd0-6cc2-45ab-8db0-47d78bc71fd5","title":"SC - SAO JOSE DO CEDRO","tipo":null,"url":"\/dashboard\/details-assets\/a7d27bd0-6cc2-45ab-8db0-47d78bc71fd5"},"geometry":{"type":"Point","coordinates":[-53.4994236,-26.4554731]}},{"type":"Feature","properties":{"municipio":"cc63f7da-0e4a-430a-8364-508bf78a4c03","title":"SC - SAO MIGUEL DO OESTE","tipo":null,"url":"\/dashboard\/details-assets\/cc63f7da-0e4a-430a-8364-508bf78a4c03"},"geometry":{"type":"Point","coordinates":[-53.5188394061561,-26.7264271759021]}},{"type":"Feature","properties":{"municipio":"a69e8ad5-3a1f-439a-8dbc-226377fe6481","title":"SC - SAO JOSE","tipo":null,"url":"\/dashboard\/details-assets\/a69e8ad5-3a1f-439a-8dbc-226377fe6481"},"geometry":{"type":"Point","coordinates":[-48.6370861,-27.6140791]}},{"type":"Feature","properties":{"municipio":"a2eb50fb-a956-44c6-b20a-1732854b73a2","title":"SC - SAO CRISTOVAO DO SUL","tipo":null,"url":"\/dashboard\/details-assets\/a2eb50fb-a956-44c6-b20a-1732854b73a2"},"geometry":{"type":"Point","coordinates":[-50.3275427,-27.3167602]}},{"type":"Feature","properties":{"municipio":"ca3bb311-131b-4f34-afd5-564b59253b22","title":"SC - RIO DO SUL","tipo":null,"url":"\/dashboard\/details-assets\/ca3bb311-131b-4f34-afd5-564b59253b22"},"geometry":{"type":"Point","coordinates":[-49.6435018,-27.2160932]}},{"type":"Feature","properties":{"municipio":"1dadd3c3-2535-4538-aff6-4ab28fa36b4e","title":"SC - PORTO UNIAO","tipo":null,"url":"\/dashboard\/details-assets\/1dadd3c3-2535-4538-aff6-4ab28fa36b4e"},"geometry":{"type":"Point","coordinates":[-51.0817102,-26.2389124]}},{"type":"Feature","properties":{"municipio":"48227c63-956c-4e42-9480-3be38ceb13a8","title":"SC - PALHOCA","tipo":null,"url":"\/dashboard\/details-assets\/48227c63-956c-4e42-9480-3be38ceb13a8"},"geometry":{"type":"Point","coordinates":[-48.6702879187121,-27.6470436829145]}},{"type":"Feature","properties":{"municipio":"f214b9fe-2c5a-48d2-aedf-24a522ada6bc","title":"SC - MARAVILHA","tipo":null,"url":"\/dashboard\/details-assets\/f214b9fe-2c5a-48d2-aedf-24a522ada6bc"},"geometry":{"type":"Point","coordinates":[-53.174818815895,-26.7616239465027]}},{"type":"Feature","properties":{"municipio":"f5991350-5306-4aa4-a824-57dce65fbc84","title":"SC - MAFRA","tipo":null,"url":"\/dashboard\/details-assets\/f5991350-5306-4aa4-a824-57dce65fbc84"},"geometry":{"type":"Point","coordinates":[-49.8010375282692,-26.1152284935074]}},{"type":"Feature","properties":{"municipio":"3651e456-b0ce-407b-9bc1-ce102009cc59","title":"SC - LAGUNA","tipo":null,"url":"\/dashboard\/details-assets\/3651e456-b0ce-407b-9bc1-ce102009cc59"},"geometry":{"type":"Point","coordinates":[-48.7813886217994,-28.4835859531205]}},{"type":"Feature","properties":{"municipio":"394cf998-3e89-4088-ab02-39d9bd351502","title":"SC - LAGES","tipo":null,"url":"\/dashboard\/details-assets\/394cf998-3e89-4088-ab02-39d9bd351502"},"geometry":{"type":"Point","coordinates":[-50.3302224241895,-27.8172594623345]}},{"type":"Feature","properties":{"municipio":"b1ecad8c-27b3-41ba-9727-45f7a56202ac","title":"SC - JOINVILLE","tipo":null,"url":"\/dashboard\/details-assets\/b1ecad8c-27b3-41ba-9727-45f7a56202ac"},"geometry":{"type":"Point","coordinates":[-48.8494091432379,-26.3045176479039]}},{"type":"Feature","properties":{"municipio":"e0aaab31-cc3e-4ef7-91f6-aaed066b0c8a","title":"SC - JARAGUA DO SUL","tipo":null,"url":"\/dashboard\/details-assets\/e0aaab31-cc3e-4ef7-91f6-aaed066b0c8a"},"geometry":{"type":"Point","coordinates":[-49.0762988228021,-26.4904843486596]}},{"type":"Feature","properties":{"municipio":"62b86ce8-c910-4f28-ac0f-cb1ee90e684e","title":"SC - JOACABA","tipo":null,"url":"\/dashboard\/details-assets\/62b86ce8-c910-4f28-ac0f-cb1ee90e684e"},"geometry":{"type":"Point","coordinates":[-51.5066897333377,-27.1739445284657]}},{"type":"Feature","properties":{"municipio":"ca6a25a2-709c-4550-af84-fc3621b332e6","title":"SC - ITAPEMA","tipo":null,"url":"\/dashboard\/details-assets\/ca6a25a2-709c-4550-af84-fc3621b332e6"},"geometry":{"type":"Point","coordinates":[-48.6178074,-27.0960682]}},{"type":"Feature","properties":{"municipio":"92a1d808-fc48-4dab-bcc0-f1806ca42bb0","title":"SC - INDAIAL","tipo":null,"url":"\/dashboard\/details-assets\/92a1d808-fc48-4dab-bcc0-f1806ca42bb0"},"geometry":{"type":"Point","coordinates":[-49.2401404600146,-26.9062559984759]}},{"type":"Feature","properties":{"municipio":"09d8042c-d5d8-44f0-aca8-d9614a362c74","title":"SC - ITAJAI","tipo":null,"url":"\/dashboard\/details-assets\/09d8042c-d5d8-44f0-aca8-d9614a362c74"},"geometry":{"type":"Point","coordinates":[-48.6709133,-26.9107052]}},{"type":"Feature","properties":{"municipio":"04085f91-0dde-4264-aba5-b8141cad74d9","title":"SC - IMBITUBA","tipo":null,"url":"\/dashboard\/details-assets\/04085f91-0dde-4264-aba5-b8141cad74d9"},"geometry":{"type":"Point","coordinates":[-48.6692841969228,-28.239951113226]}},{"type":"Feature","properties":{"municipio":"3c340a36-e91e-4604-8bcf-517d6e5ba178","title":"SC - FRANCISCO DO SUL","tipo":null,"url":"\/dashboard\/details-assets\/3c340a36-e91e-4604-8bcf-517d6e5ba178"},"geometry":{"type":"Point","coordinates":[-48.6692841969228,-28.239951113226]}},{"type":"Feature","properties":{"municipio":"e61b735e-970c-4512-be1f-e142666afa46","title":"SC - FLORIANOPOLIS","tipo":null,"url":"\/dashboard\/details-assets\/e61b735e-970c-4512-be1f-e142666afa46"},"geometry":{"type":"Point","coordinates":[-48.5476373781933,-27.5877955477749]}},{"type":"Feature","properties":{"municipio":"6255cd35-fbd9-4ca0-af56-e85983ff1577","title":"SC - CURITIBANOS","tipo":null,"url":"\/dashboard\/details-assets\/6255cd35-fbd9-4ca0-af56-e85983ff1577"},"geometry":{"type":"Point","coordinates":[-50.5826010352621,-27.2829825056971]}},{"type":"Feature","properties":{"municipio":"5e19dbf3-c85e-477c-bb76-ce80940f09ba","title":"SC - CRICIUMA","tipo":null,"url":"\/dashboard\/details-assets\/5e19dbf3-c85e-477c-bb76-ce80940f09ba"},"geometry":{"type":"Point","coordinates":[-49.3659395588222,-28.6735722518798]}},{"type":"Feature","properties":{"municipio":"71419ba6-40ca-4836-8c29-b05b9f07fb37","title":"SC - CONCORDIA","tipo":null,"url":"\/dashboard\/details-assets\/71419ba6-40ca-4836-8c29-b05b9f07fb37"},"geometry":{"type":"Point","coordinates":[-52.0239710697483,-27.2336587792856]}},{"type":"Feature","properties":{"municipio":"49e50b87-7d4d-4489-9659-83db19eafb6a","title":"SC - CHAPECO","tipo":null,"url":"\/dashboard\/details-assets\/49e50b87-7d4d-4489-9659-83db19eafb6a"},"geometry":{"type":"Point","coordinates":[-52.615699,-27.1009343]}},{"type":"Feature","properties":{"municipio":"f90f4d87-3535-440c-b904-319b00b56b73","title":"SC - CANOINHAS","tipo":null,"url":"\/dashboard\/details-assets\/f90f4d87-3535-440c-b904-319b00b56b73"},"geometry":{"type":"Point","coordinates":[-50.3929235601562,-26.1603616775609]}},{"type":"Feature","properties":{"municipio":"25e2a8e4-193b-4578-8e5f-c8bd126d894f","title":"SC - CAMPOS NOVOS","tipo":null,"url":"\/dashboard\/details-assets\/25e2a8e4-193b-4578-8e5f-c8bd126d894f"},"geometry":{"type":"Point","coordinates":[-51.2258597,-27.4009891]}},{"type":"Feature","properties":{"municipio":"efb5eacb-59a4-4352-ab53-34d1ddc5a4c0","title":"SC - CACADOR","tipo":null,"url":"\/dashboard\/details-assets\/efb5eacb-59a4-4352-ab53-34d1ddc5a4c0"},"geometry":{"type":"Point","coordinates":[-51.0190347589981,-26.7753476719588]}},{"type":"Feature","properties":{"municipio":"5ad527fe-7d85-4eba-b932-a897d9bfd5ea","title":"SC - BRUSQUE","tipo":null,"url":"\/dashboard\/details-assets\/5ad527fe-7d85-4eba-b932-a897d9bfd5ea"},"geometry":{"type":"Point","coordinates":[-48.9151630055154,-27.0983102254449]}},{"type":"Feature","properties":{"municipio":"a8ff601e-2789-4d7d-879e-b9866467aac5","title":"SC - BLUMENAU","tipo":null,"url":"\/dashboard\/details-assets\/a8ff601e-2789-4d7d-879e-b9866467aac5"},"geometry":{"type":"Point","coordinates":[-49.0576308843612,-26.9161077045444]}},{"type":"Feature","properties":{"municipio":"34a78e33-5b8c-4313-bb15-cfb7859f29d6","title":"SC - BIGUACU","tipo":null,"url":"\/dashboard\/details-assets\/34a78e33-5b8c-4313-bb15-cfb7859f29d6"},"geometry":{"type":"Point","coordinates":[-48.6544889289506,-27.4943227426967]}},{"type":"Feature","properties":{"municipio":"c1544fc4-cc7d-485a-92f1-94e790928d7a","title":"SC - BARRA VELHA","tipo":null,"url":"\/dashboard\/details-assets\/c1544fc4-cc7d-485a-92f1-94e790928d7a"},"geometry":{"type":"Point","coordinates":[-48.6846608,-26.6331439]}},{"type":"Feature","properties":{"municipio":"7bc368d4-5213-42e8-9d8e-d830d2f15e0d","title":"SC - ARARANGUA","tipo":null,"url":"\/dashboard\/details-assets\/7bc368d4-5213-42e8-9d8e-d830d2f15e0d"},"geometry":{"type":"Point","coordinates":[-49.4923013,-28.9361187]}},{"type":"Feature","properties":{"municipio":"09ad8cee-601a-4d23-9115-7da6350f454d","title":"RR - SAO LUIZ","tipo":null,"url":"\/dashboard\/details-assets\/09ad8cee-601a-4d23-9115-7da6350f454d"},"geometry":{"type":"Point","coordinates":[-60.1647697,0.8187674]}},{"type":"Feature","properties":{"municipio":"d0b49f77-31aa-46d6-9472-8c339089c47b","title":"RR - BOA VISTA","tipo":null,"url":"\/dashboard\/details-assets\/d0b49f77-31aa-46d6-9472-8c339089c47b"},"geometry":{"type":"Point","coordinates":[-60.6705326729651,2.81668191901165]}},{"type":"Feature","properties":{"municipio":"3b544cc7-c213-481a-b345-4a823b270642","title":"RO - VILHENA","tipo":null,"url":"\/dashboard\/details-assets\/3b544cc7-c213-481a-b345-4a823b270642"},"geometry":{"type":"Point","coordinates":[-60.1385838660987,-12.7413734713965]}},{"type":"Feature","properties":{"municipio":"5f024f94-2341-4e46-99d3-8b17121d7ea4","title":"RO - SAO MIGUEL DO GUAPORE","tipo":null,"url":"\/dashboard\/details-assets\/5f024f94-2341-4e46-99d3-8b17121d7ea4"},"geometry":{"type":"Point","coordinates":[-62.68,-11.68]}},{"type":"Feature","properties":{"municipio":"99c88d85-88f4-48a1-ad3b-84b98dbf8fed","title":"RO - ROLIM DE MOURA","tipo":null,"url":"\/dashboard\/details-assets\/99c88d85-88f4-48a1-ad3b-84b98dbf8fed"},"geometry":{"type":"Point","coordinates":[-61.78,-11.67]}},{"type":"Feature","properties":{"municipio":"141878e1-8215-43ee-8909-c8eb2293e3dd","title":"RO - SAO FRANCISCO DO GUAPORE","tipo":null,"url":"\/dashboard\/details-assets\/141878e1-8215-43ee-8909-c8eb2293e3dd"},"geometry":{"type":"Point","coordinates":[-63.56,-12.05]}},{"type":"Feature","properties":{"municipio":"73fdb646-d6a7-4724-9869-c56b2dfd85aa","title":"RO - PRESIDENTE MEDICI","tipo":null,"url":"\/dashboard\/details-assets\/73fdb646-d6a7-4724-9869-c56b2dfd85aa"},"geometry":{"type":"Point","coordinates":[-61.9,-11.17]}},{"type":"Feature","properties":{"municipio":"90f8417f-1562-46ee-ad09-1a474f70a429","title":"RO - PORTO VELHO","tipo":null,"url":"\/dashboard\/details-assets\/90f8417f-1562-46ee-ad09-1a474f70a429"},"geometry":{"type":"Point","coordinates":[-63.8314456543611,-8.76889178971532]}},{"type":"Feature","properties":{"municipio":"e9dc5515-bf16-4732-8aa5-a613fd8b3cae","title":"RO - PIMENTA BUENO","tipo":null,"url":"\/dashboard\/details-assets\/e9dc5515-bf16-4732-8aa5-a613fd8b3cae"},"geometry":{"type":"Point","coordinates":[-61.19,-11.67]}},{"type":"Feature","properties":{"municipio":"1649e625-2ffb-49d5-be9c-581836900f1a","title":"RO - MACHADINHO D OESTE","tipo":null,"url":"\/dashboard\/details-assets\/1649e625-2ffb-49d5-be9c-581836900f1a"},"geometry":{"type":"Point","coordinates":[-61.9995925724466,-9.42556247969476]}},{"type":"Feature","properties":{"municipio":"f8eae217-3f3f-41c3-a928-6089a3878012","title":"RO - JI-PARANA","tipo":null,"url":"\/dashboard\/details-assets\/f8eae217-3f3f-41c3-a928-6089a3878012"},"geometry":{"type":"Point","coordinates":[-61.9326728,-10.8781412]}},{"type":"Feature","properties":{"municipio":"199356de-3190-41bb-8804-31fe697c4e2e","title":"RO - JARU","tipo":null,"url":"\/dashboard\/details-assets\/199356de-3190-41bb-8804-31fe697c4e2e"},"geometry":{"type":"Point","coordinates":[-62.4762307081317,-10.4359487675478]}},{"type":"Feature","properties":{"municipio":"be0954f6-1d04-4c1c-a262-60c19a3b3df7","title":"RO - GUAJARA-MIRIM","tipo":null,"url":"\/dashboard\/details-assets\/be0954f6-1d04-4c1c-a262-60c19a3b3df7"},"geometry":{"type":"Point","coordinates":[-65.3239518196923,-10.7738837403235]}},{"type":"Feature","properties":{"municipio":"94a42d9e-78ac-4b8c-b3df-1861c5d56c78","title":"RO - COSTA MARQUES","tipo":null,"url":"\/dashboard\/details-assets\/94a42d9e-78ac-4b8c-b3df-1861c5d56c78"},"geometry":{"type":"Point","coordinates":[-64.22,-12.44]}},{"type":"Feature","properties":{"municipio":"d21f1467-17c6-435b-a8a2-96fdd410b828","title":"RO - COLORADO DO OESTE","tipo":null,"url":"\/dashboard\/details-assets\/d21f1467-17c6-435b-a8a2-96fdd410b828"},"geometry":{"type":"Point","coordinates":[-60.54,-13.11]}},{"type":"Feature","properties":{"municipio":"2c922c6b-cbac-4111-a128-a42f2b5d94ae","title":"RO - CACOAL","tipo":null,"url":"\/dashboard\/details-assets\/2c922c6b-cbac-4111-a128-a42f2b5d94ae"},"geometry":{"type":"Point","coordinates":[-61.4429442118224,-11.433865028318]}},{"type":"Feature","properties":{"municipio":"44c341e6-f623-437f-9962-37cdd1f3bfdc","title":"RO - ARIQUEMES","tipo":null,"url":"\/dashboard\/details-assets\/44c341e6-f623-437f-9962-37cdd1f3bfdc"},"geometry":{"type":"Point","coordinates":[-63.0330263,-9.9061087]}},{"type":"Feature","properties":{"municipio":"3a5b954a-8ba6-48f1-8999-a003c9c63da0","title":"RO - ALVORADA D OESTE","tipo":null,"url":"\/dashboard\/details-assets\/3a5b954a-8ba6-48f1-8999-a003c9c63da0"},"geometry":{"type":"Point","coordinates":[-63.32,-9.71]}},{"type":"Feature","properties":{"municipio":"275a6b7f-5fd6-4f32-a03d-4bea61935715","title":"RO - ALTA FLORESTA D OESTE","tipo":null,"url":"\/dashboard\/details-assets\/275a6b7f-5fd6-4f32-a03d-4bea61935715"},"geometry":{"type":"Point","coordinates":[-61.999824,-11.93554]}},{"type":"Feature","properties":{"municipio":"a37a53d5-d239-410c-bc00-31f7af5158f4","title":"RS - VENANCIO AIRES","tipo":null,"url":"\/dashboard\/details-assets\/a37a53d5-d239-410c-bc00-31f7af5158f4"},"geometry":{"type":"Point","coordinates":[-52.1918802404895,-29.6116528918445]}},{"type":"Feature","properties":{"municipio":"3b0ee82a-801e-4db0-a189-17b1d016247a","title":"RS - VACARIA","tipo":null,"url":"\/dashboard\/details-assets\/3b0ee82a-801e-4db0-a189-17b1d016247a"},"geometry":{"type":"Point","coordinates":[-50.9365991641211,-28.5023543943946]}},{"type":"Feature","properties":{"municipio":"2c5bc646-5ede-4cbb-942c-5e4aba76d734","title":"RS - URUGUAIANA","tipo":null,"url":"\/dashboard\/details-assets\/2c5bc646-5ede-4cbb-942c-5e4aba76d734"},"geometry":{"type":"Point","coordinates":[-57.0858428,-29.7619121]}},{"type":"Feature","properties":{"municipio":"0ded067b-d3d8-4d89-a8b0-c39be11f64c4","title":"RS - TRES PASSOS","tipo":null,"url":"\/dashboard\/details-assets\/0ded067b-d3d8-4d89-a8b0-c39be11f64c4"},"geometry":{"type":"Point","coordinates":[-53.9296989580111,-27.45615988307]}},{"type":"Feature","properties":{"municipio":"f7f00e5f-b376-4482-82e7-bfdee57d181c","title":"RS - TAQUARA","tipo":null,"url":"\/dashboard\/details-assets\/f7f00e5f-b376-4482-82e7-bfdee57d181c"},"geometry":{"type":"Point","coordinates":[-50.7811686192558,-29.6505131034641]}},{"type":"Feature","properties":{"municipio":"298bf35f-124c-474b-958a-df0516474697","title":"RS - TORRES","tipo":null,"url":"\/dashboard\/details-assets\/298bf35f-124c-474b-958a-df0516474697"},"geometry":{"type":"Point","coordinates":[-49.723909,-29.3344108]}},{"type":"Feature","properties":{"municipio":"9e7a1b81-287d-4410-9fb7-03df8ed36a4e","title":"RS - SOLEDADE","tipo":null,"url":"\/dashboard\/details-assets\/9e7a1b81-287d-4410-9fb7-03df8ed36a4e"},"geometry":{"type":"Point","coordinates":[-52.51,-28.81]}},{"type":"Feature","properties":{"municipio":"5354c3a8-d445-480e-a8e1-9ca1e5dd39b4","title":"RS - SARANDI","tipo":null,"url":"\/dashboard\/details-assets\/5354c3a8-d445-480e-a8e1-9ca1e5dd39b4"},"geometry":{"type":"Point","coordinates":[-52.9164069,-27.946449]}},{"type":"Feature","properties":{"municipio":"efd5b939-fd17-4c42-8966-d951dacd8b69","title":"RS - SAO SEPE","tipo":null,"url":"\/dashboard\/details-assets\/efd5b939-fd17-4c42-8966-d951dacd8b69"},"geometry":{"type":"Point","coordinates":[-53.56,-30.16]}},{"type":"Feature","properties":{"municipio":"961ee154-c94b-4a4b-8c58-83c075ab8454","title":"RS - SAO SAPE","tipo":null,"url":"\/dashboard\/details-assets\/961ee154-c94b-4a4b-8c58-83c075ab8454"},"geometry":{"type":"Point","coordinates":[-53.5718212,-30.1639889]}},{"type":"Feature","properties":{"municipio":"4eb7cc4f-0965-476d-8c9f-709dd2ec670a","title":"RS - SAO LUIZ GONZAGA","tipo":null,"url":"\/dashboard\/details-assets\/4eb7cc4f-0965-476d-8c9f-709dd2ec670a"},"geometry":{"type":"Point","coordinates":[-54.9645197400391,-28.4057130686248]}},{"type":"Feature","properties":{"municipio":"efc3c02b-2b28-49ee-8714-d9c1faca363e","title":"RS - SAO LEOPOLDO","tipo":null,"url":"\/dashboard\/details-assets\/efc3c02b-2b28-49ee-8714-d9c1faca363e"},"geometry":{"type":"Point","coordinates":[-51.14,-29.76]}},{"type":"Feature","properties":{"municipio":"868f129e-8d5c-411a-ac89-fde6a57a99c4","title":"RS - SAO JERONIMO","tipo":null,"url":"\/dashboard\/details-assets\/868f129e-8d5c-411a-ac89-fde6a57a99c4"},"geometry":{"type":"Point","coordinates":[-51.7250108,-29.962127]}},{"type":"Feature","properties":{"municipio":"02d88c73-7182-4165-ab7e-f557c0a3ae1a","title":"RS - SAO GABRIEL","tipo":null,"url":"\/dashboard\/details-assets\/02d88c73-7182-4165-ab7e-f557c0a3ae1a"},"geometry":{"type":"Point","coordinates":[-54.32,-30.33]}},{"type":"Feature","properties":{"municipio":"d8270509-d700-4eb0-80a7-4d59892d6488","title":"RS - SAO FRANCISCO DE PAULA","tipo":null,"url":"\/dashboard\/details-assets\/d8270509-d700-4eb0-80a7-4d59892d6488"},"geometry":{"type":"Point","coordinates":[-50.5807037,-29.445913]}},{"type":"Feature","properties":{"municipio":"0a0ccf78-2736-4f07-99b3-7038d67e1871","title":"RS - SAO FRANCISCO DE ASSIS","tipo":null,"url":"\/dashboard\/details-assets\/0a0ccf78-2736-4f07-99b3-7038d67e1871"},"geometry":{"type":"Point","coordinates":[-55.1257125,-29.5549057]}},{"type":"Feature","properties":{"municipio":"46f87521-50b3-4277-bc09-3c1b25defbde","title":"RS - SAO BORJA","tipo":null,"url":"\/dashboard\/details-assets\/46f87521-50b3-4277-bc09-3c1b25defbde"},"geometry":{"type":"Point","coordinates":[-56.0041451,-28.6583059]}},{"type":"Feature","properties":{"municipio":"3427e3f0-c5af-4592-b360-f7dc64cfb810","title":"RS - SAO  LEOPOLDO","tipo":null,"url":"\/dashboard\/details-assets\/3427e3f0-c5af-4592-b360-f7dc64cfb810"},"geometry":{"type":"Point","coordinates":[-56.0041451,-28.6583059]}},{"type":"Feature","properties":{"municipio":"f700dc3a-d5f5-4df8-b3a6-0cf9718eb01a","title":"RS - SANTO CRISTO","tipo":null,"url":"\/dashboard\/details-assets\/f700dc3a-d5f5-4df8-b3a6-0cf9718eb01a"},"geometry":{"type":"Point","coordinates":[-54.6630812,-27.8263074]}},{"type":"Feature","properties":{"municipio":"b4a8c2a1-ec91-44ab-a51d-11363071154a","title":"RS - SANTO ANGELO","tipo":null,"url":"\/dashboard\/details-assets\/b4a8c2a1-ec91-44ab-a51d-11363071154a"},"geometry":{"type":"Point","coordinates":[-54.2641427984269,-28.3019378725592]}},{"type":"Feature","properties":{"municipio":"5f469b12-47d6-4835-aa6b-cfb2387e9286","title":"RS - SANTIAGO","tipo":null,"url":"\/dashboard\/details-assets\/5f469b12-47d6-4835-aa6b-cfb2387e9286"},"geometry":{"type":"Point","coordinates":[-54.8690758537886,-29.1914601700905]}},{"type":"Feature","properties":{"municipio":"ba412c85-84c1-416a-a176-fa4def224a2f","title":"RS - SANTA VITORIA DO PALMAR","tipo":null,"url":"\/dashboard\/details-assets\/ba412c85-84c1-416a-a176-fa4def224a2f"},"geometry":{"type":"Point","coordinates":[-53.3664818,-33.5215632]}},{"type":"Feature","properties":{"municipio":"a2e8c691-57c1-4d07-af41-eb8898e4d1ca","title":"RS - SANTA MARIA","tipo":null,"url":"\/dashboard\/details-assets\/a2e8c691-57c1-4d07-af41-eb8898e4d1ca"},"geometry":{"type":"Point","coordinates":[-53.8154499,-29.68725]}},{"type":"Feature","properties":{"municipio":"f3368b66-f742-4364-81d4-285e4072a9c4","title":"RS - SANTA ROSA","tipo":null,"url":"\/dashboard\/details-assets\/f3368b66-f742-4364-81d4-285e4072a9c4"},"geometry":{"type":"Point","coordinates":[-54.4801558,-27.8706817]}},{"type":"Feature","properties":{"municipio":"388c3f07-f84b-4734-be2b-efbc0c0203a8","title":"RS - SANTA CRUZ DO SUL","tipo":null,"url":"\/dashboard\/details-assets\/388c3f07-f84b-4734-be2b-efbc0c0203a8"},"geometry":{"type":"Point","coordinates":[-52.4348382,-29.722516]}},{"type":"Feature","properties":{"municipio":"ebbc4b97-af98-4666-8296-019be14cb3a0","title":"RS - SANT ANA DO LIVRAMENTO","tipo":null,"url":"\/dashboard\/details-assets\/ebbc4b97-af98-4666-8296-019be14cb3a0"},"geometry":{"type":"Point","coordinates":[-55.5392304,-30.8772854]}},{"type":"Feature","properties":{"municipio":"b43927f4-caf1-474f-869c-ebe6ea5b91b5","title":"RS - ROSARIO DO SUL","tipo":null,"url":"\/dashboard\/details-assets\/b43927f4-caf1-474f-869c-ebe6ea5b91b5"},"geometry":{"type":"Point","coordinates":[-54.9226452,-30.2488032]}},{"type":"Feature","properties":{"municipio":"367b3f62-25cb-46ad-a32c-3ff3148cc2c9","title":"RS - RIO PARDO","tipo":null,"url":"\/dashboard\/details-assets\/367b3f62-25cb-46ad-a32c-3ff3148cc2c9"},"geometry":{"type":"Point","coordinates":[-52.37,-29.99]}},{"type":"Feature","properties":{"municipio":"e0c8f5fa-04d0-4a52-a73c-548d3a3006c9","title":"RS - RIO GRANDE","tipo":null,"url":"\/dashboard\/details-assets\/e0c8f5fa-04d0-4a52-a73c-548d3a3006c9"},"geometry":{"type":"Point","coordinates":[-52.1004780640625,-32.0208682293724]}},{"type":"Feature","properties":{"municipio":"879207cb-0997-40ce-8d47-773de778456e","title":"RS - QUARAI","tipo":null,"url":"\/dashboard\/details-assets\/879207cb-0997-40ce-8d47-773de778456e"},"geometry":{"type":"Point","coordinates":[-56.4488086,-30.3845133]}},{"type":"Feature","properties":{"municipio":"abaa77ea-d1b3-4abc-bea7-2c307b7be339","title":"RS - PRATA","tipo":null,"url":"\/dashboard\/details-assets\/abaa77ea-d1b3-4abc-bea7-2c307b7be339"},"geometry":{"type":"Point","coordinates":[-51.6077771,-28.7840394]}},{"type":"Feature","properties":{"municipio":"55cc2351-bccd-4f6a-89ae-dae51043b8c4","title":"RS - PORTO ALEGRE","tipo":null,"url":"\/dashboard\/details-assets\/55cc2351-bccd-4f6a-89ae-dae51043b8c4"},"geometry":{"type":"Point","coordinates":[-51.2176584,-30.0346471]}},{"type":"Feature","properties":{"municipio":"0a5af900-fe65-4279-bec4-06474c1150a8","title":"RS - PASSO FUNDO","tipo":null,"url":"\/dashboard\/details-assets\/0a5af900-fe65-4279-bec4-06474c1150a8"},"geometry":{"type":"Point","coordinates":[-52.4070950926172,-28.2617671271174]}},{"type":"Feature","properties":{"municipio":"3ebf6225-3a2f-4775-b698-8283aa83f1b1","title":"RS - PELOTAS","tipo":null,"url":"\/dashboard\/details-assets\/3ebf6225-3a2f-4775-b698-8283aa83f1b1"},"geometry":{"type":"Point","coordinates":[-52.34432,-31.7499652966305]}},{"type":"Feature","properties":{"municipio":"a69c5933-e913-4c59-82f4-98d5b30b6df2","title":"RS - PALMEIRA DAS MISSOES","tipo":null,"url":"\/dashboard\/details-assets\/a69c5933-e913-4c59-82f4-98d5b30b6df2"},"geometry":{"type":"Point","coordinates":[-53.3140353,-27.9001784]}},{"type":"Feature","properties":{"municipio":"0c8167cf-c30b-4bbb-86e3-f7ad6377702c","title":"RS - OSORIO","tipo":null,"url":"\/dashboard\/details-assets\/0c8167cf-c30b-4bbb-86e3-f7ad6377702c"},"geometry":{"type":"Point","coordinates":[-50.2848677046875,-29.8527814364185]}},{"type":"Feature","properties":{"municipio":"194ffe48-6916-4ecb-833d-d68105ba8d9a","title":"RS - NOVO HAMBURGO","tipo":null,"url":"\/dashboard\/details-assets\/194ffe48-6916-4ecb-833d-d68105ba8d9a"},"geometry":{"type":"Point","coordinates":[-51.1255697,-29.6918991]}},{"type":"Feature","properties":{"municipio":"ac5e0d6c-1d19-4a49-8614-73c39d133057","title":"RS - NOVA PRATA","tipo":null,"url":"\/dashboard\/details-assets\/ac5e0d6c-1d19-4a49-8614-73c39d133057"},"geometry":{"type":"Point","coordinates":[-51.61,-28.78]}},{"type":"Feature","properties":{"municipio":"e24a32b3-5ce1-4cd4-b2de-25bbc5d67d02","title":"RS - MONTENEGRO","tipo":null,"url":"\/dashboard\/details-assets\/e24a32b3-5ce1-4cd4-b2de-25bbc5d67d02"},"geometry":{"type":"Point","coordinates":[-51.4684153,-29.6829126]}},{"type":"Feature","properties":{"municipio":"a61ea6ea-c9c3-4cd4-b6ec-7c5c9bed85b2","title":"RS - LAGOA VERMELHA","tipo":null,"url":"\/dashboard\/details-assets\/a61ea6ea-c9c3-4cd4-b6ec-7c5c9bed85b2"},"geometry":{"type":"Point","coordinates":[-51.5244569383789,-28.2033356446455]}},{"type":"Feature","properties":{"municipio":"c5f2cefa-18b2-4f10-be68-306afa8daf6a","title":"RS - LAJEADO","tipo":null,"url":"\/dashboard\/details-assets\/c5f2cefa-18b2-4f10-be68-306afa8daf6a"},"geometry":{"type":"Point","coordinates":[-51.9678277005001,-29.4654544016624]}},{"type":"Feature","properties":{"municipio":"38c36012-ad60-4949-b051-b99d5d4e0456","title":"RS - JULIO DE CASTILHOS","tipo":null,"url":"\/dashboard\/details-assets\/38c36012-ad60-4949-b051-b99d5d4e0456"},"geometry":{"type":"Point","coordinates":[-53.68,-29.22]}},{"type":"Feature","properties":{"municipio":"4c6c4465-fc5e-454f-be53-ddaff54b4e8b","title":"RS - JULIO DE CASTILHO","tipo":null,"url":"\/dashboard\/details-assets\/4c6c4465-fc5e-454f-be53-ddaff54b4e8b"},"geometry":{"type":"Point","coordinates":[-53.6827015,-29.2293516]}},{"type":"Feature","properties":{"municipio":"a4a3f930-97b4-4bd0-9073-b0d833780889","title":"RS - JAGUARI","tipo":null,"url":"\/dashboard\/details-assets\/a4a3f930-97b4-4bd0-9073-b0d833780889"},"geometry":{"type":"Point","coordinates":[-54.6533747,-29.4848659]}},{"type":"Feature","properties":{"municipio":"fc912eb5-42b7-40ea-b665-91c42f688606","title":"RS - ITAQUI","tipo":null,"url":"\/dashboard\/details-assets\/fc912eb5-42b7-40ea-b665-91c42f688606"},"geometry":{"type":"Point","coordinates":[-56.5481122,-29.1294007]}},{"type":"Feature","properties":{"municipio":"738b2f21-46cd-4ec5-b7c5-075145b64c39","title":"RS - IJUI","tipo":null,"url":"\/dashboard\/details-assets\/738b2f21-46cd-4ec5-b7c5-075145b64c39"},"geometry":{"type":"Point","coordinates":[-53.918066835708,-28.3885365401951]}},{"type":"Feature","properties":{"municipio":"98f954ef-e973-416a-b4c0-15a521ce3af8","title":"RS - GUAPORE","tipo":null,"url":"\/dashboard\/details-assets\/98f954ef-e973-416a-b4c0-15a521ce3af8"},"geometry":{"type":"Point","coordinates":[-51.8901313,-28.8479263]}},{"type":"Feature","properties":{"municipio":"2a6f0c36-9576-46fe-b74e-e6c0e8c97d1e","title":"RS - GUAIBA","tipo":null,"url":"\/dashboard\/details-assets\/2a6f0c36-9576-46fe-b74e-e6c0e8c97d1e"},"geometry":{"type":"Point","coordinates":[-51.3146836637248,-30.1086019215542]}},{"type":"Feature","properties":{"municipio":"26365c20-e403-4492-b566-6a43412ddb71","title":"RS - GRAVATAI","tipo":null,"url":"\/dashboard\/details-assets\/26365c20-e403-4492-b566-6a43412ddb71"},"geometry":{"type":"Point","coordinates":[-50.99,-29.94]}},{"type":"Feature","properties":{"municipio":"846491e6-849f-4854-bcbf-8b6c5b2660e3","title":"RS - GETULIO VARGAS","tipo":null,"url":"\/dashboard\/details-assets\/846491e6-849f-4854-bcbf-8b6c5b2660e3"},"geometry":{"type":"Point","coordinates":[-52.22,-27.89]}},{"type":"Feature","properties":{"municipio":"9c67a4b8-e755-4a51-8a0f-7c5df80186b4","title":"RS - FREDERICO WESTPHALEN","tipo":null,"url":"\/dashboard\/details-assets\/9c67a4b8-e755-4a51-8a0f-7c5df80186b4"},"geometry":{"type":"Point","coordinates":[-53.3963199,-27.3607338]}},{"type":"Feature","properties":{"municipio":"a3a335af-f14a-4d7f-9561-c2a93c81c9b1","title":"RS - ESPUMOSO","tipo":null,"url":"\/dashboard\/details-assets\/a3a335af-f14a-4d7f-9561-c2a93c81c9b1"},"geometry":{"type":"Point","coordinates":[-52.8444231,-28.7245183]}},{"type":"Feature","properties":{"municipio":"f7175b89-faba-4883-af41-a28f12944852","title":"RS - ERECHIM","tipo":null,"url":"\/dashboard\/details-assets\/f7175b89-faba-4883-af41-a28f12944852"},"geometry":{"type":"Point","coordinates":[-52.2740707,-27.6347754]}},{"type":"Feature","properties":{"municipio":"10c92de2-83ba-4f8a-9546-b715fffee074","title":"RS - DOM PEDRITO","tipo":null,"url":"\/dashboard\/details-assets\/10c92de2-83ba-4f8a-9546-b715fffee074"},"geometry":{"type":"Point","coordinates":[-54.6650050611328,-30.9710503937702]}},{"type":"Feature","properties":{"municipio":"284f86b4-4cfc-4c58-84b6-f51828365d01","title":"RS - CRUZ ALTA","tipo":null,"url":"\/dashboard\/details-assets\/284f86b4-4cfc-4c58-84b6-f51828365d01"},"geometry":{"type":"Point","coordinates":[-53.605355,-28.6454883]}},{"type":"Feature","properties":{"municipio":"044b23b1-8310-482b-8c62-e82949cba155","title":"RS - CHARQUEADAS","tipo":null,"url":"\/dashboard\/details-assets\/044b23b1-8310-482b-8c62-e82949cba155"},"geometry":{"type":"Point","coordinates":[-51.6250060521847,-29.9568003622277]}},{"type":"Feature","properties":{"municipio":"c6a3aa0f-304d-4081-a641-d96eba92b8c8","title":"RS - CAXIAS DO SUL","tipo":null,"url":"\/dashboard\/details-assets\/c6a3aa0f-304d-4081-a641-d96eba92b8c8"},"geometry":{"type":"Point","coordinates":[-51.178860205883,-29.1668990102587]}},{"type":"Feature","properties":{"municipio":"f8027344-f8c2-4236-9101-2f11275da1f0","title":"RS - CARAZINHO","tipo":null,"url":"\/dashboard\/details-assets\/f8027344-f8c2-4236-9101-2f11275da1f0"},"geometry":{"type":"Point","coordinates":[-52.793776,-28.2963334]}},{"type":"Feature","properties":{"municipio":"badc3629-c95b-4acd-980d-58a5909292fd","title":"RS - CANOAS","tipo":null,"url":"\/dashboard\/details-assets\/badc3629-c95b-4acd-980d-58a5909292fd"},"geometry":{"type":"Point","coordinates":[-51.1810297806876,-29.9186967056744]}},{"type":"Feature","properties":{"municipio":"c4600288-fa76-49d6-8539-c3f32c5e23c0","title":"RS - CANGUCU","tipo":null,"url":"\/dashboard\/details-assets\/c4600288-fa76-49d6-8539-c3f32c5e23c0"},"geometry":{"type":"Point","coordinates":[-52.6787852,-31.3964785]}},{"type":"Feature","properties":{"municipio":"e19dba20-fc20-4866-aaf9-4d86605ffcc5","title":"RS - CANELA","tipo":null,"url":"\/dashboard\/details-assets\/e19dba20-fc20-4866-aaf9-4d86605ffcc5"},"geometry":{"type":"Point","coordinates":[-50.8124263,-29.3564931]}},{"type":"Feature","properties":{"municipio":"b268f3a8-51e0-485d-89c9-46b7ba03cec7","title":"RS - CAMAQUA","tipo":null,"url":"\/dashboard\/details-assets\/b268f3a8-51e0-485d-89c9-46b7ba03cec7"},"geometry":{"type":"Point","coordinates":[-51.8048311,-30.8493976]}},{"type":"Feature","properties":{"municipio":"bbf8ec32-62fc-4db2-ae29-05742e084916","title":"RS - CACEQUI","tipo":null,"url":"\/dashboard\/details-assets\/bbf8ec32-62fc-4db2-ae29-05742e084916"},"geometry":{"type":"Point","coordinates":[-54.8265622,-29.8801552]}},{"type":"Feature","properties":{"municipio":"692b4610-7aa5-4e27-8102-6c56899a25c2","title":"RS - CACHOEIRA DO SUL","tipo":null,"url":"\/dashboard\/details-assets\/692b4610-7aa5-4e27-8102-6c56899a25c2"},"geometry":{"type":"Point","coordinates":[-52.893221,-30.0336816]}},{"type":"Feature","properties":{"municipio":"21dc0dc4-5d08-4fab-810b-8e788ff5e364","title":"RS - CACAPAVA DO SUL","tipo":null,"url":"\/dashboard\/details-assets\/21dc0dc4-5d08-4fab-810b-8e788ff5e364"},"geometry":{"type":"Point","coordinates":[-51.9614829532158,-30.1161440118278]}},{"type":"Feature","properties":{"municipio":"3a46cbdf-7c13-41e3-b04a-613ebf3e5f25","title":"RS - BENTO GONCALVES","tipo":null,"url":"\/dashboard\/details-assets\/3a46cbdf-7c13-41e3-b04a-613ebf3e5f25"},"geometry":{"type":"Point","coordinates":[-51.5169861,-29.1667089]}},{"type":"Feature","properties":{"municipio":"f6177f84-7c69-4106-8844-0f7cf65118ea","title":"RS - BAGE","tipo":null,"url":"\/dashboard\/details-assets\/f6177f84-7c69-4106-8844-0f7cf65118ea"},"geometry":{"type":"Point","coordinates":[-54.1004709,-31.3301746]}},{"type":"Feature","properties":{"municipio":"b6379efc-fcb6-4c0e-94be-31e7bcee7d03","title":"RS - ARROIO DOS RATOS","tipo":null,"url":"\/dashboard\/details-assets\/b6379efc-fcb6-4c0e-94be-31e7bcee7d03"},"geometry":{"type":"Point","coordinates":[-51.72,-30.07]}},{"type":"Feature","properties":{"municipio":"bad78561-734c-4e7c-9fe4-0fc6772fdded","title":"RS - ARROIO DO MEIO","tipo":null,"url":"\/dashboard\/details-assets\/bad78561-734c-4e7c-9fe4-0fc6772fdded"},"geometry":{"type":"Point","coordinates":[-51.9474494916139,-29.3988907183293]}},{"type":"Feature","properties":{"municipio":"15741455-b29a-46b7-a7c1-e80e51dbad5c","title":"RS - ARRIO DOS RATOS","tipo":null,"url":"\/dashboard\/details-assets\/15741455-b29a-46b7-a7c1-e80e51dbad5c"},"geometry":{"type":"Point","coordinates":[-51.7279954,-30.0880438]}},{"type":"Feature","properties":{"municipio":"473dd595-f97d-4cdc-97cd-169af04c153c","title":"RS - ALEGRETE","tipo":null,"url":"\/dashboard\/details-assets\/473dd595-f97d-4cdc-97cd-169af04c153c"},"geometry":{"type":"Point","coordinates":[-55.7847960882813,-29.7731797174279]}},{"type":"Feature","properties":{"municipio":"f378dce2-6fe6-4a0e-8082-c7252e717451","title":"RN - PAU DOS FERROS","tipo":null,"url":"\/dashboard\/details-assets\/f378dce2-6fe6-4a0e-8082-c7252e717451"},"geometry":{"type":"Point","coordinates":[-38.2,-6.11]}},{"type":"Feature","properties":{"municipio":"39f37ac1-6f1a-468c-b7c8-8ded4f060f23","title":"RS - AGUDO","tipo":null,"url":"\/dashboard\/details-assets\/39f37ac1-6f1a-468c-b7c8-8ded4f060f23"},"geometry":{"type":"Point","coordinates":[-53.24,-29.64]}},{"type":"Feature","properties":{"municipio":"7d67e157-6559-48df-a5a7-234a2b06383b","title":"RN - PARNAMIRIM","tipo":null,"url":"\/dashboard\/details-assets\/7d67e157-6559-48df-a5a7-234a2b06383b"},"geometry":{"type":"Point","coordinates":[-39.5757868229726,-8.09013832690584]}},{"type":"Feature","properties":{"municipio":"881205a8-6aaa-4a98-8690-c9f434cc030d","title":"RN - NISIA FLORESTA","tipo":null,"url":"\/dashboard\/details-assets\/881205a8-6aaa-4a98-8690-c9f434cc030d"},"geometry":{"type":"Point","coordinates":[-35.2,-6.09]}},{"type":"Feature","properties":{"municipio":"8a0abdf2-ab14-42e2-b001-5f6804fd2305","title":"RN - NATAL","tipo":null,"url":"\/dashboard\/details-assets\/8a0abdf2-ab14-42e2-b001-5f6804fd2305"},"geometry":{"type":"Point","coordinates":[-35.2158627880859,-5.79872025536009]}},{"type":"Feature","properties":{"municipio":"4cab17d9-0c95-423e-98d4-6684dcd09d07","title":"RN - MOSSORO","tipo":null,"url":"\/dashboard\/details-assets\/4cab17d9-0c95-423e-98d4-6684dcd09d07"},"geometry":{"type":"Point","coordinates":[-37.3568741367043,-5.19380123453833]}},{"type":"Feature","properties":{"municipio":"32e06199-2f39-4440-a29e-69fedd72c00c","title":"RN - CEARA-MIRIM","tipo":null,"url":"\/dashboard\/details-assets\/32e06199-2f39-4440-a29e-69fedd72c00c"},"geometry":{"type":"Point","coordinates":[-35.42,-5.63]}},{"type":"Feature","properties":{"municipio":"1f9ca1f5-2fa1-4d9f-b69e-4de092d5ecb1","title":"RN - CARAUBAS","tipo":null,"url":"\/dashboard\/details-assets\/1f9ca1f5-2fa1-4d9f-b69e-4de092d5ecb1"},"geometry":{"type":"Point","coordinates":[-37.55,-5.79]}},{"type":"Feature","properties":{"municipio":"42d4b687-b2fe-4846-a686-e1c5e62812c2","title":"RN - CAICO","tipo":null,"url":"\/dashboard\/details-assets\/42d4b687-b2fe-4846-a686-e1c5e62812c2"},"geometry":{"type":"Point","coordinates":[-37.0964887711922,-6.45913883118207]}},{"type":"Feature","properties":{"municipio":"cc180ae1-a1aa-446a-afde-3d830e65f8ed","title":"RN - APODI","tipo":null,"url":"\/dashboard\/details-assets\/cc180ae1-a1aa-446a-afde-3d830e65f8ed"},"geometry":{"type":"Point","coordinates":[-37.79,-5.66]}},{"type":"Feature","properties":{"municipio":"ce9344ea-808c-4b72-9d53-bd55108dcd23","title":"RJ - VOLTA REDONDA","tipo":null,"url":"\/dashboard\/details-assets\/ce9344ea-808c-4b72-9d53-bd55108dcd23"},"geometry":{"type":"Point","coordinates":[-44.0947303,-22.5077597]}},{"type":"Feature","properties":{"municipio":"e2e46e58-7c68-4280-afb4-d75a9c7f9ea7","title":"RJ - TERESOPOLIS","tipo":null,"url":"\/dashboard\/details-assets\/e2e46e58-7c68-4280-afb4-d75a9c7f9ea7"},"geometry":{"type":"Point","coordinates":[-42.9756194,-22.416956]}},{"type":"Feature","properties":{"municipio":"21fcf0c4-b1e7-4a4c-ab4f-18993a8712b7","title":"RJ - SAO GONCALO","tipo":null,"url":"\/dashboard\/details-assets\/21fcf0c4-b1e7-4a4c-ab4f-18993a8712b7"},"geometry":{"type":"Point","coordinates":[-43.0637646,-22.8272883]}},{"type":"Feature","properties":{"municipio":"9ec58405-e538-4530-bd98-c8b83cc6813a","title":"RJ - PORTO REAL","tipo":null,"url":"\/dashboard\/details-assets\/9ec58405-e538-4530-bd98-c8b83cc6813a"},"geometry":{"type":"Point","coordinates":[-44.2955901,-22.4179651]}},{"type":"Feature","properties":{"municipio":"b6dd1e86-ca64-4974-87c6-f618eb6ff1e3","title":"RJ - RIO DE JANEIRO","tipo":null,"url":"\/dashboard\/details-assets\/b6dd1e86-ca64-4974-87c6-f618eb6ff1e3"},"geometry":{"type":"Point","coordinates":[-43.16743575,-22.8361572211111]}},{"type":"Feature","properties":{"municipio":"f9ac7019-849c-4b74-840b-6fc7d2ba6f70","title":"RJ - NOVA IGUACU","tipo":null,"url":"\/dashboard\/details-assets\/f9ac7019-849c-4b74-840b-6fc7d2ba6f70"},"geometry":{"type":"Point","coordinates":[-43.4607419,-22.7561319]}},{"type":"Feature","properties":{"municipio":"f272bbd9-f2a8-4902-9fb0-1ae1d912472c","title":"RJ - NOVA FRIBURGO","tipo":null,"url":"\/dashboard\/details-assets\/f272bbd9-f2a8-4902-9fb0-1ae1d912472c"},"geometry":{"type":"Point","coordinates":[-42.5340796,-22.2887261]}},{"type":"Feature","properties":{"municipio":"2171074a-2fe3-4fa8-8b79-a430c6e20925","title":"RJ - NITEROI","tipo":null,"url":"\/dashboard\/details-assets\/2171074a-2fe3-4fa8-8b79-a430c6e20925"},"geometry":{"type":"Point","coordinates":[-43.1152211,-22.8858975]}},{"type":"Feature","properties":{"municipio":"7219916b-a20f-4bf3-9244-5c4a96d0ecbb","title":"RJ - MAGE","tipo":null,"url":"\/dashboard\/details-assets\/7219916b-a20f-4bf3-9244-5c4a96d0ecbb"},"geometry":{"type":"Point","coordinates":[-43.0398345,-22.6566022]}},{"type":"Feature","properties":{"municipio":"d6017538-250d-4838-a199-2070efc170f8","title":"RJ - NILOPOLIS","tipo":null,"url":"\/dashboard\/details-assets\/d6017538-250d-4838-a199-2070efc170f8"},"geometry":{"type":"Point","coordinates":[-43.41941,-22.809816]}},{"type":"Feature","properties":{"municipio":"9efd5700-09cb-43d0-a6d8-1842c8d1b408","title":"RJ - MACAE","tipo":null,"url":"\/dashboard\/details-assets\/9efd5700-09cb-43d0-a6d8-1842c8d1b408"},"geometry":{"type":"Point","coordinates":[-41.7827891,-22.3836904]}},{"type":"Feature","properties":{"municipio":"60df33ee-21e1-4b29-ae52-eec786ba4850","title":"RJ - JAPERI","tipo":null,"url":"\/dashboard\/details-assets\/60df33ee-21e1-4b29-ae52-eec786ba4850"},"geometry":{"type":"Point","coordinates":[-43.6606463,-22.6439978]}},{"type":"Feature","properties":{"municipio":"3eb740b7-1350-4a76-891e-6ca13f5f63f3","title":"RJ - ITAPERUNA","tipo":null,"url":"\/dashboard\/details-assets\/3eb740b7-1350-4a76-891e-6ca13f5f63f3"},"geometry":{"type":"Point","coordinates":[-41.8802333,-21.2000807]}},{"type":"Feature","properties":{"municipio":"428e9425-01f2-47e7-95dd-6fe35acaf78e","title":"RJ - DUQUE DE CAXIAS","tipo":null,"url":"\/dashboard\/details-assets\/428e9425-01f2-47e7-95dd-6fe35acaf78e"},"geometry":{"type":"Point","coordinates":[-43.3053106,-22.7862985]}},{"type":"Feature","properties":{"municipio":"3542c22a-27dd-494c-a7cc-251b425dc2fe","title":"RJ - CAMPOS DOS GOYTACAZES","tipo":null,"url":"\/dashboard\/details-assets\/3542c22a-27dd-494c-a7cc-251b425dc2fe"},"geometry":{"type":"Point","coordinates":[-41.3184877,-21.7626902]}},{"type":"Feature","properties":{"municipio":"690bf777-4db6-4b42-99a4-b332595b8e55","title":"RJ - CABO FRIO","tipo":null,"url":"\/dashboard\/details-assets\/690bf777-4db6-4b42-99a4-b332595b8e55"},"geometry":{"type":"Point","coordinates":[-42.0262542,-22.8867507]}},{"type":"Feature","properties":{"municipio":"60fbb13d-a112-47c0-9d34-84011129ef4a","title":"RJ - BELFORD ROXO","tipo":null,"url":"\/dashboard\/details-assets\/60fbb13d-a112-47c0-9d34-84011129ef4a"},"geometry":{"type":"Point","coordinates":[-43.3996264,-22.7645391]}},{"type":"Feature","properties":{"municipio":"22cf1c14-feb1-49f1-a45d-3c11414698cb","title":"RJ - BARRA MANSA","tipo":null,"url":"\/dashboard\/details-assets\/22cf1c14-feb1-49f1-a45d-3c11414698cb"},"geometry":{"type":"Point","coordinates":[-44.1772604,-22.5408519]}},{"type":"Feature","properties":{"municipio":"161e3b2a-379a-4b20-a0a7-0012cfb5236b","title":"PI - TERESINA","tipo":null,"url":"\/dashboard\/details-assets\/161e3b2a-379a-4b20-a0a7-0012cfb5236b"},"geometry":{"type":"Point","coordinates":[-42.8052704582233,-5.08634195215484]}},{"type":"Feature","properties":{"municipio":"e4dac563-c3ee-46c3-a1e8-1da2911a5c03","title":"PI - SAO RAIMUNDO NONATO","tipo":null,"url":"\/dashboard\/details-assets\/e4dac563-c3ee-46c3-a1e8-1da2911a5c03"},"geometry":{"type":"Point","coordinates":[-42.6922851641908,-9.0153604820623]}},{"type":"Feature","properties":{"municipio":"9ee11f2e-7ae6-42cb-a40a-6e18953d7882","title":"PI - PARNAIBA","tipo":null,"url":"\/dashboard\/details-assets\/9ee11f2e-7ae6-42cb-a40a-6e18953d7882"},"geometry":{"type":"Point","coordinates":[-41.7781705920245,-2.90336014441333]}},{"type":"Feature","properties":{"municipio":"979bd598-299c-4fa1-8059-eeae90eb0947","title":"PI - PICOS","tipo":null,"url":"\/dashboard\/details-assets\/979bd598-299c-4fa1-8059-eeae90eb0947"},"geometry":{"type":"Point","coordinates":[-41.4688267146679,-7.0813739119682]}},{"type":"Feature","properties":{"municipio":"8d0f6854-9d4b-41bc-9f49-5c18949463ae","title":"PI - OEIRAS","tipo":null,"url":"\/dashboard\/details-assets\/8d0f6854-9d4b-41bc-9f49-5c18949463ae"},"geometry":{"type":"Point","coordinates":[-42.1314056604251,-7.0164180057338]}},{"type":"Feature","properties":{"municipio":"d26ef07b-b45f-4beb-9961-2a958d1e35b1","title":"PI - FLORIANO","tipo":null,"url":"\/dashboard\/details-assets\/d26ef07b-b45f-4beb-9961-2a958d1e35b1"},"geometry":{"type":"Point","coordinates":[-43.0206447383255,-6.76967243356518]}},{"type":"Feature","properties":{"municipio":"1a4d2502-ef22-4f20-a77b-625a3ea06fe8","title":"PI - ESPERANTINA","tipo":null,"url":"\/dashboard\/details-assets\/1a4d2502-ef22-4f20-a77b-625a3ea06fe8"},"geometry":{"type":"Point","coordinates":[-42.2342203,-3.8945585]}},{"type":"Feature","properties":{"municipio":"78c73315-9b82-4725-82d8-8e32505ed030","title":"PI - BOM JESUS","tipo":null,"url":"\/dashboard\/details-assets\/78c73315-9b82-4725-82d8-8e32505ed030"},"geometry":{"type":"Point","coordinates":[-44.357392,-9.074637]}},{"type":"Feature","properties":{"municipio":"82ccc87b-af51-4cfb-8916-7100109373b0","title":"PI - CAMPO MAIOR","tipo":null,"url":"\/dashboard\/details-assets\/82ccc87b-af51-4cfb-8916-7100109373b0"},"geometry":{"type":"Point","coordinates":[-42.16,-4.82]}},{"type":"Feature","properties":{"municipio":"79b8d2d7-4969-4553-868f-b2c85f254d02","title":"PI - ALTOS","tipo":null,"url":"\/dashboard\/details-assets\/79b8d2d7-4969-4553-868f-b2c85f254d02"},"geometry":{"type":"Point","coordinates":[-42.4609480355568,-5.03654643417531]}},{"type":"Feature","properties":{"municipio":"9272e726-f1f0-435c-926f-af683ca0b691","title":"PE - VITORIA DE SANTO ANTAO","tipo":null,"url":"\/dashboard\/details-assets\/9272e726-f1f0-435c-926f-af683ca0b691"},"geometry":{"type":"Point","coordinates":[-35.2938642410814,-8.11874799973584]}},{"type":"Feature","properties":{"municipio":"f9537842-44e2-4d44-b07c-cf5a31d7a71a","title":"PE - TIMBAUBA","tipo":null,"url":"\/dashboard\/details-assets\/f9537842-44e2-4d44-b07c-cf5a31d7a71a"},"geometry":{"type":"Point","coordinates":[-35.3168703,-7.512005]}},{"type":"Feature","properties":{"municipio":"9c256a66-97e4-43d4-85e3-3a1192f2f7c2","title":"PE - SANTA CRUZ DO CAPIBARIBE","tipo":null,"url":"\/dashboard\/details-assets\/9c256a66-97e4-43d4-85e3-3a1192f2f7c2"},"geometry":{"type":"Point","coordinates":[-36.2039500171458,-7.95518949974102]}},{"type":"Feature","properties":{"municipio":"c8ecb8e2-4bc4-4fdd-acf0-648840d90f52","title":"PE - PETROLINA","tipo":null,"url":"\/dashboard\/details-assets\/c8ecb8e2-4bc4-4fdd-acf0-648840d90f52"},"geometry":{"type":"Point","coordinates":[-40.4999993346523,-9.39737551469565]}},{"type":"Feature","properties":{"municipio":"02427f7f-33d6-44b3-a724-b140cce0a41a","title":"PE - RECIFE","tipo":null,"url":"\/dashboard\/details-assets\/02427f7f-33d6-44b3-a724-b140cce0a41a"},"geometry":{"type":"Point","coordinates":[-34.8889419445777,-8.06276248279001]}},{"type":"Feature","properties":{"municipio":"72e990fd-04e0-4818-a1e8-f830833bb75e","title":"PE - PESQUEIRA","tipo":null,"url":"\/dashboard\/details-assets\/72e990fd-04e0-4818-a1e8-f830833bb75e"},"geometry":{"type":"Point","coordinates":[-36.69,-8.35]}},{"type":"Feature","properties":{"municipio":"e6df25ad-511c-4c77-9452-86ff8466920c","title":"PE - PALMARES","tipo":null,"url":"\/dashboard\/details-assets\/e6df25ad-511c-4c77-9452-86ff8466920c"},"geometry":{"type":"Point","coordinates":[-35.5883359937581,-8.67908249971815]}},{"type":"Feature","properties":{"municipio":"f0a4297d-ee31-4f8d-9422-576aed09f282","title":"PE - JABOATAO DOS GUARARAPES","tipo":null,"url":"\/dashboard\/details-assets\/f0a4297d-ee31-4f8d-9422-576aed09f282"},"geometry":{"type":"Point","coordinates":[-34.9988568957031,-8.16802124239862]}},{"type":"Feature","properties":{"municipio":"b1346ba9-7eed-423a-936b-7d143fa5f974","title":"PE - LIMOEIRO","tipo":null,"url":"\/dashboard\/details-assets\/b1346ba9-7eed-423a-936b-7d143fa5f974"},"geometry":{"type":"Point","coordinates":[-35.4552610509597,-7.88019799974339]}},{"type":"Feature","properties":{"municipio":"3e61c173-73e3-4ba1-8cba-f5691ec23c82","title":"PE - ILHA DE ITAMARACA","tipo":null,"url":"\/dashboard\/details-assets\/3e61c173-73e3-4ba1-8cba-f5691ec23c82"},"geometry":{"type":"Point","coordinates":[-34.8306327,-7.7480776]}},{"type":"Feature","properties":{"municipio":"89711817-7656-4899-b8a6-b88ba9034029","title":"PE - IGARASSU","tipo":null,"url":"\/dashboard\/details-assets\/89711817-7656-4899-b8a6-b88ba9034029"},"geometry":{"type":"Point","coordinates":[-34.9105833875875,-7.82837198974503]}},{"type":"Feature","properties":{"municipio":"a61ba350-314a-4e83-a503-35f35e132325","title":"PE - GARANHUNS","tipo":null,"url":"\/dashboard\/details-assets\/a61ba350-314a-4e83-a503-35f35e132325"},"geometry":{"type":"Point","coordinates":[-36.4930502821005,-8.88890552971159]}},{"type":"Feature","properties":{"municipio":"d65827df-15bf-46d4-8580-4e69f048ce7d","title":"PE - CARUARU","tipo":null,"url":"\/dashboard\/details-assets\/d65827df-15bf-46d4-8580-4e69f048ce7d"},"geometry":{"type":"Point","coordinates":[-35.9670733600535,-8.28589799973057]}},{"type":"Feature","properties":{"municipio":"5fcd5235-3f1e-4bde-8cc8-adc347417544","title":"PE - CANHOTINHO","tipo":null,"url":"\/dashboard\/details-assets\/5fcd5235-3f1e-4bde-8cc8-adc347417544"},"geometry":{"type":"Point","coordinates":[-36.1998590035156,-8.87051388232918]}},{"type":"Feature","properties":{"municipio":"bbda1f1e-ef97-4d9c-a71f-a0d2302370f9","title":"PE - CABO DE SANTO AGOSTINHO","tipo":null,"url":"\/dashboard\/details-assets\/bbda1f1e-ef97-4d9c-a71f-a0d2302370f9"},"geometry":{"type":"Point","coordinates":[-35.0384889718131,-8.2898642300283]}},{"type":"Feature","properties":{"municipio":"329ce604-629c-4f13-b8df-ed2e65a155a2","title":"PE - BUIQUE","tipo":null,"url":"\/dashboard\/details-assets\/329ce604-629c-4f13-b8df-ed2e65a155a2"},"geometry":{"type":"Point","coordinates":[-37.0829593,-8.6165115]}},{"type":"Feature","properties":{"municipio":"3e4e9557-895e-4ac3-b8fb-b6ee72f9da64","title":"PE - ARCOVERDE","tipo":null,"url":"\/dashboard\/details-assets\/3e4e9557-895e-4ac3-b8fb-b6ee72f9da64"},"geometry":{"type":"Point","coordinates":[-37.0565055646245,-8.42394049972621]}},{"type":"Feature","properties":{"municipio":"e29601b4-e730-4800-a3f4-017447611e6e","title":"PE - ABREU E LIMA","tipo":null,"url":"\/dashboard\/details-assets\/e29601b4-e730-4800-a3f4-017447611e6e"},"geometry":{"type":"Point","coordinates":[-34.8987086,-7.9011493]}},{"type":"Feature","properties":{"municipio":"715564cd-6bf7-4255-bd52-7b6b887ce10e","title":"PR - UMUARAMA","tipo":null,"url":"\/dashboard\/details-assets\/715564cd-6bf7-4255-bd52-7b6b887ce10e"},"geometry":{"type":"Point","coordinates":[-53.32,-23.76]}},{"type":"Feature","properties":{"municipio":"18fba492-ff70-43bc-897b-1814eb74df3c","title":"PR - WENCESLAU BRAZ","tipo":null,"url":"\/dashboard\/details-assets\/18fba492-ff70-43bc-897b-1814eb74df3c"},"geometry":{"type":"Point","coordinates":[-49.80298478237,-23.8704228521509]}},{"type":"Feature","properties":{"municipio":"15c531dd-471b-4774-84b6-8c44721e165f","title":"PR - UMARAMA","tipo":null,"url":"\/dashboard\/details-assets\/15c531dd-471b-4774-84b6-8c44721e165f"},"geometry":{"type":"Point","coordinates":[-53.3206105,-23.7661064]}},{"type":"Feature","properties":{"municipio":"78545a3d-b3b5-4133-a95d-c66dc65040a5","title":"PR - TOLEDO","tipo":null,"url":"\/dashboard\/details-assets\/78545a3d-b3b5-4133-a95d-c66dc65040a5"},"geometry":{"type":"Point","coordinates":[-53.7414114911568,-24.7320769992824]}},{"type":"Feature","properties":{"municipio":"1e28eedd-f0c7-4bb7-87c7-8dfd3500fac0","title":"PR - SAO JOSE DOS PINHAIS","tipo":null,"url":"\/dashboard\/details-assets\/1e28eedd-f0c7-4bb7-87c7-8dfd3500fac0"},"geometry":{"type":"Point","coordinates":[-53.7256129,-26.074187]}},{"type":"Feature","properties":{"municipio":"36a9625c-7274-49cc-97f8-c56dcf392e21","title":"PR - SANTO ANTONIO DA PLATINA","tipo":null,"url":"\/dashboard\/details-assets\/36a9625c-7274-49cc-97f8-c56dcf392e21"},"geometry":{"type":"Point","coordinates":[-50.0726882,-23.2980974]}},{"type":"Feature","properties":{"municipio":"76c033e5-64b9-4932-ada0-f84006eb4c48","title":"PR - PONTA GROSSA","tipo":null,"url":"\/dashboard\/details-assets\/76c033e5-64b9-4932-ada0-f84006eb4c48"},"geometry":{"type":"Point","coordinates":[-50.1614420592942,-25.0925469992748]}},{"type":"Feature","properties":{"municipio":"4276c65d-6113-4299-955e-80d86756f1b1","title":"PR - PINHAIS","tipo":null,"url":"\/dashboard\/details-assets\/4276c65d-6113-4299-955e-80d86756f1b1"},"geometry":{"type":"Point","coordinates":[-49.1931448,-25.4434411]}},{"type":"Feature","properties":{"municipio":"aecaa102-e0ed-4f79-8dd3-0a35ed1174fe","title":"PR - PIRAQUARA","tipo":null,"url":"\/dashboard\/details-assets\/aecaa102-e0ed-4f79-8dd3-0a35ed1174fe"},"geometry":{"type":"Point","coordinates":[-49.0653056139231,-25.4465503557216]}},{"type":"Feature","properties":{"municipio":"6b8ab150-e0ff-4543-8f49-082d21176ed6","title":"PR - PATO BRANCO","tipo":null,"url":"\/dashboard\/details-assets\/6b8ab150-e0ff-4543-8f49-082d21176ed6"},"geometry":{"type":"Point","coordinates":[-52.6773619976723,-26.2299585142514]}},{"type":"Feature","properties":{"municipio":"bf74ab37-754c-462e-9ade-c145de9f1cdc","title":"PR - PARANAVAI","tipo":null,"url":"\/dashboard\/details-assets\/bf74ab37-754c-462e-9ade-c145de9f1cdc"},"geometry":{"type":"Point","coordinates":[-48.5247328366567,-25.5068414992661]}},{"type":"Feature","properties":{"municipio":"4fe7e7d9-f2b3-4398-8278-88747bfbc2ec","title":"PR - MARINGA","tipo":null,"url":"\/dashboard\/details-assets\/4fe7e7d9-f2b3-4398-8278-88747bfbc2ec"},"geometry":{"type":"Point","coordinates":[-51.9398818702521,-23.4222799993112]}},{"type":"Feature","properties":{"municipio":"b28d2c29-9ddd-4f38-8cf7-4d1869b064bf","title":"PR - LONDRINA","tipo":null,"url":"\/dashboard\/details-assets\/b28d2c29-9ddd-4f38-8cf7-4d1869b064bf"},"geometry":{"type":"Point","coordinates":[-51.1627734238781,-23.3121559993137]}},{"type":"Feature","properties":{"municipio":"85889690-e985-4b95-ae79-e307ffd09051","title":"PR - LARANJEIRAS DO SUL","tipo":null,"url":"\/dashboard\/details-assets\/85889690-e985-4b95-ae79-e307ffd09051"},"geometry":{"type":"Point","coordinates":[-52.4134746,-25.4079504]}},{"type":"Feature","properties":{"municipio":"77f3da17-36c9-4b27-ba66-16c4de34ef05","title":"PR - LAPA","tipo":null,"url":"\/dashboard\/details-assets\/77f3da17-36c9-4b27-ba66-16c4de34ef05"},"geometry":{"type":"Point","coordinates":[-49.7172529,-25.7675725]}},{"type":"Feature","properties":{"municipio":"c6796e14-d99f-4e9c-979a-d0c547d4d0fb","title":"PR - GUARAPUAVA","tipo":null,"url":"\/dashboard\/details-assets\/c6796e14-d99f-4e9c-979a-d0c547d4d0fb"},"geometry":{"type":"Point","coordinates":[-48.5757259604424,-25.8742419742585]}},{"type":"Feature","properties":{"municipio":"41745b2d-edba-47e6-a090-cddf24de5ffb","title":"PR - FOZ DO IGUACU","tipo":null,"url":"\/dashboard\/details-assets\/41745b2d-edba-47e6-a090-cddf24de5ffb"},"geometry":{"type":"Point","coordinates":[-54.5871024886046,-25.5424932787946]}},{"type":"Feature","properties":{"municipio":"dc6f049f-f12d-46f3-be36-2268202d9d30","title":"PR - FRANCISCO BELTRAO","tipo":null,"url":"\/dashboard\/details-assets\/dc6f049f-f12d-46f3-be36-2268202d9d30"},"geometry":{"type":"Point","coordinates":[-53.0561357214894,-26.0784499992544]}},{"type":"Feature","properties":{"municipio":"375b5489-8409-4843-8954-300ee247e837","title":"PR - FAZENDA RIO GRANDE","tipo":null,"url":"\/dashboard\/details-assets\/375b5489-8409-4843-8954-300ee247e837"},"geometry":{"type":"Point","coordinates":[-49.3077648,-25.6628343]}},{"type":"Feature","properties":{"municipio":"47866db5-2585-4830-98bb-b68edba11335","title":"PR - CURITIBA","tipo":null,"url":"\/dashboard\/details-assets\/47866db5-2585-4830-98bb-b68edba11335"},"geometry":{"type":"Point","coordinates":[-49.2718478850774,-25.4329559992677]}},{"type":"Feature","properties":{"municipio":"10738113-e104-4b87-bf09-c511fad1c9b7","title":"PR - CRUZEIRO DO OESTE","tipo":null,"url":"\/dashboard\/details-assets\/10738113-e104-4b87-bf09-c511fad1c9b7"},"geometry":{"type":"Point","coordinates":[-53.0762805,-23.7834562]}},{"type":"Feature","properties":{"municipio":"b063174d-a69f-4799-83b5-7d3385a669cc","title":"PR - CATANDUVAS","tipo":null,"url":"\/dashboard\/details-assets\/b063174d-a69f-4799-83b5-7d3385a669cc"},"geometry":{"type":"Point","coordinates":[-53.1553309,-25.204834]}},{"type":"Feature","properties":{"municipio":"c47b9a62-ab5b-4363-9471-d2d3b0ac7346","title":"PR - CASTRO","tipo":null,"url":"\/dashboard\/details-assets\/c47b9a62-ab5b-4363-9471-d2d3b0ac7346"},"geometry":{"type":"Point","coordinates":[-50.0028111277611,-24.7954174992811]}},{"type":"Feature","properties":{"municipio":"4707f1f6-f8df-4aa2-87c7-40702533d1bf","title":"PR - CASCAVEL","tipo":null,"url":"\/dashboard\/details-assets\/4707f1f6-f8df-4aa2-87c7-40702533d1bf"},"geometry":{"type":"Point","coordinates":[-53.4595112,-24.9577771]}},{"type":"Feature","properties":{"municipio":"22d10e68-d279-46cd-96ca-065302b68ecf","title":"PR - CAMPO MOURAO","tipo":null,"url":"\/dashboard\/details-assets\/22d10e68-d279-46cd-96ca-065302b68ecf"},"geometry":{"type":"Point","coordinates":[-52.3811150855647,-24.0412231960172]}},{"type":"Feature","properties":{"municipio":"19904045-34d2-4758-8577-b58c07b5579f","title":"PR - BARRACAO","tipo":null,"url":"\/dashboard\/details-assets\/19904045-34d2-4758-8577-b58c07b5579f"},"geometry":{"type":"Point","coordinates":[-53.63,-26.25]}},{"type":"Feature","properties":{"municipio":"e59ac860-0118-4a38-b3cb-42b75945aa96","title":"PR - ARAUCARIA","tipo":null,"url":"\/dashboard\/details-assets\/e59ac860-0118-4a38-b3cb-42b75945aa96"},"geometry":{"type":"Point","coordinates":[-49.4019396967087,-25.5916449992644]}},{"type":"Feature","properties":{"municipio":"517ed94a-7900-4ee1-bd48-52e0eecf2bb5","title":"PB - TEIXEIRA","tipo":null,"url":"\/dashboard\/details-assets\/517ed94a-7900-4ee1-bd48-52e0eecf2bb5"},"geometry":{"type":"Point","coordinates":[-37.2523026,-7.2212062]}},{"type":"Feature","properties":{"municipio":"4fe32eef-ec57-4883-85f3-bc0e44dcab15","title":"PB - UMBUZEIRO","tipo":null,"url":"\/dashboard\/details-assets\/4fe32eef-ec57-4883-85f3-bc0e44dcab15"},"geometry":{"type":"Point","coordinates":[-35.6653832,-7.6963786]}},{"type":"Feature","properties":{"municipio":"ff05201d-effe-4a02-91f3-d02e9ed3fd24","title":"PB - SOUSA","tipo":null,"url":"\/dashboard\/details-assets\/ff05201d-effe-4a02-91f3-d02e9ed3fd24"},"geometry":{"type":"Point","coordinates":[-38.2296050806011,-6.76337800477903]}},{"type":"Feature","properties":{"municipio":"64615290-1352-4f60-bd62-ba9b62e22dab","title":"PB - SOLEDADE","tipo":null,"url":"\/dashboard\/details-assets\/64615290-1352-4f60-bd62-ba9b62e22dab"},"geometry":{"type":"Point","coordinates":[-36.36,-7.05]}},{"type":"Feature","properties":{"municipio":"b7636240-c0f8-415a-9224-eaf028855fa0","title":"PB - SOLANEA","tipo":null,"url":"\/dashboard\/details-assets\/b7636240-c0f8-415a-9224-eaf028855fa0"},"geometry":{"type":"Point","coordinates":[-35.6595757,-6.758019]}},