[{"id":"dc003f20-878a-4943-a6e4-104ebe9b85fb","title":"TO - TOCANTINOPOLIS","tipo":"Cebraspe","url":"\/dashboard\/details-assets\/dc003f20-878a-4943-a6e4-104ebe9b85fb","coordinates":[-47.4274129286927,-6.32563437582104]},{"id":"79845290-17fd-443f-8dd8-db0588f621b8","title":"TO - PALMAS","tipo":"Cebraspe","url":"\/dashboard\/details-assets\/79845290-17fd-443f-8dd8-db0588f621b8","coordinates":[-48.4873224,-10.2596918]},{"id":"6ce30211-8dd6-4497-a8b8-99f928588be2","title":"TO - PORTO NACIONAL","tipo":"Cebraspe","url":"\/dashboard\/details-assets\/6ce30211-8dd6-4497-a8b8-99f928588be2","coordinates":[-48.1775561127387,-8.96444959213211]},{"id":"25728181-8aaa-4bf7-ab47-222fcaf17301","title":"TO - PARAISO DO TOCANTINS","tipo":"Cebraspe","url":"\/dashboard\/details-assets\/25728181-8aaa-4bf7-ab47-222fcaf17301","coordinates":[-48.3371931894532,-10.1768977594008]},{"id":"d59e1e7b-50df-48ea-a350-4cc322445e26","title":"TO - GURUPI","tipo":"Cebraspe","url":"\/dashboard\/details-assets\/d59e1e7b-50df-48ea-a350-4cc322445e26","coordinates":[-49.5268603629125,-11.8051419682711]},{"id":"03fdef6a-07d8-42a6-93e7-2561744589a8","title":"TO - MIRACEMA DO TOCANTINS","tipo":"Cebraspe","url":"\/dashboard\/details-assets\/03fdef6a-07d8-42a6-93e7-2561744589a8","coordinates":[-49.0714774689303,-11.7297723224839]},{"id":"0927f66d-a477-40f4-9158-3460e9d79aaa","title":"TO - DIANOPOLIS","tipo":"Cebraspe","url":"\/dashboard\/details-assets\/0927f66d-a477-40f4-9158-3460e9d79aaa","coordinates":[-48.4815945437489,-8.05462467523782]},{"id":"efb65446-d0ad-41e4-ade2-d4451dc9d571","title":"TO - GUARAI","tipo":"Cebraspe","url":"\/dashboard\/details-assets\/efb65446-d0ad-41e4-ade2-d4451dc9d571","coordinates":[-48.5441476004124,-5.36660805922856]},{"id":"54937e30-4df8-424f-9a42-fede8a4b3a97","title":"TO - ARRAIAS","tipo":"Cebraspe","url":"\/dashboard\/details-assets\/54937e30-4df8-424f-9a42-fede8a4b3a97","coordinates":[-48.1235073430294,-5.6505864728148]},{"id":"9cf3a0c3-1820-4136-b7f2-141320214060","title":"TO - COLINAS DO TOCANTINS","tipo":"Cebraspe","url":"\/dashboard\/details-assets\/9cf3a0c3-1820-4136-b7f2-141320214060","coordinates":[-47.8809567910047,-5.46541429571737]},{"id":"8fdfefc4-6ea8-4c22-afb4-41f4e585b95f","title":"TO - ARAGUATINS","tipo":"Cebraspe","url":"\/dashboard\/details-assets\/8fdfefc4-6ea8-4c22-afb4-41f4e585b95f","coordinates":[-48.2087052518558,-7.19132893942029]},{"id":"a86f5a77-961a-4d1f-ace2-e41055c7ff82","title":"TO - ARAGUAINA","tipo":"Cebraspe","url":"\/dashboard\/details-assets\/a86f5a77-961a-4d1f-ace2-e41055c7ff82","coordinates":[-48.2087052518558,-7.19132893942029]},{"id":"82cc8b30-85b3-4b70-b346-747cc0892378","title":"SP - VOTORANTIM","tipo":"Cebraspe","url":"\/dashboard\/details-assets\/82cc8b30-85b3-4b70-b346-747cc0892378","coordinates":[-47.4497380579827,-23.5418712053084]},{"id":"ad755638-ecce-4302-9ebb-0de7fd6f7ee3","title":"SP - VOTUPORANGA","tipo":"Cebraspe","url":"\/dashboard\/details-assets\/ad755638-ecce-4302-9ebb-0de7fd6f7ee3","coordinates":[-49.9746720152067,-20.4194699993825]},{"id":"752b0a21-d690-44e2-bb22-e73ff94abe2d","title":"SP - VARZEA PAULISTA","tipo":"Cebraspe","url":"\/dashboard\/details-assets\/752b0a21-d690-44e2-bb22-e73ff94abe2d","coordinates":[-46.8604024,-23.2149689]},{"id":"32e48ed2-ed55-496d-b5cd-fff738daffdb","title":"SP - VALINHOS","tipo":"Cebraspe","url":"\/dashboard\/details-assets\/32e48ed2-ed55-496d-b5cd-fff738daffdb","coordinates":[-46.9966300275552,-22.9712439993214]},{"id":"85a70cba-e067-40fc-bde9-569cca95a2a7","title":"SP - TUPA","tipo":"Cebraspe","url":"\/dashboard\/details-assets\/85a70cba-e067-40fc-bde9-569cca95a2a7","coordinates":[-50.514006421723,-21.9348215093456]},{"id":"8f4de6f3-4653-4270-b297-f63660fb515e","title":"SP - TAUBATE","tipo":"Cebraspe","url":"\/dashboard\/details-assets\/8f4de6f3-4653-4270-b297-f63660fb515e","coordinates":[-45.5566086966874,-23.0265554993202]},{"id":"dd757c79-bab3-42c1-b86f-25f7d8f611a7","title":"SP - SUZANO","tipo":"Cebraspe","url":"\/dashboard\/details-assets\/dd757c79-bab3-42c1-b86f-25f7d8f611a7","coordinates":[-46.3078104672882,-23.5368274993086]},{"id":"e79fbe60-02f8-4323-845e-0a1932807c2b","title":"SP - TATUI","tipo":"Cebraspe","url":"\/dashboard\/details-assets\/e79fbe60-02f8-4323-845e-0a1932807c2b","coordinates":[-47.8494640336609,-23.3485764993129]},{"id":"d1da8bdf-f7ba-492b-9df9-595ade153f98","title":"SP - TABOAO DA SERRA","tipo":"Cebraspe","url":"\/dashboard\/details-assets\/d1da8bdf-f7ba-492b-9df9-595ade153f98","coordinates":[-46.7857800342102,-23.6233284993067]},{"id":"71da3f59-66cb-4fdb-b456-b9a3566af1c2","title":"SP - SUMARE","tipo":"Cebraspe","url":"\/dashboard\/details-assets\/71da3f59-66cb-4fdb-b456-b9a3566af1c2","coordinates":[-47.2658027320901,-22.8221449993248]},{"id":"215c316f-aea7-4c9a-a23a-c524ea88b973","title":"SP - SOROCABA","tipo":"Cebraspe","url":"\/dashboard\/details-assets\/215c316f-aea7-4c9a-a23a-c524ea88b973","coordinates":[-47.4525944,-23.5015338]},{"id":"f8d0deab-af9e-43ee-815f-c94b954d27e7","title":"SP - SERTAOZINHO","tipo":"Cebraspe","url":"\/dashboard\/details-assets\/f8d0deab-af9e-43ee-815f-c94b954d27e7","coordinates":[-47.991148431,-21.1370215043648]},{"id":"4f036124-8da7-43cd-bd6f-7cf7af774909","title":"SP - SAO VICENTE","tipo":"Cebraspe","url":"\/dashboard\/details-assets\/4f036124-8da7-43cd-bd6f-7cf7af774909","coordinates":[-46.3844908173176,-23.967372999299]},{"id":"f6f6f3b2-2854-442d-89cd-02a5c257957b","title":"SP - SAO PAULO","tipo":"Cebraspe","url":"\/dashboard\/details-assets\/f6f6f3b2-2854-442d-89cd-02a5c257957b","coordinates":[-46.5703831821128,-23.567386499308]},{"id":"1fd5c2a8-829b-4628-bee6-ae1672f40ddc","title":"SP - SAO ROQUE","tipo":"Cebraspe","url":"\/dashboard\/details-assets\/1fd5c2a8-829b-4628-bee6-ae1672f40ddc","coordinates":[-47.1374002,-23.5298156]},{"id":"12ae2689-cceb-4e65-a97b-861202b4aaef","title":"SP - SAO JOSE DO RIO PRETO","tipo":"Cebraspe","url":"\/dashboard\/details-assets\/12ae2689-cceb-4e65-a97b-861202b4aaef","coordinates":[-49.4523962,-20.8166393]},{"id":"438696f1-db13-414f-8670-98f74a8cbf6e","title":"SP - SAO JOSE DOS CAMPOS","tipo":"Cebraspe","url":"\/dashboard\/details-assets\/438696f1-db13-414f-8670-98f74a8cbf6e","coordinates":[-45.899405,-23.23021]},{"id":"e72f8063-261b-4ced-a80b-a3bb10505dd4","title":"SP - SAO CARLOS","tipo":"Cebraspe","url":"\/dashboard\/details-assets\/e72f8063-261b-4ced-a80b-a3bb10505dd4","coordinates":[-53.017394273321,-27.0786350771308]},{"id":"7115ce84-1deb-476a-b4a0-fbb5ed364288","title":"SP - SAO JOAO DA BOA VISTA","tipo":"Cebraspe","url":"\/dashboard\/details-assets\/7115ce84-1deb-476a-b4a0-fbb5ed364288","coordinates":[-46.7963507817956,-21.9720109993447]},{"id":"b5c84215-65ee-4bad-b0af-c74b18c897ae","title":"SP - SAO CAETANO DO SUL","tipo":"Cebraspe","url":"\/dashboard\/details-assets\/b5c84215-65ee-4bad-b0af-c74b18c897ae","coordinates":[-46.5715146086306,-23.6147049993069]},{"id":"dd6d8753-2f37-4362-b31f-4556a38e4dfc","title":"SP - SAO BERNARDO DO CAMPO","tipo":"Cebraspe","url":"\/dashboard\/details-assets\/dd6d8753-2f37-4362-b31f-4556a38e4dfc","coordinates":[-46.5502572476783,-23.7103044993048]},{"id":"f5ae0f4b-f0f9-41ed-8c33-a7e42734a8a0","title":"SP - SANTO ANDRE","tipo":"Cebraspe","url":"\/dashboard\/details-assets\/f5ae0f4b-f0f9-41ed-8c33-a7e42734a8a0","coordinates":[-46.5308742576295,-23.6575099993059]},{"id":"0b9237e3-d362-4331-99aa-e7e48e0dd28f","title":"SP - SANTOS","tipo":"Cebraspe","url":"\/dashboard\/details-assets\/0b9237e3-d362-4331-99aa-e7e48e0dd28f","coordinates":[-46.3313708491907,-23.9337374992997]},{"id":"0629386f-79e4-4425-b746-c0ab4baf2339","title":"SP - SANTANA DE PARNAIBA","tipo":"Cebraspe","url":"\/dashboard\/details-assets\/0629386f-79e4-4425-b746-c0ab4baf2339","coordinates":[-46.9220925056497,-23.4494529993106]},{"id":"c0d17f86-aed0-4f7f-b376-4aef604c08fe","title":"SP - SALTO","tipo":"Cebraspe","url":"\/dashboard\/details-assets\/c0d17f86-aed0-4f7f-b376-4aef604c08fe","coordinates":[-47.2924156290787,-23.2040738051132]},{"id":"fdd9dd90-7dc6-4f0a-b72a-565f52112dbd","title":"SP - SANTA BARBARA D OESTE","tipo":"Cebraspe","url":"\/dashboard\/details-assets\/fdd9dd90-7dc6-4f0a-b72a-565f52112dbd","coordinates":[-47.416844,-22.755801]},{"id":"fb96e11a-e4af-4788-8cbd-3298349bfdf7","title":"SP - RIBEIRAO PRETO","tipo":"Cebraspe","url":"\/dashboard\/details-assets\/fb96e11a-e4af-4788-8cbd-3298349bfdf7","coordinates":[-47.8054759155415,-21.1848344993636]},{"id":"556d5c7e-1e13-4b01-a867-410e15910b12","title":"SP - RIO CLARO","tipo":"Cebraspe","url":"\/dashboard\/details-assets\/556d5c7e-1e13-4b01-a867-410e15910b12","coordinates":[-47.5635332384344,-22.4125114993344]},{"id":"82050d14-44f0-49c8-87e6-76b3785975e6","title":"SP - RIBEIRAO PIRES","tipo":"Cebraspe","url":"\/dashboard\/details-assets\/82050d14-44f0-49c8-87e6-76b3785975e6","coordinates":[-46.4153443749185,-23.7074229993048]},{"id":"7e362aee-f563-4924-aabe-a4135f086b9b","title":"SP - REGISTRO","tipo":"Cebraspe","url":"\/dashboard\/details-assets\/7e362aee-f563-4924-aabe-a4135f086b9b","coordinates":[-47.841054751675,-24.4942514272874]},{"id":"e99ab5a0-9ff3-464c-b01a-0aca11ab8dcc","title":"SP - PRESIDENTE PRUDENTE","tipo":"Cebraspe","url":"\/dashboard\/details-assets\/e99ab5a0-9ff3-464c-b01a-0aca11ab8dcc","coordinates":[-51.3867655819124,-22.1227434993411]},{"id":"82b9845e-f231-4e8f-92d9-23add7c72fa5","title":"SP - PRAIA GRANDE","tipo":"Cebraspe","url":"\/dashboard\/details-assets\/82b9845e-f231-4e8f-92d9-23add7c72fa5","coordinates":[-49.960591976336,-29.1957763628134]},{"id":"51260c9f-b245-4d5b-92ee-a7fc61e64957","title":"SP - POA","tipo":"Cebraspe","url":"\/dashboard\/details-assets\/51260c9f-b245-4d5b-92ee-a7fc61e64957","coordinates":[-46.3462203886587,-23.5286265669703]},{"id":"bea46ef7-3bc0-4373-b29c-9c7b5b5c56a9","title":"SP - PIRASSUNUNGA","tipo":"Cebraspe","url":"\/dashboard\/details-assets\/bea46ef7-3bc0-4373-b29c-9c7b5b5c56a9","coordinates":[-47.425173,-21.994049]},{"id":"d8934ad9-7c9a-49fb-bb00-fc57faad0f8e","title":"SP - PAULINIA","tipo":"Cebraspe","url":"\/dashboard\/details-assets\/d8934ad9-7c9a-49fb-bb00-fc57faad0f8e","coordinates":[-47.1543858009695,-22.7599216993262]},{"id":"6b364c1d-f065-463d-aef2-7a94b7d29fbc","title":"SP - PIRACICABA","tipo":"Cebraspe","url":"\/dashboard\/details-assets\/6b364c1d-f065-463d-aef2-7a94b7d29fbc","coordinates":[-47.6468462361582,-22.7237219993271]},{"id":"d15bbaf5-74f6-48ad-a779-7ff84986802f","title":"SP - PINDAMONHANGABA","tipo":"Cebraspe","url":"\/dashboard\/details-assets\/d15bbaf5-74f6-48ad-a779-7ff84986802f","coordinates":[-45.4620488462304,-22.9266687252213]},{"id":"50f30f92-aacf-4aab-956b-a1924f90c239","title":"SP - OURINHOS","tipo":"Cebraspe","url":"\/dashboard\/details-assets\/50f30f92-aacf-4aab-956b-a1924f90c239","coordinates":[-49.868579835937,-22.9772674993213]},{"id":"03f2c08a-1536-4c20-be3c-445d552bcf57","title":"SP - OSASCO","tipo":"Cebraspe","url":"\/dashboard\/details-assets\/03f2c08a-1536-4c20-be3c-445d552bcf57","coordinates":[-46.7888101442714,-23.5336119993087]},{"id":"9e62d0e4-d998-4260-8e83-8cc7218222e2","title":"SP - MOGI MIRIM","tipo":"Cebraspe","url":"\/dashboard\/details-assets\/9e62d0e4-d998-4260-8e83-8cc7218222e2","coordinates":[-46.956367,-22.432695]},{"id":"dd10122c-6e9e-4802-b07d-1eea15380a5e","title":"SP - MOGI DAS CRUZES","tipo":"Cebraspe","url":"\/dashboard\/details-assets\/dd10122c-6e9e-4802-b07d-1eea15380a5e","coordinates":[-46.1967600843266,-23.5227064993089]},{"id":"d07f8fa3-93e7-4fc6-b2ae-9d9d468ca1ce","title":"SP - MOGI GUACU","tipo":"Cebraspe","url":"\/dashboard\/details-assets\/d07f8fa3-93e7-4fc6-b2ae-9d9d468ca1ce","coordinates":[-46.9432954,-22.3680589]},{"id":"a8611aa3-5ff8-4e88-996e-9cc8bb717319","title":"SP - MAUA","tipo":"Cebraspe","url":"\/dashboard\/details-assets\/a8611aa3-5ff8-4e88-996e-9cc8bb717319","coordinates":[-46.4582620121647,-23.6693344993057]},{"id":"c3d33065-5c9f-4cdb-9c4a-b2cf32c24c60","title":"SP - MIRANTE DO PARANAPANEMA","tipo":"Cebraspe","url":"\/dashboard\/details-assets\/c3d33065-5c9f-4cdb-9c4a-b2cf32c24c60","coordinates":[-51.905794305935,-22.2905585938095]},{"id":"ea41ef53-3c40-453c-8529-18538c5f80f5","title":"SP - LORENA","tipo":"Cebraspe","url":"\/dashboard\/details-assets\/ea41ef53-3c40-453c-8529-18538c5f80f5","coordinates":[-45.115187,-22.737166]},{"id":"f61d82d8-34f2-41bf-99c8-90a698c9dccf","title":"SP - LIMEIRA","tipo":"Cebraspe","url":"\/dashboard\/details-assets\/f61d82d8-34f2-41bf-99c8-90a698c9dccf","coordinates":[-47.4019395233101,-22.5621939993309]},{"id":"86c86b4d-a3fb-4847-b226-6a8170487f48","title":"SP - MARILIA","tipo":"Cebraspe","url":"\/dashboard\/details-assets\/86c86b4d-a3fb-4847-b226-6a8170487f48","coordinates":[-49.9516456431033,-22.214932999339]},{"id":"ec9b8294-ecd6-42c4-80cf-383a66b9cff7","title":"SP - JUNDIAI","tipo":"Cebraspe","url":"\/dashboard\/details-assets\/ec9b8294-ecd6-42c4-80cf-383a66b9cff7","coordinates":[-46.8852739679967,-23.1876679993165]},{"id":"14a21ebd-0fc2-46ff-a05c-eb86548ece56","title":"SP - JAU","tipo":"Cebraspe","url":"\/dashboard\/details-assets\/14a21ebd-0fc2-46ff-a05c-eb86548ece56","coordinates":[-48.5581413878331,-22.2957909893371]},{"id":"5b51228d-2317-40e5-aa75-439e3dafef17","title":"SP - LEME","tipo":"Cebraspe","url":"\/dashboard\/details-assets\/5b51228d-2317-40e5-aa75-439e3dafef17","coordinates":[-47.3887079696148,-22.1854360043397]},{"id":"5ea9d592-287e-40ca-b12b-cd4fe0145499","title":"SP - JANDIRA","tipo":"Cebraspe","url":"\/dashboard\/details-assets\/5ea9d592-287e-40ca-b12b-cd4fe0145499","coordinates":[-46.9052211417411,-23.5299389993088]},{"id":"6eb061fc-2ca7-49c2-9191-480d3fbce7de","title":"SP - JACAREI","tipo":"Cebraspe","url":"\/dashboard\/details-assets\/6eb061fc-2ca7-49c2-9191-480d3fbce7de","coordinates":[-45.9695932044094,-23.3048804986276]},{"id":"8d3b8f82-4b37-487f-9621-01bf3a07144d","title":"SP - ITATIBA","tipo":"Cebraspe","url":"\/dashboard\/details-assets\/8d3b8f82-4b37-487f-9621-01bf3a07144d","coordinates":[-46.8375578529412,-23.0048529986413]},{"id":"140ecaa3-c21f-4443-89a9-537d861668a9","title":"SP - ITU","tipo":"Cebraspe","url":"\/dashboard\/details-assets\/140ecaa3-c21f-4443-89a9-537d861668a9","coordinates":[-47.299749835961,-23.2654424993147]},{"id":"6cadf49f-ffe4-42e9-aad3-fcbd97aabe42","title":"SP - ITAQUAQUECETUBA","tipo":"Cebraspe","url":"\/dashboard\/details-assets\/6cadf49f-ffe4-42e9-aad3-fcbd97aabe42","coordinates":[-46.3516031409654,-23.47689749931]},{"id":"ca631851-5d1e-4317-8117-7a47e90845a8","title":"SP - ITAPEVI","tipo":"Cebraspe","url":"\/dashboard\/details-assets\/ca631851-5d1e-4317-8117-7a47e90845a8","coordinates":[-46.933372863488,-23.5469339993084]},{"id":"a4cb808d-7a08-4876-94eb-f29e08adbc1b","title":"SP - ITAPEVA","tipo":"Cebraspe","url":"\/dashboard\/details-assets\/a4cb808d-7a08-4876-94eb-f29e08adbc1b","coordinates":[-48.8773891590654,-23.9834379985973]},{"id":"bd3bb3a3-0705-4b32-9c87-163099d74c91","title":"SP - ITAPETININGA","tipo":"Cebraspe","url":"\/dashboard\/details-assets\/bd3bb3a3-0705-4b32-9c87-163099d74c91","coordinates":[-48.0461428954547,-23.5878724993075]},{"id":"04c20fa5-ae7d-48f6-bb65-557616462aa9","title":"SP - ITANHAEM","tipo":"Cebraspe","url":"\/dashboard\/details-assets\/04c20fa5-ae7d-48f6-bb65-557616462aa9","coordinates":[-46.7909914828787,-24.1861206661269]},{"id":"b7dbf181-f0dd-43c9-8cd2-7cc3437ca868","title":"SP - ITAPECERICA DA SERRA","tipo":"Cebraspe","url":"\/dashboard\/details-assets\/b7dbf181-f0dd-43c9-8cd2-7cc3437ca868","coordinates":[-46.8505519668521,-23.7153569993047]},{"id":"0f6cd92c-f807-4ab8-9333-0aabf40ff92f","title":"SP - INDAIATUBA","tipo":"Cebraspe","url":"\/dashboard\/details-assets\/0f6cd92c-f807-4ab8-9333-0aabf40ff92f","coordinates":[-47.2123089402514,-23.0816459993189]},{"id":"244ebeb0-89c4-4458-850b-cebe5ed7ff99","title":"SP - HORTOLANDIA","tipo":"Cebraspe","url":"\/dashboard\/details-assets\/244ebeb0-89c4-4458-850b-cebe5ed7ff99","coordinates":[-47.2210966097575,-22.858394999324]},{"id":"cba0034e-bfda-44e6-ab2f-5a2527e311e2","title":"SP - GUARULHOS","tipo":"Cebraspe","url":"\/dashboard\/details-assets\/cba0034e-bfda-44e6-ab2f-5a2527e311e2","coordinates":[-46.5310840856611,-23.4685059993102]},{"id":"a3b2c853-9d12-4b15-a9c4-c056a37d3e32","title":"SP - GUARUJA","tipo":"Cebraspe","url":"\/dashboard\/details-assets\/a3b2c853-9d12-4b15-a9c4-c056a37d3e32","coordinates":[-46.2490342794416,-23.9951489992984]},{"id":"479088d1-8da9-4d19-b6c8-1a41329d9e0c","title":"SP - GUARATINGUETA","tipo":"Cebraspe","url":"\/dashboard\/details-assets\/479088d1-8da9-4d19-b6c8-1a41329d9e0c","coordinates":[-45.1916001284202,-22.8174250886567]},{"id":"b3d7d2e2-250b-43ee-8833-f306acbd27e5","title":"SP - FRANCO DA ROCHA","tipo":"Cebraspe","url":"\/dashboard\/details-assets\/b3d7d2e2-250b-43ee-8833-f306acbd27e5","coordinates":[-46.7278746685526,-23.3203024993135]},{"id":"ffaa96ac-fb2b-49c7-834d-ed22889b2e64","title":"SP - FRANCISCO MORATO","tipo":"Cebraspe","url":"\/dashboard\/details-assets\/ffaa96ac-fb2b-49c7-834d-ed22889b2e64","coordinates":[-46.7325267047052,-23.2758254993145]},{"id":"dab72bc4-6ddf-4f40-b6a9-973aa4b04ee9","title":"SP - FERRAZ DE VASCONCELOS","tipo":"Cebraspe","url":"\/dashboard\/details-assets\/dab72bc4-6ddf-4f40-b6a9-973aa4b04ee9","coordinates":[-46.3665526715742,-23.5415444993085]},{"id":"c4d36bed-2559-42c8-b765-b08693fea607","title":"SP - FRANCA","tipo":"Cebraspe","url":"\/dashboard\/details-assets\/c4d36bed-2559-42c8-b765-b08693fea607","coordinates":[-47.4023316256775,-20.5360969993796]},{"id":"ce0d49fe-6e7f-4cf3-965e-07db0b9789dd","title":"SP - EMBU DAS ARTES","tipo":"Cebraspe","url":"\/dashboard\/details-assets\/ce0d49fe-6e7f-4cf3-965e-07db0b9789dd","coordinates":[-46.8508599936736,-23.6473124993062]},{"id":"3dfc9c1c-f91b-4355-9b11-5d1589378e0b","title":"SP - DIADEMA","tipo":"Cebraspe","url":"\/dashboard\/details-assets\/3dfc9c1c-f91b-4355-9b11-5d1589378e0b","coordinates":[-46.623381393203,-23.6892949993052]},{"id":"dd858510-9c23-47d9-956b-29d401e0fbf4","title":"SP - CUBATAO","tipo":"Cebraspe","url":"\/dashboard\/details-assets\/dd858510-9c23-47d9-956b-29d401e0fbf4","coordinates":[-46.4244141,-23.8916151]},{"id":"cab55993-cb85-4505-b79a-7d29b3d808ae","title":"SP - COTIA","tipo":"Cebraspe","url":"\/dashboard\/details-assets\/cab55993-cb85-4505-b79a-7d29b3d808ae","coordinates":[-46.9318463278886,-23.6035139993072]},{"id":"f06be87a-bda1-4b32-b726-8b217ce4eb07","title":"SP - CATANDUVA","tipo":"Cebraspe","url":"\/dashboard\/details-assets\/f06be87a-bda1-4b32-b726-8b217ce4eb07","coordinates":[-48.9758709390428,-21.1395384993647]},{"id":"69260916-e591-4353-b07c-06822394c0fb","title":"SP - CARAPICUIBA","tipo":"Cebraspe","url":"\/dashboard\/details-assets\/69260916-e591-4353-b07c-06822394c0fb","coordinates":[-46.8414454319096,-23.5352494993087]},{"id":"4dbb949f-55b6-439e-976e-396ec08e5fdf","title":"SP - CARAGUATATUBA","tipo":"Cebraspe","url":"\/dashboard\/details-assets\/4dbb949f-55b6-439e-976e-396ec08e5fdf","coordinates":[-45.4108183822497,-23.6220064993066]},{"id":"af57a615-3789-420b-b484-c5dccc39e4fc","title":"SP - CAMPINAS","tipo":"Cebraspe","url":"\/dashboard\/details-assets\/af57a615-3789-420b-b484-c5dccc39e4fc","coordinates":[-47.0601562729732,-22.9073424993229]},{"id":"37dca418-4ccd-4ef7-a1dc-ca88755e9afe","title":"SP - CACAPAVA","tipo":"Cebraspe","url":"\/dashboard\/details-assets\/37dca418-4ccd-4ef7-a1dc-ca88755e9afe","coordinates":[-45.7077303650875,-23.1006637520274]},{"id":"e1dde6d8-a699-486f-a45b-e159d1eca9d2","title":"SP - CAIEIRAS","tipo":"Cebraspe","url":"\/dashboard\/details-assets\/e1dde6d8-a699-486f-a45b-e159d1eca9d2","coordinates":[-46.740833,-23.363889]},{"id":"b2fd0996-d59b-4d8e-abf4-1f55212fc684","title":"SP - CABREUVA","tipo":"Cebraspe","url":"\/dashboard\/details-assets\/b2fd0996-d59b-4d8e-abf4-1f55212fc684","coordinates":[-47.1367011,-23.3058194]},{"id":"9691af13-7afc-4693-89eb-13969925a8ae","title":"SP - BRAGANCA PAULISTA","tipo":"Cebraspe","url":"\/dashboard\/details-assets\/9691af13-7afc-4693-89eb-13969925a8ae","coordinates":[-46.5423333739798,-22.9568954993218]},{"id":"49cc3e92-2052-4998-b97f-c9c377bbaa2f","title":"SP - BIRIGUI","tipo":"Cebraspe","url":"\/dashboard\/details-assets\/49cc3e92-2052-4998-b97f-c9c377bbaa2f","coordinates":[-50.339328516987,-21.2923922876104]},{"id":"8dbca29c-268f-4002-98b3-f52ab1025042","title":"SP - BAURU","tipo":"Cebraspe","url":"\/dashboard\/details-assets\/8dbca29c-268f-4002-98b3-f52ab1025042","coordinates":[-49.0830008670904,-22.3251224993364]},{"id":"60168b86-797d-45c0-9e7e-147b2564ad56","title":"SP - BOTUCATU","tipo":"Cebraspe","url":"\/dashboard\/details-assets\/60168b86-797d-45c0-9e7e-147b2564ad56","coordinates":[-48.4412893843503,-22.8883814993234]},{"id":"105b9d62-cd89-402d-bf33-1f56715392bc","title":"SP - BARRETOS","tipo":"Cebraspe","url":"\/dashboard\/details-assets\/105b9d62-cd89-402d-bf33-1f56715392bc","coordinates":[-48.5673778394551,-20.558455514379]},{"id":"a1b6f44f-564b-47e5-b82b-f77eda434b21","title":"SP - BARUERI","tipo":"Cebraspe","url":"\/dashboard\/details-assets\/a1b6f44f-564b-47e5-b82b-f77eda434b21","coordinates":[-46.8746528865305,-23.5089019993093]},{"id":"436e0170-fe00-44f1-a98e-60751e200ff6","title":"SP - ASSIS","tipo":"Cebraspe","url":"\/dashboard\/details-assets\/436e0170-fe00-44f1-a98e-60751e200ff6","coordinates":[-50.41751004,-22.6628350193285]},{"id":"8e0f7c4e-1245-4b92-b5fb-0b6ee37da64f","title":"SP - ATIBAIA","tipo":"Cebraspe","url":"\/dashboard\/details-assets\/8e0f7c4e-1245-4b92-b5fb-0b6ee37da64f","coordinates":[-46.5938414,-23.1229739]},{"id":"e045b66d-a330-4b83-aea4-fbeb161d6a61","title":"SP - ARARAS","tipo":"Cebraspe","url":"\/dashboard\/details-assets\/e045b66d-a330-4b83-aea4-fbeb161d6a61","coordinates":[-47.3858295274694,-22.3570865189943]},{"id":"fdc7d7bc-c669-47ab-8211-738dfb40ae0a","title":"SP - ARACATUBA","tipo":"Cebraspe","url":"\/dashboard\/details-assets\/fdc7d7bc-c669-47ab-8211-738dfb40ae0a","coordinates":[-50.4392260727526,-21.2054759993631]},{"id":"8b61503f-d50c-44d8-86a2-4df14d635371","title":"SP - ARARAQUARA","tipo":"Cebraspe","url":"\/dashboard\/details-assets\/8b61503f-d50c-44d8-86a2-4df14d635371","coordinates":[-48.1744399375437,-21.790359499349]},{"id":"8205fc8b-688e-4f44-9848-ff2dcb83e1d1","title":"SP - ANDRADINA","tipo":"Cebraspe","url":"\/dashboard\/details-assets\/8205fc8b-688e-4f44-9848-ff2dcb83e1d1","coordinates":[-51.3788477947637,-20.9014635143705]},{"id":"e6242cc1-4cce-42d5-833a-d436aaf4501c","title":"SP - ADAMANTINA","tipo":"Cebraspe","url":"\/dashboard\/details-assets\/e6242cc1-4cce-42d5-833a-d436aaf4501c","coordinates":[-51.0733647495818,-21.6883114793515]},{"id":"da28ade1-37a2-45cd-a3f7-a799530824ca","title":"SP - AMERICANA","tipo":"Cebraspe","url":"\/dashboard\/details-assets\/da28ade1-37a2-45cd-a3f7-a799530824ca","coordinates":[-47.3303629263814,-22.7408834993267]},{"id":"16c141dd-4e19-4721-99a9-f73fb3820d5d","title":"SE - SIMAO DIAS","tipo":"Cebraspe","url":"\/dashboard\/details-assets\/16c141dd-4e19-4721-99a9-f73fb3820d5d","coordinates":[-37.809338,-10.7397921]},{"id":"3cb10751-3fd1-4d4e-abac-293a76d1c9be","title":"SE - SAO CRISTOVAO","tipo":"Cebraspe","url":"\/dashboard\/details-assets\/3cb10751-3fd1-4d4e-abac-293a76d1c9be","coordinates":[-37.2059339,-11.0122362]},{"id":"19fee53f-2cdc-4463-9fc6-89f65c0933b9","title":"SE - NOSSA SENHORA DA GLORIA","tipo":"Cebraspe","url":"\/dashboard\/details-assets\/19fee53f-2cdc-4463-9fc6-89f65c0933b9","coordinates":[-37.4199214592678,-10.2156868487762]},{"id":"f5043d69-8395-4dcf-be0f-1eecbdad741d","title":"SE - PROPRIA","tipo":"Cebraspe","url":"\/dashboard\/details-assets\/f5043d69-8395-4dcf-be0f-1eecbdad741d","coordinates":[-36.8420993590988,-10.2082073149841]},{"id":"ff93e1d0-8d08-4f4c-af2c-1f86f50942f6","title":"SE - NOSSA SENHORA DO SOCORRO","tipo":"Cebraspe","url":"\/dashboard\/details-assets\/ff93e1d0-8d08-4f4c-af2c-1f86f50942f6","coordinates":[-37.0504728834465,-10.0786160363819]},{"id":"e11a5fca-3195-4770-976c-3b402efd276f","title":"SE - LAGARTO","tipo":"Cebraspe","url":"\/dashboard\/details-assets\/e11a5fca-3195-4770-976c-3b402efd276f","coordinates":[-37.666353409722,-10.9153009695109]},{"id":"336830e9-55ca-406e-99b9-bdda478bbce5","title":"SE - ITABAIANA","tipo":"Cebraspe","url":"\/dashboard\/details-assets\/336830e9-55ca-406e-99b9-bdda478bbce5","coordinates":[-37.4268609403324,-10.6857160379744]},{"id":"61cabd90-6c0b-4bbe-b956-25550a4a8018","title":"SE - ARACAJU","tipo":"Cebraspe","url":"\/dashboard\/details-assets\/61cabd90-6c0b-4bbe-b956-25550a4a8018","coordinates":[-37.0482126395122,-10.9072157975324]},{"id":"a464740c-f0ae-41e1-9fc1-5454afac6e35","title":"SE - ESTANCIA","tipo":"Cebraspe","url":"\/dashboard\/details-assets\/a464740c-f0ae-41e1-9fc1-5454afac6e35","coordinates":[-37.4400108537292,-11.267948648941]},{"id":"9d14f72a-f170-4de5-bec2-4e386a3f396c","title":"SE - CANINDE DE SAO FRANCISCO","tipo":"Cebraspe","url":"\/dashboard\/details-assets\/9d14f72a-f170-4de5-bec2-4e386a3f396c","coordinates":[-37.822052,-9.64847]},{"id":"58ec1f64-ffac-4c72-9583-3de98b8b4ff1","title":"SC - TUBARAO","tipo":"Cebraspe","url":"\/dashboard\/details-assets\/58ec1f64-ffac-4c72-9583-3de98b8b4ff1","coordinates":[-49.0052680770245,-28.4800339470587]},{"id":"f7cdea5d-e9c1-4c56-b5f3-d10d9f118a3b","title":"SC - XANXERE","tipo":"Cebraspe","url":"\/dashboard\/details-assets\/f7cdea5d-e9c1-4c56-b5f3-d10d9f118a3b","coordinates":[-52.4046671389754,-26.8745844984772]},{"id":"2c31155e-5ba8-4fdc-8fd5-549a7403e2c9","title":"SC - TIMBO","tipo":"Cebraspe","url":"\/dashboard\/details-assets\/2c31155e-5ba8-4fdc-8fd5-549a7403e2c9","coordinates":[-49.2777122897971,-26.8229025742274]},{"id":"d5ce5b66-b7f5-491e-a2e2-598b84a95e90","title":"SC - SAO MIGUEL DO OESTE","tipo":"Cebraspe","url":"\/dashboard\/details-assets\/d5ce5b66-b7f5-491e-a2e2-598b84a95e90","coordinates":[-53.5188394061561,-26.7264271759021]},{"id":"19aecfc0-738a-4c74-8b99-0fa575c4f36d","title":"SC - TIJUCAS","tipo":"Cebraspe","url":"\/dashboard\/details-assets\/19aecfc0-738a-4c74-8b99-0fa575c4f36d","coordinates":[-48.632071,-27.239454]},{"id":"e0aa1825-0d73-401a-8a2e-e86e1584f866","title":"SC - SAO JOAQUIM","tipo":"Cebraspe","url":"\/dashboard\/details-assets\/e0aa1825-0d73-401a-8a2e-e86e1584f866","coordinates":[-49.9367417605442,-28.294712498424]},{"id":"d247be4f-55c9-49f1-b547-ef137caf577e","title":"SC - SAO LOURENCO DO OESTE","tipo":"Cebraspe","url":"\/dashboard\/details-assets\/d247be4f-55c9-49f1-b547-ef137caf577e","coordinates":[-52.8513336669502,-26.3551901637992]},{"id":"81f6ae28-b9db-47a5-9bbd-6315487c6d08","title":"SC - NAVEGANTES","tipo":"Cebraspe","url":"\/dashboard\/details-assets\/81f6ae28-b9db-47a5-9bbd-6315487c6d08","coordinates":[-48.6539840698242,-26.8899233142412]},{"id":"066da69d-b3b0-4d87-8f7a-cd48424f79f4","title":"SC - PALHOCA","tipo":"Cebraspe","url":"\/dashboard\/details-assets\/066da69d-b3b0-4d87-8f7a-cd48424f79f4","coordinates":[-48.6702879187121,-27.6470436829145]},{"id":"5305fc81-3a18-4ac8-88d0-33b50ba3ce9c","title":"SC - RIO DO SUL","tipo":"Cebraspe","url":"\/dashboard\/details-assets\/5305fc81-3a18-4ac8-88d0-33b50ba3ce9c","coordinates":[-49.6432375290983,-27.2179032246709]},{"id":"fca2542c-0bc4-46d4-a511-5edbb37d107e","title":"SC - LAGES","tipo":"Cebraspe","url":"\/dashboard\/details-assets\/fca2542c-0bc4-46d4-a511-5edbb37d107e","coordinates":[-50.3302224241895,-27.8172594623345]},{"id":"4143f4df-bdfa-4411-8ad1-d0f996114812","title":"SC - MAFRA","tipo":"Cebraspe","url":"\/dashboard\/details-assets\/4143f4df-bdfa-4411-8ad1-d0f996114812","coordinates":[-49.8010375282692,-26.1152284935074]},{"id":"c38711cd-5793-43b8-9d00-4e461aea1010","title":"SC - JOINVILLE","tipo":"Cebraspe","url":"\/dashboard\/details-assets\/c38711cd-5793-43b8-9d00-4e461aea1010","coordinates":[-48.8494091432379,-26.3045176479039]},{"id":"7ab13a41-bec7-4156-bf25-96634d06f0f8","title":"SC - JARAGUA DO SUL","tipo":"Cebraspe","url":"\/dashboard\/details-assets\/7ab13a41-bec7-4156-bf25-96634d06f0f8","coordinates":[-49.0762988228021,-26.4904843486596]},{"id":"334ccb81-25d4-42d4-9b59-240a83306da3","title":"SC - JOACABA","tipo":"Cebraspe","url":"\/dashboard\/details-assets\/334ccb81-25d4-42d4-9b59-240a83306da3","coordinates":[-51.5066897333377,-27.1739445284657]},{"id":"90dc42b8-f491-4529-8cae-88f7e937eb53","title":"SC - FLORIANOPOLIS","tipo":"Cebraspe","url":"\/dashboard\/details-assets\/90dc42b8-f491-4529-8cae-88f7e937eb53","coordinates":[-48.5476373781933,-27.5877955477749]},{"id":"e09ae24f-d0c6-40e4-8ad4-9a8f22d4f0db","title":"SC - ITAJAI","tipo":"Cebraspe","url":"\/dashboard\/details-assets\/e09ae24f-d0c6-40e4-8ad4-9a8f22d4f0db","coordinates":[-48.6570232083488,-26.9074262390374]},{"id":"3ccd4c0e-ca34-4682-9e1e-cc8f6f1a50d6","title":"SC - ITAPEMA","tipo":"Cebraspe","url":"\/dashboard\/details-assets\/3ccd4c0e-ca34-4682-9e1e-cc8f6f1a50d6","coordinates":[-48.6186218261719,-27.0936692861235]},{"id":"837e57f9-2514-4efc-ad60-0c3c47d3b479","title":"SC - CRICIUMA","tipo":"Cebraspe","url":"\/dashboard\/details-assets\/837e57f9-2514-4efc-ad60-0c3c47d3b479","coordinates":[-49.3659395588222,-28.6735722518798]},{"id":"0c6301f7-3b64-4223-a355-e0b12b63872e","title":"SC - CURITIBANOS","tipo":"Cebraspe","url":"\/dashboard\/details-assets\/0c6301f7-3b64-4223-a355-e0b12b63872e","coordinates":[-50.5826010352621,-27.2829825056971]},{"id":"23f75fdd-bccf-4307-8d49-1d06edba73d0","title":"SC - CANOINHAS","tipo":"Cebraspe","url":"\/dashboard\/details-assets\/23f75fdd-bccf-4307-8d49-1d06edba73d0","coordinates":[-50.3978487118933,-26.1788070135048]},{"id":"6e8bc7f9-123b-432d-8508-c996a2028eb0","title":"SC - CONCORDIA","tipo":"Cebraspe","url":"\/dashboard\/details-assets\/6e8bc7f9-123b-432d-8508-c996a2028eb0","coordinates":[-52.0239710697483,-27.2336587792856]},{"id":"198ca262-cf1b-4e0f-9cd8-6744e20e416d","title":"SC - CHAPECO","tipo":"Cebraspe","url":"\/dashboard\/details-assets\/198ca262-cf1b-4e0f-9cd8-6744e20e416d","coordinates":[-52.6170311134138,-27.1068370207674]},{"id":"b3f4411f-e300-4a3a-9740-7f674991797c","title":"SC - BRUSQUE","tipo":"Cebraspe","url":"\/dashboard\/details-assets\/b3f4411f-e300-4a3a-9740-7f674991797c","coordinates":[-48.911799,-27.098635]},{"id":"897ad6e1-2ae5-4faf-a9bd-e9c6576ceca6","title":"SC - CACADOR","tipo":"Cebraspe","url":"\/dashboard\/details-assets\/897ad6e1-2ae5-4faf-a9bd-e9c6576ceca6","coordinates":[-51.0190347589981,-26.7753476719588]},{"id":"4ec827b2-4f62-4371-adb6-1538583b03aa","title":"SC - BLUMENAU","tipo":"Cebraspe","url":"\/dashboard\/details-assets\/4ec827b2-4f62-4371-adb6-1538583b03aa","coordinates":[-49.0576308843612,-26.9161077045444]},{"id":"9b47dae0-929d-4e0d-bc88-f50bdd92aeb5","title":"SC - BIGUACU","tipo":"Cebraspe","url":"\/dashboard\/details-assets\/9b47dae0-929d-4e0d-bc88-f50bdd92aeb5","coordinates":[-48.6544889289506,-27.4943227426967]},{"id":"a314fa2d-97de-4e4a-ac95-9039c90a65d7","title":"SC - BALNEARIO CAMBORIU","tipo":"Cebraspe","url":"\/dashboard\/details-assets\/a314fa2d-97de-4e4a-ac95-9039c90a65d7","coordinates":[-48.6419677734375,-26.9783809242588]},{"id":"97fe4670-673e-4031-bea1-573a4241b0b2","title":"SC - ARARANGUA","tipo":"Cebraspe","url":"\/dashboard\/details-assets\/97fe4670-673e-4031-bea1-573a4241b0b2","coordinates":[-49.480966523633,-28.935752013401]},{"id":"bf910055-a258-4939-8435-4ec6abb66ef4","title":"RS - VERA CRUZ","tipo":"Cebraspe","url":"\/dashboard\/details-assets\/bf910055-a258-4939-8435-4ec6abb66ef4","coordinates":[-52.5026321411133,-29.7151904190258]},{"id":"2f83b802-0cc5-4921-8949-d5098d182d3b","title":"RS - VIAMAO","tipo":"Cebraspe","url":"\/dashboard\/details-assets\/2f83b802-0cc5-4921-8949-d5098d182d3b","coordinates":[-51.024820489573,-30.0818968401211]},{"id":"991fbefd-e602-4fbd-a614-26665b0fca82","title":"RS - VACARIA","tipo":"Cebraspe","url":"\/dashboard\/details-assets\/991fbefd-e602-4fbd-a614-26665b0fca82","coordinates":[-50.933889,-28.511944]},{"id":"8f0da851-b727-4e8b-b6b3-64b7c2e2300a","title":"RS - VENANCIO AIRES","tipo":"Cebraspe","url":"\/dashboard\/details-assets\/8f0da851-b727-4e8b-b6b3-64b7c2e2300a","coordinates":[-52.1918802404895,-29.6116528918445]},{"id":"72461faa-c97f-43d3-ae9b-290988fa3808","title":"RS - URUGUAIANA","tipo":"Cebraspe","url":"\/dashboard\/details-assets\/72461faa-c97f-43d3-ae9b-290988fa3808","coordinates":[-57.0818249090229,-29.7598231712009]},{"id":"9e3b4c81-7047-4041-9b10-d7b0a8747c99","title":"RS - TORRES","tipo":"Cebraspe","url":"\/dashboard\/details-assets\/9e3b4c81-7047-4041-9b10-d7b0a8747c99","coordinates":[-49.7304044945034,-29.3359306135292]},{"id":"8fc6535e-8544-475a-9dfe-a739215d5399","title":"RS - TRAMANDAI","tipo":"Cebraspe","url":"\/dashboard\/details-assets\/8fc6535e-8544-475a-9dfe-a739215d5399","coordinates":[-50.1303765006803,-29.9873019463652]},{"id":"4320b5ed-7dd6-4d9f-a00e-4d280f8154a7","title":"RS - TAQUARA","tipo":"Cebraspe","url":"\/dashboard\/details-assets\/4320b5ed-7dd6-4d9f-a00e-4d280f8154a7","coordinates":[-50.7811686192558,-29.6505131034641]},{"id":"e9feb516-3321-423a-b821-173a9b2d40fb","title":"RS - SOLEDADE","tipo":"Cebraspe","url":"\/dashboard\/details-assets\/e9feb516-3321-423a-b821-173a9b2d40fb","coordinates":[-52.5098661711662,-28.8277379528717]},{"id":"06157438-974b-43f1-9fd0-3f7a080573b8","title":"RS - SAPUCAIA DO SUL","tipo":"Cebraspe","url":"\/dashboard\/details-assets\/06157438-974b-43f1-9fd0-3f7a080573b8","coordinates":[-51.1518747155205,-29.8248680317708]},{"id":"2092b717-664d-41ed-8e69-96bb69289780","title":"RS - SAPIRANGA","tipo":"Cebraspe","url":"\/dashboard\/details-assets\/2092b717-664d-41ed-8e69-96bb69289780","coordinates":[-51.0036229878238,-29.638554116803]},{"id":"b569f096-39da-4cfb-a945-600babfb5b86","title":"RS - SAO LOURENCO DO SUL","tipo":"Cebraspe","url":"\/dashboard\/details-assets\/b569f096-39da-4cfb-a945-600babfb5b86","coordinates":[-51.9769152357623,-31.3640237203121]},{"id":"ba997860-6547-4c80-bbfb-578417e3f405","title":"RS - SAO LUIZ GONZAGA","tipo":"Cebraspe","url":"\/dashboard\/details-assets\/ba997860-6547-4c80-bbfb-578417e3f405","coordinates":[-54.9596595493639,-28.4066469522193]},{"id":"3ef449fa-d5bc-4cac-803b-2a67c2097005","title":"RS - SAO LEOPOLDO","tipo":"Cebraspe","url":"\/dashboard\/details-assets\/3ef449fa-d5bc-4cac-803b-2a67c2097005","coordinates":[-51.1462345615722,-29.7658665415714]},{"id":"e13f4389-d82e-49d2-b0d1-4f4d902dd0c5","title":"RS - SAO JOSE DO NORTE","tipo":"Cebraspe","url":"\/dashboard\/details-assets\/e13f4389-d82e-49d2-b0d1-4f4d902dd0c5","coordinates":[-52.0342022719838,-32.0206091118894]},{"id":"2871b6e1-4557-4605-bb89-2c433e149612","title":"RS - SAO JERONIMO","tipo":"Cebraspe","url":"\/dashboard\/details-assets\/2871b6e1-4557-4605-bb89-2c433e149612","coordinates":[-51.7281775032404,-29.9594386639881]},{"id":"71c852b4-0cd0-4737-b33f-11e2128a9f30","title":"RS - SAO BORJA","tipo":"Cebraspe","url":"\/dashboard\/details-assets\/71c852b4-0cd0-4737-b33f-11e2128a9f30","coordinates":[-56.0010291536185,-28.6628375259]},{"id":"a9e716c7-86f3-420b-8f73-381de2e88ac6","title":"RS - SAO GABRIEL","tipo":"Cebraspe","url":"\/dashboard\/details-assets\/a9e716c7-86f3-420b-8f73-381de2e88ac6","coordinates":[-54.3204778581076,-30.3367600540284]},{"id":"1c5dc5c5-d3ca-4cd3-97ce-a8c09756274e","title":"RS - SANTO ANGELO","tipo":"Cebraspe","url":"\/dashboard\/details-assets\/1c5dc5c5-d3ca-4cd3-97ce-a8c09756274e","coordinates":[-54.2641427984269,-28.3019378725592]},{"id":"61ae98ac-957d-47f3-8eb8-86b7215d29f7","title":"RS - SANTA VITORIA DO PALMAR","tipo":"Cebraspe","url":"\/dashboard\/details-assets\/61ae98ac-957d-47f3-8eb8-86b7215d29f7","coordinates":[-54.4782240987609,-27.8667497981428]},{"id":"8e0b3d0a-05cb-40ba-8e7c-c8314d269230","title":"RS - SANTIAGO","tipo":"Cebraspe","url":"\/dashboard\/details-assets\/8e0b3d0a-05cb-40ba-8e7c-c8314d269230","coordinates":[-54.8690758537886,-29.1914601700905]},{"id":"8b3fa807-62b1-4cda-bd64-ad24e84c2245","title":"RS - SANT ANA DO LIVRAMENTO","tipo":"Cebraspe","url":"\/dashboard\/details-assets\/8b3fa807-62b1-4cda-bd64-ad24e84c2245","coordinates":[-53.3670063807333,-33.5198600298257]},{"id":"8420750d-236b-4c48-b0ac-d3d212981583","title":"RS - SANTA ROSA","tipo":"Cebraspe","url":"\/dashboard\/details-assets\/8420750d-236b-4c48-b0ac-d3d212981583","coordinates":[-53.8086753946629,-29.6855818027334]},{"id":"9be7259b-cc3e-4d89-8712-5306f80ac214","title":"RS - SANTA CRUZ DO SUL","tipo":"Cebraspe","url":"\/dashboard\/details-assets\/9be7259b-cc3e-4d89-8712-5306f80ac214","coordinates":[-55.5348142679597,-30.8893840103812]},{"id":"dbaaf404-6343-4a5c-8c33-0647cafe1ed7","title":"RS - SANTA MARIA","tipo":"Cebraspe","url":"\/dashboard\/details-assets\/dbaaf404-6343-4a5c-8c33-0647cafe1ed7","coordinates":[-53.809876,-29.690439]},{"id":"984f43cc-1afd-4ce2-b330-52dc2ffd66dd","title":"RS - RIO PARDO","tipo":"Cebraspe","url":"\/dashboard\/details-assets\/984f43cc-1afd-4ce2-b330-52dc2ffd66dd","coordinates":[-52.7104298,-30.0788944]},{"id":"1ddf2781-f348-47cc-8e72-4d022b74df76","title":"RS - PORTO ALEGRE","tipo":"Cebraspe","url":"\/dashboard\/details-assets\/1ddf2781-f348-47cc-8e72-4d022b74df76","coordinates":[-51.2286604637023,-30.0300367739484]},{"id":"e6345d01-ff70-4a05-901a-74805121eff1","title":"RS - RIO GRANDE","tipo":"Cebraspe","url":"\/dashboard\/details-assets\/e6345d01-ff70-4a05-901a-74805121eff1","coordinates":[-52.0867696991135,-32.0504457918034]},{"id":"9e4bd039-6e7b-41bd-b93c-e32b756c49e5","title":"RS - PORTAO","tipo":"Cebraspe","url":"\/dashboard\/details-assets\/9e4bd039-6e7b-41bd-b93c-e32b756c49e5","coordinates":[-51.2434055,-29.7020325]},{"id":"fed4dbcc-5e63-4d4d-a1c9-3eac8a1f10b7","title":"RS - PIRATINI","tipo":"Cebraspe","url":"\/dashboard\/details-assets\/fed4dbcc-5e63-4d4d-a1c9-3eac8a1f10b7","coordinates":[-53.1047344539721,-31.4441124725134]},{"id":"ce7bb744-b93e-4303-809a-cad2863cdfc4","title":"RS - PINHEIRO MACHADO","tipo":"Cebraspe","url":"\/dashboard\/details-assets\/ce7bb744-b93e-4303-809a-cad2863cdfc4","coordinates":[-53.3806553,-31.575874]},{"id":"454700d1-2531-40cd-88c4-768a25885d88","title":"RS - PASSO FUNDO","tipo":"Cebraspe","url":"\/dashboard\/details-assets\/454700d1-2531-40cd-88c4-768a25885d88","coordinates":[-52.4070950926172,-28.2617671271174]},{"id":"dd9e0532-5501-4053-830a-29e6393961ae","title":"RS - PELOTAS","tipo":"Cebraspe","url":"\/dashboard\/details-assets\/dd9e0532-5501-4053-830a-29e6393961ae","coordinates":[-52.3443200629915,-31.7195978799848]},{"id":"da0017ec-2032-409e-9f5a-df7f8dd6ecad","title":"RS - PALMEIRA DAS MISSOES","tipo":"Cebraspe","url":"\/dashboard\/details-assets\/da0017ec-2032-409e-9f5a-df7f8dd6ecad","coordinates":[-53.3149539105514,-27.900620874651]},{"id":"832f9277-d3e1-4a83-8cb4-7921c6fe5673","title":"RS - PANAMBI","tipo":"Cebraspe","url":"\/dashboard\/details-assets\/832f9277-d3e1-4a83-8cb4-7921c6fe5673","coordinates":[-53.5002651674452,-28.2927305361369]},{"id":"560c262d-cdb2-4714-9d22-6f137d561a09","title":"RS - PAROBE","tipo":"Cebraspe","url":"\/dashboard\/details-assets\/560c262d-cdb2-4714-9d22-6f137d561a09","coordinates":[-50.8348659023274,-29.6317492768207]},{"id":"e1346699-b45d-4f07-95ce-84b68164f551","title":"RS - OSORIO","tipo":"Cebraspe","url":"\/dashboard\/details-assets\/e1346699-b45d-4f07-95ce-84b68164f551","coordinates":[-50.2667978126156,-29.8926970767016]},{"id":"7fc5bad4-7c17-4cd0-ac96-b2fe6370a3bc","title":"RS - NOVO HAMBURGO","tipo":"Cebraspe","url":"\/dashboard\/details-assets\/7fc5bad4-7c17-4cd0-ac96-b2fe6370a3bc","coordinates":[-51.1286052776318,-29.6863260243649]},{"id":"e3b87fce-6640-4cfa-9856-fdd0582cc2e0","title":"RS - NOVA SANTA RITA","tipo":"Cebraspe","url":"\/dashboard\/details-assets\/e3b87fce-6640-4cfa-9856-fdd0582cc2e0","coordinates":[-51.3459299,-29.847014]},{"id":"e62e63e3-604d-4741-a2b3-93a88c6210fe","title":"RS - NOVA PRATA","tipo":"Cebraspe","url":"\/dashboard\/details-assets\/e62e63e3-604d-4741-a2b3-93a88c6210fe","coordinates":[-51.6089956920177,-28.7839447123934]},{"id":"281a3d44-78bf-4065-ad30-445cbf39424a","title":"RS - MARAU","tipo":"Cebraspe","url":"\/dashboard\/details-assets\/281a3d44-78bf-4065-ad30-445cbf39424a","coordinates":[-52.1967769340001,-28.4484539264856]},{"id":"8815eb89-89b4-4099-b798-bf1eff52cc8a","title":"RS - MONTENEGRO","tipo":"Cebraspe","url":"\/dashboard\/details-assets\/8815eb89-89b4-4099-b798-bf1eff52cc8a","coordinates":[-51.4612993756819,-29.6881186090514]},{"id":"c85cd5f9-ca11-427c-a0fa-12d31b95afb1","title":"RS - LAJEADO","tipo":"Cebraspe","url":"\/dashboard\/details-assets\/c85cd5f9-ca11-427c-a0fa-12d31b95afb1","coordinates":[-51.9678277005001,-29.4654544016624]},{"id":"04e4ac90-3674-4ec4-a374-3d8ea42c9b95","title":"RS - JAGUARAO","tipo":"Cebraspe","url":"\/dashboard\/details-assets\/04e4ac90-3674-4ec4-a374-3d8ea42c9b95","coordinates":[-53.3775229153129,-32.5635686676586]},{"id":"a72027e9-b696-42a9-8122-cbd207fc4869","title":"RS - ITAQUI","tipo":"Cebraspe","url":"\/dashboard\/details-assets\/a72027e9-b696-42a9-8122-cbd207fc4869","coordinates":[-56.5571334970304,-29.128636898258]},{"id":"5e8889c8-9884-4dda-89ff-38577e9ff548","title":"RS - IMBE","tipo":"Cebraspe","url":"\/dashboard\/details-assets\/5e8889c8-9884-4dda-89ff-38577e9ff548","coordinates":[-50.1305799407181,-29.9747778198529]},{"id":"1d17ece2-5a1b-4d50-8856-511c08453d36","title":"RS - IJUI","tipo":"Cebraspe","url":"\/dashboard\/details-assets\/1d17ece2-5a1b-4d50-8856-511c08453d36","coordinates":[-53.918066835708,-28.3885365401951]},{"id":"95892e78-0700-4126-a8a8-8722c53dde32","title":"RS - IGREJINHA","tipo":"Cebraspe","url":"\/dashboard\/details-assets\/95892e78-0700-4126-a8a8-8722c53dde32","coordinates":[-50.7987107333217,-29.5722204549449]},{"id":"2e1e48fe-df7d-43fc-858f-5c92f5d4cac5","title":"RS - GUAIBA","tipo":"Cebraspe","url":"\/dashboard\/details-assets\/2e1e48fe-df7d-43fc-858f-5c92f5d4cac5","coordinates":[-51.3146836637248,-30.1086019215542]},{"id":"b93be51d-3a12-49d8-85fb-49b7e7b536bf","title":"RS - GRAVATAI","tipo":"Cebraspe","url":"\/dashboard\/details-assets\/b93be51d-3a12-49d8-85fb-49b7e7b536bf","coordinates":[-50.9907929747741,-29.9455189125196]},{"id":"04a97b79-1634-4fec-8512-6d4aef88a40a","title":"RS - FARROUPILHA","tipo":"Cebraspe","url":"\/dashboard\/details-assets\/04a97b79-1634-4fec-8512-6d4aef88a40a","coordinates":[-51.3483495737698,-29.2236791860307]},{"id":"fc31d0a7-6f7a-4611-8abc-d70205533ae3","title":"RS - GRAMADO","tipo":"Cebraspe","url":"\/dashboard\/details-assets\/fc31d0a7-6f7a-4611-8abc-d70205533ae3","coordinates":[-50.9365088,-29.3795583]},{"id":"cd3ca5e9-f1e6-4439-908e-8beee273d11a","title":"RS - ESTEIO","tipo":"Cebraspe","url":"\/dashboard\/details-assets\/cd3ca5e9-f1e6-4439-908e-8beee273d11a","coordinates":[-51.143837339432,-29.8521862946429]},{"id":"039bb900-fced-4928-81d6-85d49ef4404b","title":"RS - ESTRELA","tipo":"Cebraspe","url":"\/dashboard\/details-assets\/039bb900-fced-4928-81d6-85d49ef4404b","coordinates":[-51.9702602941755,-29.5034718760129]},{"id":"15dd74a1-fc44-4eaa-a916-c8bfa1e38e59","title":"RS - ERECHIM","tipo":"Cebraspe","url":"\/dashboard\/details-assets\/15dd74a1-fc44-4eaa-a916-c8bfa1e38e59","coordinates":[-52.2758768978871,-27.6334058100252]},{"id":"edbebc27-68f2-48c4-b828-f90f0debdf24","title":"RS - ELDORADO DO SUL","tipo":"Cebraspe","url":"\/dashboard\/details-assets\/edbebc27-68f2-48c4-b828-f90f0debdf24","coordinates":[-51.310418926013,-29.9992925937693]},{"id":"800ba37b-5a42-4212-bc8b-944abf017b39","title":"RS - ENCRUZILHADA DO SUL","tipo":"Cebraspe","url":"\/dashboard\/details-assets\/800ba37b-5a42-4212-bc8b-944abf017b39","coordinates":[-52.5220453898558,-30.5436573239429]},{"id":"949ef487-ea5f-4f1f-85e1-99c23482571c","title":"RS - DOM PEDRITO","tipo":"Cebraspe","url":"\/dashboard\/details-assets\/949ef487-ea5f-4f1f-85e1-99c23482571c","coordinates":[-54.6741301838237,-30.9812670559179]},{"id":"f810f670-375f-421d-b8b8-abd659ed7aa3","title":"RS - CRUZ ALTA","tipo":"Cebraspe","url":"\/dashboard\/details-assets\/f810f670-375f-421d-b8b8-abd659ed7aa3","coordinates":[-53.6052407621196,-28.6424466076948]},{"id":"bcd2cba4-73c5-44f5-98d4-5b9d299c9455","title":"RS - DOIS IRMAOS","tipo":"Cebraspe","url":"\/dashboard\/details-assets\/bcd2cba4-73c5-44f5-98d4-5b9d299c9455","coordinates":[-51.0876193130209,-29.5841587780941]},{"id":"05613e83-1e5e-4012-90a5-7956b19587c3","title":"RS - CAXIAS DO SUL","tipo":"Cebraspe","url":"\/dashboard\/details-assets\/05613e83-1e5e-4012-90a5-7956b19587c3","coordinates":[-51.178860205883,-29.1668990102587]},{"id":"f29b89a3-20d9-4a0f-81e4-e74cb2d9ecaa","title":"RS - CHARQUEADAS","tipo":"Cebraspe","url":"\/dashboard\/details-assets\/f29b89a3-20d9-4a0f-81e4-e74cb2d9ecaa","coordinates":[-51.6250060521847,-29.9568003622277]},{"id":"6e3271b2-cd3a-4a29-9c7c-04ff10722bf0","title":"RS - CARAZINHO","tipo":"Cebraspe","url":"\/dashboard\/details-assets\/6e3271b2-cd3a-4a29-9c7c-04ff10722bf0","coordinates":[-52.7918973881038,-28.286510590107]},{"id":"5ea4ed9f-89b9-4d9f-9261-5233780c5559","title":"RS - CAPAO DO LEAO","tipo":"Cebraspe","url":"\/dashboard\/details-assets\/5ea4ed9f-89b9-4d9f-9261-5233780c5559","coordinates":[-52.4870075720627,-31.7668386558036]},{"id":"3fce0869-a29e-4131-97fb-ef2b9ef44ed9","title":"RS - CAPAO DA CANOA","tipo":"Cebraspe","url":"\/dashboard\/details-assets\/3fce0869-a29e-4131-97fb-ef2b9ef44ed9","coordinates":[-50.0200224442732,-29.7614666393062]},{"id":"aa9d9a3c-ef59-406e-917d-8ef53349bb7a","title":"RS - CANOAS","tipo":"Cebraspe","url":"\/dashboard\/details-assets\/aa9d9a3c-ef59-406e-917d-8ef53349bb7a","coordinates":[-51.1810297806876,-29.9186967056744]},{"id":"e41c7a0a-40d0-45b5-8b43-e801b49833bb","title":"RS - CANGUCU","tipo":"Cebraspe","url":"\/dashboard\/details-assets\/e41c7a0a-40d0-45b5-8b43-e801b49833bb","coordinates":[-52.6762858320724,-31.3938595234769]},{"id":"f0dc493c-2520-43ed-84ee-29571101ded3","title":"RS - CANDIOTA","tipo":"Cebraspe","url":"\/dashboard\/details-assets\/f0dc493c-2520-43ed-84ee-29571101ded3","coordinates":[-54.0243624,-31.586056]},{"id":"e23b7286-3c3f-4953-b0b7-bc0bcad9194b","title":"RS - CANELA","tipo":"Cebraspe","url":"\/dashboard\/details-assets\/e23b7286-3c3f-4953-b0b7-bc0bcad9194b","coordinates":[-50.814867,-29.357972]},{"id":"47bcacf2-9c73-4ce0-abf0-af055fbc10e6","title":"RS - CAMPO BOM","tipo":"Cebraspe","url":"\/dashboard\/details-assets\/47bcacf2-9c73-4ce0-abf0-af055fbc10e6","coordinates":[-51.0588699242785,-29.6756850963106]},{"id":"d59dc615-a5de-45d6-8db4-f360f0503bd8","title":"RS - CAMAQUA","tipo":"Cebraspe","url":"\/dashboard\/details-assets\/d59dc615-a5de-45d6-8db4-f360f0503bd8","coordinates":[-51.8146009062211,-30.8507043884247]},{"id":"25bc59c9-78b3-4512-867a-60895db163a3","title":"RS - CACHOEIRINHA","tipo":"Cebraspe","url":"\/dashboard\/details-assets\/25bc59c9-78b3-4512-867a-60895db163a3","coordinates":[-51.1021166,-29.9477228]},{"id":"5792aec4-4b9f-4668-bb9c-91b771436376","title":"RS - CACHOEIRA DO SUL","tipo":"Cebraspe","url":"\/dashboard\/details-assets\/5792aec4-4b9f-4668-bb9c-91b771436376","coordinates":[-52.893412558482,-30.0458199789091]},{"id":"c09168ad-cd2f-44f0-9ab6-9c733e243894","title":"RS - CACAPAVA DO SUL","tipo":"Cebraspe","url":"\/dashboard\/details-assets\/c09168ad-cd2f-44f0-9ab6-9c733e243894","coordinates":[-53.4875689200414,-30.5147432332542]},{"id":"5996ea1f-0864-4132-9206-39fedacbbf44","title":"RS - BENTO GONCALVES","tipo":"Cebraspe","url":"\/dashboard\/details-assets\/5996ea1f-0864-4132-9206-39fedacbbf44","coordinates":[-51.5155603063239,-29.1674019323878]},{"id":"fbb2b320-514e-4dfe-ac23-411452ec99a6","title":"RS - BAGE","tipo":"Cebraspe","url":"\/dashboard\/details-assets\/fbb2b320-514e-4dfe-ac23-411452ec99a6","coordinates":[-54.10708328517,-31.3305018407089]},{"id":"6bd10fd7-3fac-426a-b414-1a353a50af6f","title":"RS - ALEGRETE","tipo":"Cebraspe","url":"\/dashboard\/details-assets\/6bd10fd7-3fac-426a-b414-1a353a50af6f","coordinates":[-55.7958701453331,-29.7820432083105]},{"id":"20bbb9b5-5ddf-42cb-87db-d4ea60cdad72","title":"RS - ALVORADA","tipo":"Cebraspe","url":"\/dashboard\/details-assets\/20bbb9b5-5ddf-42cb-87db-d4ea60cdad72","coordinates":[-51.0777294542001,-29.9974930639248]},{"id":"6d268f9f-336d-4849-a67f-c096d51d4814","title":"RR - UIRAMUTA","tipo":"Cebraspe","url":"\/dashboard\/details-assets\/6d268f9f-336d-4849-a67f-c096d51d4814","coordinates":[-60.167778,4.595833]},{"id":"81dda4b6-cc8f-46a3-a8c6-1ce5316f6e1f","title":"RR - RORAINOPOLIS","tipo":"Cebraspe","url":"\/dashboard\/details-assets\/81dda4b6-cc8f-46a3-a8c6-1ce5316f6e1f","coordinates":[-60.417778,0.945833]},{"id":"125be633-9db3-43dc-b4a2-c4d579e4d47a","title":"RR - BOA VISTA","tipo":"Cebraspe","url":"\/dashboard\/details-assets\/125be633-9db3-43dc-b4a2-c4d579e4d47a","coordinates":[-60.6705326729651,2.81668191901165]},{"id":"7cdb118d-cc86-4ed9-82b9-a450222c4f98","title":"RO - SAO FRANCISCO DO GUAPORE","tipo":"Cebraspe","url":"\/dashboard\/details-assets\/7cdb118d-cc86-4ed9-82b9-a450222c4f98","coordinates":[-63.5708647107649,-12.0637984118473]},{"id":"64221a15-9fc6-4d3f-8489-d40eb024bdf4","title":"RO - ROLIM DE MOURA","tipo":"Cebraspe","url":"\/dashboard\/details-assets\/64221a15-9fc6-4d3f-8489-d40eb024bdf4","coordinates":[-61.7857809351854,-11.7222589130049]},{"id":"29206b2d-6693-402d-a9cc-fe28fd4069db","title":"RO - VILHENA","tipo":"Cebraspe","url":"\/dashboard\/details-assets\/29206b2d-6693-402d-a9cc-fe28fd4069db","coordinates":[-60.1385838660987,-12.7413734713965]},{"id":"bfcbc644-c4d6-4466-b7f8-f73b1923694d","title":"RO - PORTO VELHO","tipo":"Cebraspe","url":"\/dashboard\/details-assets\/bfcbc644-c4d6-4466-b7f8-f73b1923694d","coordinates":[-63.8314456543611,-8.76889178971532]},{"id":"3df4a95b-2613-4246-8c1a-ebd283416043","title":"RO - JI-PARANA","tipo":"Cebraspe","url":"\/dashboard\/details-assets\/3df4a95b-2613-4246-8c1a-ebd283416043","coordinates":[-61.9450945826841,-10.8820513179987]},{"id":"d4096ff3-e0db-4486-968e-f76b9fbec1f4","title":"RO - MACHADINHO D OESTE","tipo":"Cebraspe","url":"\/dashboard\/details-assets\/d4096ff3-e0db-4486-968e-f76b9fbec1f4","coordinates":[-61.9995925724466,-9.42556247969476]},{"id":"80628db4-d793-4c73-9c9c-dee064c406a4","title":"RO - OURO PRETO DO OESTE","tipo":"Cebraspe","url":"\/dashboard\/details-assets\/80628db4-d793-4c73-9c9c-dee064c406a4","coordinates":[-62.2610551904363,-10.7235739004681]},{"id":"187c63af-b1c0-4f5f-a28b-74a1a54cc4aa","title":"RO - ESPIGAO D OESTE","tipo":"Cebraspe","url":"\/dashboard\/details-assets\/187c63af-b1c0-4f5f-a28b-74a1a54cc4aa","coordinates":[-61.0201731132847,-11.5285546329773]},{"id":"8b356718-63c2-496b-ade0-7d82afd1548d","title":"RO - GUAJARA-MIRIM","tipo":"Cebraspe","url":"\/dashboard\/details-assets\/8b356718-63c2-496b-ade0-7d82afd1548d","coordinates":[-65.3239518196923,-10.7738837403235]},{"id":"c24f96ed-fe26-4555-8e82-0172be0463c8","title":"RO - CEREJEIRAS","tipo":"Cebraspe","url":"\/dashboard\/details-assets\/c24f96ed-fe26-4555-8e82-0172be0463c8","coordinates":[-60.8184261646815,-13.19503303162]},{"id":"3244e7e1-877a-4b56-9f15-be1c1e305b11","title":"RO - CACOAL","tipo":"Cebraspe","url":"\/dashboard\/details-assets\/3244e7e1-877a-4b56-9f15-be1c1e305b11","coordinates":[-61.4429442118224,-11.433865028318]},{"id":"41a652b9-ac50-45ca-b3ce-3136ee76adb9","title":"RN - PAU DOS FERROS","tipo":"Cebraspe","url":"\/dashboard\/details-assets\/41a652b9-ac50-45ca-b3ce-3136ee76adb9","coordinates":[-38.2032615200836,-6.11473183845001]},{"id":"59f0a69c-0129-426f-9da7-df33571adb54","title":"RN - NATAL","tipo":"Cebraspe","url":"\/dashboard\/details-assets\/59f0a69c-0129-426f-9da7-df33571adb54","coordinates":[-35.2158627880859,-5.79872025536009]},{"id":"2e11ef45-f840-4733-a5fb-6eb5bcb140e3","title":"RO - ARIQUEMES","tipo":"Cebraspe","url":"\/dashboard\/details-assets\/2e11ef45-f840-4733-a5fb-6eb5bcb140e3","coordinates":[-63.0332692780484,-9.90846286624693]},{"id":"d9d17d93-ac56-4cee-a1aa-cf88ff969103","title":"RN - MOSSORO","tipo":"Cebraspe","url":"\/dashboard\/details-assets\/d9d17d93-ac56-4cee-a1aa-cf88ff969103","coordinates":[-37.3568741367043,-5.19380123453833]},{"id":"883b3183-2419-4687-a2b0-4a649dab9554","title":"RN - JOAO CAMARA","tipo":"Cebraspe","url":"\/dashboard\/details-assets\/883b3183-2419-4687-a2b0-4a649dab9554","coordinates":[-35.8167878738553,-5.53842338318182]},{"id":"653c8f7e-8579-4bd8-8974-2faaa2d64aa4","title":"RN - PARNAMIRIM","tipo":"Cebraspe","url":"\/dashboard\/details-assets\/653c8f7e-8579-4bd8-8974-2faaa2d64aa4","coordinates":[-35.2692031860352,-5.91760522545747]},{"id":"21433c7e-efcf-478d-beea-d13a68818a53","title":"RN - CAICO","tipo":"Cebraspe","url":"\/dashboard\/details-assets\/21433c7e-efcf-478d-beea-d13a68818a53","coordinates":[-37.0964887711922,-6.45913883118207]},{"id":"0391ce1a-2203-4be6-b8ce-adae40e69fae","title":"RJ - VOLTA REDONDA","tipo":"Cebraspe","url":"\/dashboard\/details-assets\/0391ce1a-2203-4be6-b8ce-adae40e69fae","coordinates":[-43.6638740245132,-22.5099676001298]},{"id":"61e17ed6-bdcb-4c6c-9a29-b6f245d5bae0","title":"RN - ACU","tipo":"Cebraspe","url":"\/dashboard\/details-assets\/61e17ed6-bdcb-4c6c-9a29-b6f245d5bae0","coordinates":[-36.9179232199589,-5.57194599906406]},{"id":"29b19670-0d20-45ba-b17c-87eed0f1245b","title":"RJ - TRES RIOS","tipo":"Cebraspe","url":"\/dashboard\/details-assets\/29b19670-0d20-45ba-b17c-87eed0f1245b","coordinates":[-43.218947,-22.1170059]},{"id":"188395b5-212d-42d5-b7d2-f455ee6fa15d","title":"RJ - VASSOURAS","tipo":"Cebraspe","url":"\/dashboard\/details-assets\/188395b5-212d-42d5-b7d2-f455ee6fa15d","coordinates":[-43.7048436783271,-22.4090075723608]},{"id":"e04cb3f9-5808-4643-87b4-cb36ca748939","title":"RJ - TERESOPOLIS","tipo":"Cebraspe","url":"\/dashboard\/details-assets\/e04cb3f9-5808-4643-87b4-cb36ca748939","coordinates":[-42.97545,-22.418059]},{"id":"4cd92ddf-07c6-454e-96d5-073cd1afb847","title":"RJ - SEROPEDICA","tipo":"Cebraspe","url":"\/dashboard\/details-assets\/4cd92ddf-07c6-454e-96d5-073cd1afb847","coordinates":[-43.701765,-22.747232]},{"id":"209a8a9b-23d9-4a55-a4b3-7bc888e24577","title":"RJ - SAQUAREMA","tipo":"Cebraspe","url":"\/dashboard\/details-assets\/209a8a9b-23d9-4a55-a4b3-7bc888e24577","coordinates":[-42.1035286701542,-22.9311274153182]},{"id":"92dd7ed5-859f-4737-823f-d303db19862e","title":"RJ - SAO PEDRO DA ALDEIA","tipo":"Cebraspe","url":"\/dashboard\/details-assets\/92dd7ed5-859f-4737-823f-d303db19862e","coordinates":[-42.097988288086,-22.8328849235863]},{"id":"4f335bd8-ce35-4946-9ba0-0b067b4f7710","title":"RJ - SAO JOAO DE MERITI","tipo":"Cebraspe","url":"\/dashboard\/details-assets\/4f335bd8-ce35-4946-9ba0-0b067b4f7710","coordinates":[-43.0323350619648,-22.8023308079592]},{"id":"514328a6-ebe7-4f1b-a71b-c3ff8b3b5fc1","title":"RJ - SAO GONCALO","tipo":"Cebraspe","url":"\/dashboard\/details-assets\/514328a6-ebe7-4f1b-a71b-c3ff8b3b5fc1","coordinates":[-41.1177197285798,-22.8295473123507]},{"id":"7affddb4-2b20-4eb1-882b-3422b0263104","title":"RJ - RIO DAS OSTRAS","tipo":"Cebraspe","url":"\/dashboard\/details-assets\/7affddb4-2b20-4eb1-882b-3422b0263104","coordinates":[-41.9423675537109,-22.5258770348296]},{"id":"533f17c9-8984-475c-864a-f0a4b491428c","title":"RJ - RIO DE JANEIRO","tipo":"Cebraspe","url":"\/dashboard\/details-assets\/533f17c9-8984-475c-864a-f0a4b491428c","coordinates":[-43.263161033392,-22.9142434073172]},{"id":"71c04200-b4dc-46de-8858-fe71b99e0f4f","title":"RJ - QUEIMADOS","tipo":"Cebraspe","url":"\/dashboard\/details-assets\/71c04200-b4dc-46de-8858-fe71b99e0f4f","coordinates":[-43.5522256,-22.7106685]},{"id":"a286289a-a21a-4901-80a1-5fa4d15dc540","title":"RJ - PETROPOLIS","tipo":"Cebraspe","url":"\/dashboard\/details-assets\/a286289a-a21a-4901-80a1-5fa4d15dc540","coordinates":[-44.7108585020174,-22.5105986112939]},{"id":"8188146f-9f25-4226-b8e9-1a15272da1a6","title":"RJ - RESENDE","tipo":"Cebraspe","url":"\/dashboard\/details-assets\/8188146f-9f25-4226-b8e9-1a15272da1a6","coordinates":[-41.4725094000999,-22.4711835854558]},{"id":"d2e254ff-d976-4070-ad5d-d2585dd2d99b","title":"RJ - NOVA FRIBURGO","tipo":"Cebraspe","url":"\/dashboard\/details-assets\/d2e254ff-d976-4070-ad5d-d2585dd2d99b","coordinates":[-43.0758231672735,-22.2864614585334]},{"id":"5a2a58ad-de25-475b-a10b-e8b894023c01","title":"RJ - NOVA IGUACU","tipo":"Cebraspe","url":"\/dashboard\/details-assets\/5a2a58ad-de25-475b-a10b-e8b894023c01","coordinates":[-42.5327712629634,-22.759834825591]},{"id":"f840cf7b-fcc7-440f-88cf-c9a1c6743828","title":"RJ - NITEROI","tipo":"Cebraspe","url":"\/dashboard\/details-assets\/f840cf7b-fcc7-440f-88cf-c9a1c6743828","coordinates":[-43.1152211,-22.8858975]},{"id":"2968acc7-e328-4202-8c64-9c213e8554bf","title":"RJ - NILOPOLIS","tipo":"Cebraspe","url":"\/dashboard\/details-assets\/2968acc7-e328-4202-8c64-9c213e8554bf","coordinates":[-43.4194095,-22.8098164]},{"id":"3c0e0473-6b0f-4188-baa7-7900837005a1","title":"RJ - MESQUITA","tipo":"Cebraspe","url":"\/dashboard\/details-assets\/3c0e0473-6b0f-4188-baa7-7900837005a1","coordinates":[-43.4293183,-22.7819449]},{"id":"8cd9b905-1460-4111-aa54-7abe2b4ae6d7","title":"RJ - MARICA","tipo":"Cebraspe","url":"\/dashboard\/details-assets\/8cd9b905-1460-4111-aa54-7abe2b4ae6d7","coordinates":[-42.819192,-22.9160994]},{"id":"138d842d-5bf1-4636-a641-f0a6d8e42263","title":"RJ - JAPERI","tipo":"Cebraspe","url":"\/dashboard\/details-assets\/138d842d-5bf1-4636-a641-f0a6d8e42263","coordinates":[-43.6529816,-22.644579]},{"id":"7f7be8f9-d417-480f-8392-0531e151a5ad","title":"RJ - MAGE","tipo":"Cebraspe","url":"\/dashboard\/details-assets\/7f7be8f9-d417-480f-8392-0531e151a5ad","coordinates":[-43.0398345,-22.6566022]},{"id":"32c12aa3-8308-47b8-a434-7af7569acb20","title":"RJ - MACAE","tipo":"Cebraspe","url":"\/dashboard\/details-assets\/32c12aa3-8308-47b8-a434-7af7569acb20","coordinates":[-41.7827891,-22.3836904]},{"id":"73937bc6-6fb3-4450-aed9-8ecc69a4dc56","title":"RJ - ITAGUAI","tipo":"Cebraspe","url":"\/dashboard\/details-assets\/73937bc6-6fb3-4450-aed9-8ecc69a4dc56","coordinates":[-43.7779187,-22.8631853]},{"id":"2250519f-b4c5-4834-910c-d9899ef4b988","title":"RJ - ITAPERUNA","tipo":"Cebraspe","url":"\/dashboard\/details-assets\/2250519f-b4c5-4834-910c-d9899ef4b988","coordinates":[-42.0777295245708,-21.2105910841167]},{"id":"0bfe28fb-2999-47ef-a9e9-5ed4a340e199","title":"RJ - CASIMIRO DE ABREU","tipo":"Cebraspe","url":"\/dashboard\/details-assets\/0bfe28fb-2999-47ef-a9e9-5ed4a340e199","coordinates":[-42.2042798995972,-22.4809562729804]},{"id":"3c738177-ef2d-4d2e-8377-e5b65ff9804e","title":"RJ - ITABORAI","tipo":"Cebraspe","url":"\/dashboard\/details-assets\/3c738177-ef2d-4d2e-8377-e5b65ff9804e","coordinates":[-42.2221245423239,-22.7458630167528]},{"id":"b32e3724-2662-410e-a34a-788a5bef435e","title":"RJ - DUQUE DE CAXIAS","tipo":"Cebraspe","url":"\/dashboard\/details-assets\/b32e3724-2662-410e-a34a-788a5bef435e","coordinates":[-42.204210544431,-22.7852532489798]},{"id":"22bfea4c-19bf-4e9d-b9a5-c89c9f33837a","title":"RJ - CABO FRIO","tipo":"Cebraspe","url":"\/dashboard\/details-assets\/22bfea4c-19bf-4e9d-b9a5-c89c9f33837a","coordinates":[-41.6776797949817,-22.8807646664564]},{"id":"4dfdb6a1-1cb5-46ee-afda-ebbb285e2ac1","title":"RJ - CAMPOS DOS GOYTACAZES","tipo":"Cebraspe","url":"\/dashboard\/details-assets\/4dfdb6a1-1cb5-46ee-afda-ebbb285e2ac1","coordinates":[-42.6631643572628,-21.7518986314139]},{"id":"2823a2f9-b158-446a-9452-bbd86c69fd0d","title":"RJ - BARRA MANSA","tipo":"Cebraspe","url":"\/dashboard\/details-assets\/2823a2f9-b158-446a-9452-bbd86c69fd0d","coordinates":[-44.1772604,-22.5408519]},{"id":"5be1edb0-9a99-43ff-958e-b2572532dd0f","title":"RJ - BELFORD ROXO","tipo":"Cebraspe","url":"\/dashboard\/details-assets\/5be1edb0-9a99-43ff-958e-b2572532dd0f","coordinates":[-44.1724313736866,-22.7645559668722]},{"id":"9c0040a2-39dc-4a94-9885-163da1b3499c","title":"RJ - ARARUAMA","tipo":"Cebraspe","url":"\/dashboard\/details-assets\/9c0040a2-39dc-4a94-9885-163da1b3499c","coordinates":[-42.3413939,-22.8728058]},{"id":"65736f4a-f62f-426e-9fca-b3f995e30dff","title":"RJ - BARRA DO PIRAI","tipo":"Cebraspe","url":"\/dashboard\/details-assets\/65736f4a-f62f-426e-9fca-b3f995e30dff","coordinates":[-42.2430171,-22.8558509]},{"id":"802ba95f-9396-4fbf-9da4-89486d8f2107","title":"RJ - ANGRA DOS REIS","tipo":"Cebraspe","url":"\/dashboard\/details-assets\/802ba95f-9396-4fbf-9da4-89486d8f2107","coordinates":[-44.3157913,-23.0058039]},{"id":"e6f89693-d5b8-43ba-ad58-9b61f5f95469","title":"PR - UNIAO DA VITORIA","tipo":"Cebraspe","url":"\/dashboard\/details-assets\/e6f89693-d5b8-43ba-ad58-9b61f5f95469","coordinates":[-51.0906095229867,-26.2284344992514]},{"id":"26e7969a-81ab-49be-bdba-5d77be0d6fdc","title":"PR - UMUARAMA","tipo":"Cebraspe","url":"\/dashboard\/details-assets\/26e7969a-81ab-49be-bdba-5d77be0d6fdc","coordinates":[-53.3084598047956,-23.7639499993035]},{"id":"41ff8d33-1360-4c85-b70d-a913bc3b8b64","title":"PR - TOLEDO","tipo":"Cebraspe","url":"\/dashboard\/details-assets\/41ff8d33-1360-4c85-b70d-a913bc3b8b64","coordinates":[-53.7414114911568,-24.7320769992824]},{"id":"d53c5215-0b24-4a97-a376-4fc0b172dcad","title":"PR - SARANDI","tipo":"Cebraspe","url":"\/dashboard\/details-assets\/d53c5215-0b24-4a97-a376-4fc0b172dcad","coordinates":[-51.852143,-23.441199]},{"id":"4f85356b-a848-455a-9271-76ab8b33d7ae","title":"PR - TELEMACO BORBA","tipo":"Cebraspe","url":"\/dashboard\/details-assets\/4f85356b-a848-455a-9271-76ab8b33d7ae","coordinates":[-50.6231227231312,-24.3286859692912]},{"id":"6909879f-0c65-46f4-9f8d-9c00a2ff211c","title":"PR - SANTO ANTONIO DO SUDOESTE","tipo":"Cebraspe","url":"\/dashboard\/details-assets\/6909879f-0c65-46f4-9f8d-9c00a2ff211c","coordinates":[-53.7256129,-26.074187]},{"id":"f63ed02e-f312-4de9-ab82-8ba800377e4d","title":"PR - SAO JOSE DOS PINHAIS","tipo":"Cebraspe","url":"\/dashboard\/details-assets\/f63ed02e-f312-4de9-ab82-8ba800377e4d","coordinates":[-49.2000824656673,-25.5377019992655]},{"id":"a61a1c44-0a04-411e-9172-41d73f4425e4","title":"PR - ROLANDIA","tipo":"Cebraspe","url":"\/dashboard\/details-assets\/a61a1c44-0a04-411e-9172-41d73f4425e4","coordinates":[-51.4023558,-23.3145627]},{"id":"395d0d43-ad55-45d9-a080-62c203cc90d8","title":"PR - QUATRO BARRAS","tipo":"Cebraspe","url":"\/dashboard\/details-assets\/395d0d43-ad55-45d9-a080-62c203cc90d8","coordinates":[-49.1051152,-25.3739061]},{"id":"c47c96c4-c1cb-4e32-8033-db9c149fe629","title":"PR - PONTA GROSSA","tipo":"Cebraspe","url":"\/dashboard\/details-assets\/c47c96c4-c1cb-4e32-8033-db9c149fe629","coordinates":[-50.3492857,-25.1469571]},{"id":"3159370c-536d-4af3-af50-a9d42bfe7d3e","title":"PR - PONTAL DO PARANA","tipo":"Cebraspe","url":"\/dashboard\/details-assets\/3159370c-536d-4af3-af50-a9d42bfe7d3e","coordinates":[-48.6092863,-25.6474394]},{"id":"2b0745fd-c729-4d9e-8823-e0c14cbdd444","title":"PR - PIRAQUARA","tipo":"Cebraspe","url":"\/dashboard\/details-assets\/2b0745fd-c729-4d9e-8823-e0c14cbdd444","coordinates":[-49.0653056139231,-25.4465503557216]},{"id":"13b58a7d-602b-4c85-a3d8-b17b987ded45","title":"PR - PINHAIS","tipo":"Cebraspe","url":"\/dashboard\/details-assets\/13b58a7d-602b-4c85-a3d8-b17b987ded45","coordinates":[-49.1991974196099,-25.442197887173]},{"id":"20629cce-c85e-42d6-9e7d-bdfb3860faac","title":"PR - PATO BRANCO","tipo":"Cebraspe","url":"\/dashboard\/details-assets\/20629cce-c85e-42d6-9e7d-bdfb3860faac","coordinates":[-52.6773619976723,-26.2299585142514]},{"id":"8fec8642-7232-4ab3-bd76-7437f4a0046f","title":"PR - PARANAVAI","tipo":"Cebraspe","url":"\/dashboard\/details-assets\/8fec8642-7232-4ab3-bd76-7437f4a0046f","coordinates":[-52.462401669956,-23.0818794743189]},{"id":"07469d8d-300e-4299-b666-646371131fff","title":"PR - PARANAGUA","tipo":"Cebraspe","url":"\/dashboard\/details-assets\/07469d8d-300e-4299-b666-646371131fff","coordinates":[-48.5247328366567,-25.5068414992661]},{"id":"cc82f5aa-c16d-4da1-883a-8ce1ae46c8f5","title":"PR - PAICANDU","tipo":"Cebraspe","url":"\/dashboard\/details-assets\/cc82f5aa-c16d-4da1-883a-8ce1ae46c8f5","coordinates":[-52.0524118315665,-23.4576987568047]},{"id":"5d96fb4a-e9b9-47b9-bff7-4406c22a2664","title":"PR - PALMAS","tipo":"Cebraspe","url":"\/dashboard\/details-assets\/5d96fb4a-e9b9-47b9-bff7-4406c22a2664","coordinates":[-51.9887738877128,-26.4814725142464]},{"id":"0df7a742-7e0f-4f7c-a312-43df3b1b092b","title":"PR - PALMEIRA","tipo":"Cebraspe","url":"\/dashboard\/details-assets\/0df7a742-7e0f-4f7c-a312-43df3b1b092b","coordinates":[-50.1590014055927,-27.5822620696775]},{"id":"9d0c168e-eb0e-447f-87fc-862230502ef6","title":"PR - MATINHOS","tipo":"Cebraspe","url":"\/dashboard\/details-assets\/9d0c168e-eb0e-447f-87fc-862230502ef6","coordinates":[-48.5337711877653,-25.8164097021648]},{"id":"cccec553-2b18-4103-9347-e3829e025a96","title":"PR - MARINGA","tipo":"Cebraspe","url":"\/dashboard\/details-assets\/cccec553-2b18-4103-9347-e3829e025a96","coordinates":[-51.9398818702521,-23.4222799993112]},{"id":"bb05da8a-00d6-4590-87bb-c37a6d04c6d8","title":"PR - MEDIANEIRA","tipo":"Cebraspe","url":"\/dashboard\/details-assets\/bb05da8a-00d6-4590-87bb-c37a6d04c6d8","coordinates":[-54.0917821269222,-25.2924974992706]},{"id":"127ff770-4a3d-44dd-8778-026a155fe731","title":"PR - MARECHAL CANDIDO RONDON","tipo":"Cebraspe","url":"\/dashboard\/details-assets\/127ff770-4a3d-44dd-8778-026a155fe731","coordinates":[-54.0600078164531,-24.5592544942861]},{"id":"97a399b1-03dd-40a4-8e01-fd82c6bf4893","title":"PR - MARIALVA","tipo":"Cebraspe","url":"\/dashboard\/details-assets\/97a399b1-03dd-40a4-8e01-fd82c6bf4893","coordinates":[-51.7980569139104,-23.4847585343098]},{"id":"48d5f986-5612-4ee5-84e2-66774845e5fc","title":"PR - LARANJEIRAS DO SUL","tipo":"Cebraspe","url":"\/dashboard\/details-assets\/48d5f986-5612-4ee5-84e2-66774845e5fc","coordinates":[-52.4088474232637,-25.4016815094352]},{"id":"30636be3-2294-4de9-9a84-c9a692f34f23","title":"PR - MANDIRITUBA","tipo":"Cebraspe","url":"\/dashboard\/details-assets\/30636be3-2294-4de9-9a84-c9a692f34f23","coordinates":[0,0]},{"id":"517d4fcc-38b2-4bf6-8439-046e24ac892b","title":"PR - LONDRINA","tipo":"Cebraspe","url":"\/dashboard\/details-assets\/517d4fcc-38b2-4bf6-8439-046e24ac892b","coordinates":[-51.1627734238781,-23.3121559993137]},{"id":"50e3ab2f-5189-4979-8a43-6043708dbe2f","title":"PR - LAPA","tipo":"Cebraspe","url":"\/dashboard\/details-assets\/50e3ab2f-5189-4979-8a43-6043708dbe2f","coordinates":[-49.7185958084251,-25.7651024842609]},{"id":"94ba8a2c-c0c8-4b12-b729-dcf830545b3f","title":"PR - IBIPORA","tipo":"Cebraspe","url":"\/dashboard\/details-assets\/94ba8a2c-c0c8-4b12-b729-dcf830545b3f","coordinates":[-51.0580336739701,-23.2693314743146]},{"id":"90a58e19-238a-4145-be16-b0ed3bfa2b34","title":"PR - GUARAPUAVA","tipo":"Cebraspe","url":"\/dashboard\/details-assets\/90a58e19-238a-4145-be16-b0ed3bfa2b34","coordinates":[-51.4634310776746,-25.3935919792685]},{"id":"c6e4a7b6-b9af-42cc-9173-b66fac43a1a0","title":"PR - FOZ DO IGUACU","tipo":"Cebraspe","url":"\/dashboard\/details-assets\/c6e4a7b6-b9af-42cc-9173-b66fac43a1a0","coordinates":[-54.5871024886046,-25.5424932787946]},{"id":"ebfac8ce-c47b-4765-a515-2759a6b44c41","title":"PR - FRANCISCO BELTRAO","tipo":"Cebraspe","url":"\/dashboard\/details-assets\/ebfac8ce-c47b-4765-a515-2759a6b44c41","coordinates":[-53.0561357214894,-26.0784499992544]},{"id":"13b05725-bcaf-4087-a815-bb29abae031b","title":"PR - FAZENDA RIO GRANDE","tipo":"Cebraspe","url":"\/dashboard\/details-assets\/13b05725-bcaf-4087-a815-bb29abae031b","coordinates":[-49.3232931947119,-25.6414002179572]},{"id":"53efe3f2-124d-4990-b114-6ba70c6c1962","title":"PR - DOIS VIZINHOS","tipo":"Cebraspe","url":"\/dashboard\/details-assets\/53efe3f2-124d-4990-b114-6ba70c6c1962","coordinates":[-53.0548359924349,-25.7460100192612]},{"id":"8ab7bb45-c24a-4221-9daf-2891275bc7b7","title":"PR - COLOMBO","tipo":"Cebraspe","url":"\/dashboard\/details-assets\/8ab7bb45-c24a-4221-9daf-2891275bc7b7","coordinates":[-49.2274379772727,-25.2943402938066]},{"id":"a9a2bd4b-ce44-41a4-84af-499c521b094b","title":"PR - CURITIBA","tipo":"Cebraspe","url":"\/dashboard\/details-assets\/a9a2bd4b-ce44-41a4-84af-499c521b094b","coordinates":[-49.2718478850774,-25.4329559992677]},{"id":"d36d6034-f63c-4b99-9aa5-fcfa34ec0dac","title":"PR - CORNELIO PROCOPIO","tipo":"Cebraspe","url":"\/dashboard\/details-assets\/d36d6034-f63c-4b99-9aa5-fcfa34ec0dac","coordinates":[-50.6514844783365,-23.1832574993166]},{"id":"87e2ac8e-39c9-4f45-8eea-a3ef3e0c8871","title":"PR - CASTRO","tipo":"Cebraspe","url":"\/dashboard\/details-assets\/87e2ac8e-39c9-4f45-8eea-a3ef3e0c8871","coordinates":[-50.0028111277611,-24.7954174992811]},{"id":"1467b139-bc01-4214-9a09-63d79f4b7af7","title":"PR - CIANORTE","tipo":"Cebraspe","url":"\/dashboard\/details-assets\/1467b139-bc01-4214-9a09-63d79f4b7af7","coordinates":[-52.609150890556,-23.6538131521335]},{"id":"ad941ffc-49d3-41fd-b7cc-5d7cb01706e9","title":"PR - CAMPO MAGRO","tipo":"Cebraspe","url":"\/dashboard\/details-assets\/ad941ffc-49d3-41fd-b7cc-5d7cb01706e9","coordinates":[-49.4276649679895,-25.367956499269]},{"id":"e70c13a6-1ca2-490d-85ed-db8d8c35e931","title":"PR - CAMPO MOURAO","tipo":"Cebraspe","url":"\/dashboard\/details-assets\/e70c13a6-1ca2-490d-85ed-db8d8c35e931","coordinates":[-52.3811150855647,-24.0412231960172]},{"id":"47398d85-8efa-45cf-ad5f-383d4ce8e454","title":"PR - CASCAVEL","tipo":"Cebraspe","url":"\/dashboard\/details-assets\/47398d85-8efa-45cf-ad5f-383d4ce8e454","coordinates":[-53.4597221819856,-24.9537974992777]},{"id":"c2c4f288-8384-498d-b59e-368a4445f715","title":"PR - CAMPO LARGO","tipo":"Cebraspe","url":"\/dashboard\/details-assets\/c2c4f288-8384-498d-b59e-368a4445f715","coordinates":[-49.5288414503356,-25.4594904992671]},{"id":"fc6c5088-dbf6-48ca-bfb1-8226d84c7bd2","title":"PR - CAMPINA GRANDE DO SUL","tipo":"Cebraspe","url":"\/dashboard\/details-assets\/fc6c5088-dbf6-48ca-bfb1-8226d84c7bd2","coordinates":[-49.0534658723572,-25.3032475042704]},{"id":"05f4cfd0-97b2-43b2-9999-a1bdf6f4613c","title":"PR - ARAPONGAS","tipo":"Cebraspe","url":"\/dashboard\/details-assets\/05f4cfd0-97b2-43b2-9999-a1bdf6f4613c","coordinates":[-51.4382797346677,-23.4135165313032]},{"id":"c4afb303-1c70-4ac9-97a4-2c001c1b43dd","title":"PR - ARAUCARIA","tipo":"Cebraspe","url":"\/dashboard\/details-assets\/c4afb303-1c70-4ac9-97a4-2c001c1b43dd","coordinates":[-49.4019396967087,-25.5916449992644]},{"id":"71f6ad0a-622a-42f7-ba88-aa6aa17f53cf","title":"PR - CAMBE","tipo":"Cebraspe","url":"\/dashboard\/details-assets\/71f6ad0a-622a-42f7-ba88-aa6aa17f53cf","coordinates":[-51.2777284423314,-23.2816319993144]},{"id":"bfb02308-7333-4aef-b28c-3f2440c7a078","title":"PR - APUCARANA","tipo":"Cebraspe","url":"\/dashboard\/details-assets\/bfb02308-7333-4aef-b28c-3f2440c7a078","coordinates":[-51.4599851423591,-23.5515929843083]},{"id":"acad2dfb-3f47-4003-b8e5-2dff1e4e5e65","title":"PR - ALMIRANTE TAMANDARE","tipo":"Cebraspe","url":"\/dashboard\/details-assets\/acad2dfb-3f47-4003-b8e5-2dff1e4e5e65","coordinates":[-49.3003198184039,-25.3133776015465]},{"id":"dbd11295-57ad-486b-a6ce-9afb0bd702da","title":"PI - PICOS","tipo":"Cebraspe","url":"\/dashboard\/details-assets\/dbd11295-57ad-486b-a6ce-9afb0bd702da","coordinates":[-41.4688267146679,-7.0813739119682]},{"id":"a76bceff-77db-422e-a019-9316b05e1c93","title":"PI - TERESINA","tipo":"Cebraspe","url":"\/dashboard\/details-assets\/a76bceff-77db-422e-a019-9316b05e1c93","coordinates":[-42.8052704582233,-5.08634195215484]},{"id":"b7ca3e5d-4bfb-4ad5-bde1-4d4245fbec06","title":"PI - PARNAIBA","tipo":"Cebraspe","url":"\/dashboard\/details-assets\/b7ca3e5d-4bfb-4ad5-bde1-4d4245fbec06","coordinates":[-41.7781705920245,-2.90336014441333]},{"id":"8eda307d-8f06-4676-83c2-74f3d36043e2","title":"PI - FLORIANO","tipo":"Cebraspe","url":"\/dashboard\/details-assets\/8eda307d-8f06-4676-83c2-74f3d36043e2","coordinates":[-43.0206447383255,-6.76967243356518]},{"id":"e4c5b215-e9f9-46d7-8d2c-d11bc976e73b","title":"PE - RECIFE","tipo":"Cebraspe","url":"\/dashboard\/details-assets\/e4c5b215-e9f9-46d7-8d2c-d11bc976e73b","coordinates":[-34.8889419445777,-8.06276248279001]},{"id":"401a358f-15bf-4a10-9a23-1bfd7462f291","title":"PE - SAO LOURENCO DA MATA","tipo":"Cebraspe","url":"\/dashboard\/details-assets\/401a358f-15bf-4a10-9a23-1bfd7462f291","coordinates":[-35.041277539321,-7.99593799973972]},{"id":"1657d9dd-a46e-46a9-8102-e4b53d82ee60","title":"PE - PETROLINA","tipo":"Cebraspe","url":"\/dashboard\/details-assets\/1657d9dd-a46e-46a9-8102-e4b53d82ee60","coordinates":[-40.4999993346523,-9.39737551469565]},{"id":"b48e4b0f-bd33-4c73-a1de-4cb13bc097ef","title":"PE - PAULISTA","tipo":"Cebraspe","url":"\/dashboard\/details-assets\/b48e4b0f-bd33-4c73-a1de-4cb13bc097ef","coordinates":[-37.6210556739873,-6.59406157954657]},{"id":"0f5a724f-85a2-47ea-81b0-f330bc0d5ada","title":"PE - OURICURI","tipo":"Cebraspe","url":"\/dashboard\/details-assets\/0f5a724f-85a2-47ea-81b0-f330bc0d5ada","coordinates":[-40.0814625767368,-7.88315197474332]},{"id":"23a4cdc3-6e08-4c2a-aaec-40dbadaf4b03","title":"PE - OLINDA","tipo":"Cebraspe","url":"\/dashboard\/details-assets\/23a4cdc3-6e08-4c2a-aaec-40dbadaf4b03","coordinates":[-34.8613103898235,-7.99266007506274]},{"id":"4d6ce038-fd20-4058-ad81-dc9f18e89852","title":"PE - JABOATAO DOS GUARARAPES","tipo":"Cebraspe","url":"\/dashboard\/details-assets\/4d6ce038-fd20-4058-ad81-dc9f18e89852","coordinates":[-34.9211734672603,-8.1653914670918]},{"id":"fafe43e8-9a70-4444-86b2-b7f4515e4956","title":"PE - GARANHUNS","tipo":"Cebraspe","url":"\/dashboard\/details-assets\/fafe43e8-9a70-4444-86b2-b7f4515e4956","coordinates":[-36.4930502821005,-8.88890552971159]},{"id":"5cb0057a-85a1-4d8f-ba7d-6a972f5b6714","title":"PE - CARUARU","tipo":"Cebraspe","url":"\/dashboard\/details-assets\/5cb0057a-85a1-4d8f-ba7d-6a972f5b6714","coordinates":[-35.9670733600535,-8.28589799973057]},{"id":"6e46adfb-5fcb-4916-8dea-4298772896ad","title":"PB - PATOS","tipo":"Cebraspe","url":"\/dashboard\/details-assets\/6e46adfb-5fcb-4916-8dea-4298772896ad","coordinates":[-37.2769133372926,-7.02449166798991]},{"id":"44d96504-f7bf-4d1d-9c36-949914869c0f","title":"PB - SOUSA","tipo":"Cebraspe","url":"\/dashboard\/details-assets\/44d96504-f7bf-4d1d-9c36-949914869c0f","coordinates":[-38.2296050806011,-6.76337800477903]},{"id":"6887d80e-6c0d-4bc3-925f-3c211f3d9aae","title":"PE - ABREU E LIMA","tipo":"Cebraspe","url":"\/dashboard\/details-assets\/6887d80e-6c0d-4bc3-925f-3c211f3d9aae","coordinates":[-34.8991305847304,-7.90444898974262]},{"id":"cba8bd54-3eae-4e58-a4ff-ba950842cc11","title":"PB - JOAO PESSOA","tipo":"Cebraspe","url":"\/dashboard\/details-assets\/cba8bd54-3eae-4e58-a4ff-ba950842cc11","coordinates":[-34.8733848135386,-7.14938201976666]},{"id":"92e055f8-7cb7-4867-b1fd-992818f67d62","title":"PB - CAMPINA GRANDE","tipo":"Cebraspe","url":"\/dashboard\/details-assets\/92e055f8-7cb7-4867-b1fd-992818f67d62","coordinates":[-35.8838591147815,-7.22149703976438]},{"id":"8f8f26a2-812d-4c91-ad60-381b0418c014","title":"PB - CAJAZEIRAS","tipo":"Cebraspe","url":"\/dashboard\/details-assets\/8f8f26a2-812d-4c91-ad60-381b0418c014","coordinates":[-38.5605303718409,-6.89046449977496]},{"id":"f2c11cbd-3edb-47e1-92ff-6d8ccc9b3f6b","title":"PA - XINGUARA","tipo":"Cebraspe","url":"\/dashboard\/details-assets\/f2c11cbd-3edb-47e1-92ff-6d8ccc9b3f6b","coordinates":[-49.9427005843752,-7.10151282691424]},{"id":"fad33f8d-45d4-4fde-b6e6-a008f41b4efa","title":"PA - TAILANDIA","tipo":"Cebraspe","url":"\/dashboard\/details-assets\/fad33f8d-45d4-4fde-b6e6-a008f41b4efa","coordinates":[-48.955078125,-2.93138327137071]},{"id":"3603bc5a-5c5b-41a0-9923-206fa92f42ff","title":"PA - TOME-ACU","tipo":"Cebraspe","url":"\/dashboard\/details-assets\/3603bc5a-5c5b-41a0-9923-206fa92f42ff","coordinates":[-48.146896586572,-2.41936685518763]},{"id":"6e626273-04d8-4a74-8208-85c34949fb3b","title":"PA - TUCURUI","tipo":"Cebraspe","url":"\/dashboard\/details-assets\/6e626273-04d8-4a74-8208-85c34949fb3b","coordinates":[-49.6671843672248,-3.76688908418776]},{"id":"6499284b-b678-4ef3-a733-cfad348fabf1","title":"PA - SAO MIGUEL DO GUAMA","tipo":"Cebraspe","url":"\/dashboard\/details-assets\/6499284b-b678-4ef3-a733-cfad348fabf1","coordinates":[-47.4824089444892,-1.61713591443717]},{"id":"883106ff-cc00-446f-a5b9-2580115d2da9","title":"PA - SANTAREM","tipo":"Cebraspe","url":"\/dashboard\/details-assets\/883106ff-cc00-446f-a5b9-2580115d2da9","coordinates":[-54.7185701672711,-2.43621332991971]},{"id":"ccfff116-e84f-4624-89a8-37d494c7c56d","title":"PA - REDENCAO","tipo":"Cebraspe","url":"\/dashboard\/details-assets\/ccfff116-e84f-4624-89a8-37d494c7c56d","coordinates":[-50.0296418255093,-8.02760449973873]},{"id":"b2fc2da4-78dd-46b0-bd1f-7229539c4b1d","title":"PA - SALINOPOLIS","tipo":"Cebraspe","url":"\/dashboard\/details-assets\/b2fc2da4-78dd-46b0-bd1f-7229539c4b1d","coordinates":[-47.3531202631536,-0.623637999979433]},{"id":"23ea4bfc-fa61-4711-b9b9-d89d47304ce2","title":"PA - SANTA IZABEL DO PARA","tipo":"Cebraspe","url":"\/dashboard\/details-assets\/23ea4bfc-fa61-4711-b9b9-d89d47304ce2","coordinates":[-48.1630599409531,-1.29739590124865]},{"id":"dd22525d-73be-4b73-a58b-f98724c76975","title":"PA - PRAINHA","tipo":"Cebraspe","url":"\/dashboard\/details-assets\/dd22525d-73be-4b73-a58b-f98724c76975","coordinates":[-53.4818139407895,-1.80569449994049]},{"id":"acae02bd-9a39-43ed-8250-46562fefcecb","title":"PA - PARAUAPEBAS","tipo":"Cebraspe","url":"\/dashboard\/details-assets\/acae02bd-9a39-43ed-8250-46562fefcecb","coordinates":[-49.9007806342969,-6.07272988743306]},{"id":"c77d8354-f560-415b-85b8-cc28ceafef02","title":"PA - PORTEL","tipo":"Cebraspe","url":"\/dashboard\/details-assets\/c77d8354-f560-415b-85b8-cc28ceafef02","coordinates":[-50.82249,-1.936451]},{"id":"d1fa7956-7bae-43ea-af79-afb039b0c91f","title":"PA - ORIXIMINA","tipo":"Cebraspe","url":"\/dashboard\/details-assets\/d1fa7956-7bae-43ea-af79-afb039b0c91f","coordinates":[-55.8627995152359,-1.76375349994187]},{"id":"f9529f85-dfde-4c7d-ac5f-48af498f2577","title":"PA - PARAGOMINAS","tipo":"Cebraspe","url":"\/dashboard\/details-assets\/f9529f85-dfde-4c7d-ac5f-48af498f2577","coordinates":[-47.356962,-2.99419]},{"id":"e26bbc9f-6ef5-40f6-af59-b75823fd1228","title":"PA - MONTE ALEGRE","tipo":"Cebraspe","url":"\/dashboard\/details-assets\/e26bbc9f-6ef5-40f6-af59-b75823fd1228","coordinates":[-54.073374725636,-2.00332799993398]},{"id":"baf3aa4b-c844-47cb-b746-d1bb6841e993","title":"PA - NOVO REPARTIMENTO","tipo":"Cebraspe","url":"\/dashboard\/details-assets\/baf3aa4b-c844-47cb-b746-d1bb6841e993","coordinates":[-49.9486382443426,-4.24814849986041]},{"id":"39298f2b-fd1f-4257-b75e-ebb52f645bed","title":"PA - OBIDOS","tipo":"Cebraspe","url":"\/dashboard\/details-assets\/39298f2b-fd1f-4257-b75e-ebb52f645bed","coordinates":[-55.5163235097126,-1.90923549581828]},{"id":"26ba674a-f411-4a9e-aa2e-1e7902508737","title":"PA - ITAITUBA","tipo":"Cebraspe","url":"\/dashboard\/details-assets\/26ba674a-f411-4a9e-aa2e-1e7902508737","coordinates":[-55.9900488572777,-4.2637294798599]},{"id":"c146a096-d61d-47d0-bc2a-4a800bd8031d","title":"PA - MARABA","tipo":"Cebraspe","url":"\/dashboard\/details-assets\/c146a096-d61d-47d0-bc2a-4a800bd8031d","coordinates":[-49.1420253334067,-5.35260576295475]},{"id":"17c1f3da-4d1e-47df-b645-d7f7272a664d","title":"PA - MARITUBA","tipo":"Cebraspe","url":"\/dashboard\/details-assets\/17c1f3da-4d1e-47df-b645-d7f7272a664d","coordinates":[-48.340535877783,-1.34641726553141]},{"id":"40baaa14-2e12-49f6-bbeb-8836f3156d31","title":"PA - GOIANESIA DO PARA","tipo":"Cebraspe","url":"\/dashboard\/details-assets\/40baaa14-2e12-49f6-bbeb-8836f3156d31","coordinates":[-49.096944,-3.842778]},{"id":"38184f57-217b-4c58-b8ee-939907e32e64","title":"PA - IGARAPE-ACU","tipo":"Cebraspe","url":"\/dashboard\/details-assets\/38184f57-217b-4c58-b8ee-939907e32e64","coordinates":[-47.6223754920271,-1.12432199996293]},{"id":"05a262f0-da35-4f42-9e68-caedbec39b29","title":"PA - CASTANHAL","tipo":"Cebraspe","url":"\/dashboard\/details-assets\/05a262f0-da35-4f42-9e68-caedbec39b29","coordinates":[-47.9266431419442,-1.29575680500253]},{"id":"948a847c-1a19-4ab5-a7fd-a16c9d765e03","title":"PA - CAPANEMA","tipo":"Cebraspe","url":"\/dashboard\/details-assets\/948a847c-1a19-4ab5-a7fd-a16c9d765e03","coordinates":[-53.80301,-25.660096]},{"id":"e77273b5-9b94-40a1-963a-00ae61da7d06","title":"PA - CONCEICAO DO ARAGUAIA","tipo":"Cebraspe","url":"\/dashboard\/details-assets\/e77273b5-9b94-40a1-963a-00ae61da7d06","coordinates":[-49.2645008124957,-8.26486352973121]},{"id":"ef540b85-f109-49a1-b028-c9d14c5ca55d","title":"PA - CAMETA","tipo":"Cebraspe","url":"\/dashboard\/details-assets\/ef540b85-f109-49a1-b028-c9d14c5ca55d","coordinates":[-49.497830168997,-2.24683847992597]},{"id":"b6a808ed-f1fa-44db-a5f7-001183e0c9d0","title":"PA - BREVES","tipo":"Cebraspe","url":"\/dashboard\/details-assets\/b6a808ed-f1fa-44db-a5f7-001183e0c9d0","coordinates":[-50.4808947990195,-1.69073649994427]},{"id":"47b2f9db-239f-4425-b542-7c86bdd9e468","title":"PA - BRAGANCA","tipo":"Cebraspe","url":"\/dashboard\/details-assets\/47b2f9db-239f-4425-b542-7c86bdd9e468","coordinates":[-46.765754213664,-1.0535239561709]},{"id":"58c17b69-75b2-4c1a-b287-8a8cb03b3ed1","title":"PA - BELEM","tipo":"Cebraspe","url":"\/dashboard\/details-assets\/58c17b69-75b2-4c1a-b287-8a8cb03b3ed1","coordinates":[-48.4878256874876,-1.45984499995188]},{"id":"aaeb07f3-be48-488b-afa2-3542ef40fb21","title":"PA - BARCARENA","tipo":"Cebraspe","url":"\/dashboard\/details-assets\/aaeb07f3-be48-488b-afa2-3542ef40fb21","coordinates":[-48.6214633017578,-1.50707408835524]},{"id":"6b207a47-5039-469f-9c10-4c3d6a138f9d","title":"PA - ANANINDEUA","tipo":"Cebraspe","url":"\/dashboard\/details-assets\/6b207a47-5039-469f-9c10-4c3d6a138f9d","coordinates":[-48.372066654168,-1.36871356822433]},{"id":"0a5c8268-2183-4fdd-a1fd-da03cdb16b9f","title":"PA - ALTAMIRA","tipo":"Cebraspe","url":"\/dashboard\/details-assets\/0a5c8268-2183-4fdd-a1fd-da03cdb16b9f","coordinates":[-52.2143763052078,-3.2056595098945]},{"id":"018615f4-8baa-4f5f-88b4-d3b4654d94b1","title":"PA - ABAETETUBA","tipo":"Cebraspe","url":"\/dashboard\/details-assets\/018615f4-8baa-4f5f-88b4-d3b4654d94b1","coordinates":[-48.884403820723,-1.7234698627891]},{"id":"d04fe08b-38f9-4a58-96e1-840a1ea76353","title":"MT - VARZEA GRANDE","tipo":"Cebraspe","url":"\/dashboard\/details-assets\/d04fe08b-38f9-4a58-96e1-840a1ea76353","coordinates":[-56.1446637401866,-15.6580648235976]},{"id":"8cc2ded8-1d67-4778-8299-bda62149ae13","title":"MT - VILA RICA","tipo":"Cebraspe","url":"\/dashboard\/details-assets\/8cc2ded8-1d67-4778-8299-bda62149ae13","coordinates":[-51.1168225790044,-10.0133521815453]},{"id":"2b4f9dc7-5146-48e6-a076-0fa1fc3f846e","title":"MT - TANGARA DA SERRA","tipo":"Cebraspe","url":"\/dashboard\/details-assets\/2b4f9dc7-5146-48e6-a076-0fa1fc3f846e","coordinates":[-57.4912991530603,-14.6237847500065]},{"id":"8c440705-b604-423d-bd7f-507535006663","title":"MT - SINOP","tipo":"Cebraspe","url":"\/dashboard\/details-assets\/8c440705-b604-423d-bd7f-507535006663","coordinates":[-55.5009220023868,-11.8580053076977]},{"id":"3549db06-e782-4c47-8d8e-345063caf2d0","title":"MT - RONDONOPOLIS","tipo":"Cebraspe","url":"\/dashboard\/details-assets\/3549db06-e782-4c47-8d8e-345063caf2d0","coordinates":[-54.6335870401784,-16.4701628729862]},{"id":"8e8d3ef7-fbd8-4a83-b32a-4975302dc23e","title":"MT - LUCAS DO RIO VERDE","tipo":"Cebraspe","url":"\/dashboard\/details-assets\/8e8d3ef7-fbd8-4a83-b32a-4975302dc23e","coordinates":[-55.9217707091116,-13.0704649504837]},{"id":"8e511865-cbc4-4b22-9bd5-b2861a1ab16e","title":"MT - PRIMAVERA DO LESTE","tipo":"Cebraspe","url":"\/dashboard\/details-assets\/8e511865-cbc4-4b22-9bd5-b2861a1ab16e","coordinates":[-54.3000532591227,-15.5522935926261]},{"id":"cb44f38d-0844-49b2-86b3-3f545ea82f44","title":"MT - JUINA","tipo":"Cebraspe","url":"\/dashboard\/details-assets\/cb44f38d-0844-49b2-86b3-3f545ea82f44","coordinates":[-58.7622171517696,-11.4220180319014]},{"id":"c74b6b49-a6b7-4cb0-919b-3fa97fddf90b","title":"MT - JUARA","tipo":"Cebraspe","url":"\/dashboard\/details-assets\/c74b6b49-a6b7-4cb0-919b-3fa97fddf90b","coordinates":[-57.5131232183312,-11.2503599781237]},{"id":"8ddd2d1f-dfec-4262-9cb9-cd1bff0061ea","title":"MT - GUARANTA DO NORTE","tipo":"Cebraspe","url":"\/dashboard\/details-assets\/8ddd2d1f-dfec-4262-9cb9-cd1bff0061ea","coordinates":[-54.9160573112722,-9.95407323332093]},{"id":"c0027961-0cbd-42d0-9696-7c59da5dd8fc","title":"MT - CUIABA","tipo":"Cebraspe","url":"\/dashboard\/details-assets\/c0027961-0cbd-42d0-9696-7c59da5dd8fc","coordinates":[-56.0732520381911,-15.5699890126321]},{"id":"67dc6689-2e70-495c-aef4-39dd7714deda","title":"MT - CAMPO VERDE","tipo":"Cebraspe","url":"\/dashboard\/details-assets\/67dc6689-2e70-495c-aef4-39dd7714deda","coordinates":[-55.1716554148957,-15.5537042698269]},{"id":"0d56b5d5-dbda-4404-ac38-52b0bbf1625b","title":"MT - CACERES","tipo":"Cebraspe","url":"\/dashboard\/details-assets\/0d56b5d5-dbda-4404-ac38-52b0bbf1625b","coordinates":[-57.6747623072181,-16.074095629861]},{"id":"7cf25eff-9efe-4c34-bfed-20ee2de6e136","title":"MT - BARRA DO GARCAS","tipo":"Cebraspe","url":"\/dashboard\/details-assets\/7cf25eff-9efe-4c34-bfed-20ee2de6e136","coordinates":[-52.2603297567721,-15.8887114511979]},{"id":"29164370-d316-46ca-97b3-3a512f8594db","title":"MS - TRES LAGOAS","tipo":"Cebraspe","url":"\/dashboard\/details-assets\/29164370-d316-46ca-97b3-3a512f8594db","coordinates":[-51.7100006287942,-20.7886791607647]},{"id":"5485a6d3-6f18-45e4-b1b1-5f16794c9b32","title":"MS - SIDROLANDIA","tipo":"Cebraspe","url":"\/dashboard\/details-assets\/5485a6d3-6f18-45e4-b1b1-5f16794c9b32","coordinates":[-54.9660301365064,-20.9310544589063]},{"id":"2cf07298-835e-4586-a8a2-1e04a3643c63","title":"MS - SAO GABRIEL DO OESTE","tipo":"Cebraspe","url":"\/dashboard\/details-assets\/2cf07298-835e-4586-a8a2-1e04a3643c63","coordinates":[-54.5645690937601,-19.3955213695662]},{"id":"340b5ec5-a1ce-4c1a-a6d7-0c7335e6065d","title":"MS - RIO BRILHANTE","tipo":"Cebraspe","url":"\/dashboard\/details-assets\/340b5ec5-a1ce-4c1a-a6d7-0c7335e6065d","coordinates":[-54.5422422224689,-21.8011952569219]},{"id":"f86293d8-b77d-45d1-9409-1c1c45b09dbf","title":"MS - PONTA PORA","tipo":"Cebraspe","url":"\/dashboard\/details-assets\/f86293d8-b77d-45d1-9409-1c1c45b09dbf","coordinates":[-55.7108501778637,-22.4861870780929]},{"id":"fd80b1e5-1791-442e-988a-7ee9006773bf","title":"MS - PARANAIBA","tipo":"Cebraspe","url":"\/dashboard\/details-assets\/fd80b1e5-1791-442e-988a-7ee9006773bf","coordinates":[-51.1887077083698,-19.6773717326017]},{"id":"0be4dacc-4575-478e-bfd4-59874d869143","title":"MS - NOVA ANDRADINA","tipo":"Cebraspe","url":"\/dashboard\/details-assets\/0be4dacc-4575-478e-bfd4-59874d869143","coordinates":[-53.3515738148688,-22.2487593120915]},{"id":"481fb688-dfec-496e-8dc5-210db47040f7","title":"MS - NOVA ALVORADA DO SUL","tipo":"Cebraspe","url":"\/dashboard\/details-assets\/481fb688-dfec-496e-8dc5-210db47040f7","coordinates":[-54.3955497,-21.459869]},{"id":"2ef2f5f3-4676-493b-a321-363aea02dbae","title":"MS - MARACAJU","tipo":"Cebraspe","url":"\/dashboard\/details-assets\/2ef2f5f3-4676-493b-a321-363aea02dbae","coordinates":[-55.1571395689956,-21.6236103831694]},{"id":"3af51e06-d71e-423f-8cf5-d9c7c68ee787","title":"MS - NAVIRAI","tipo":"Cebraspe","url":"\/dashboard\/details-assets\/3af51e06-d71e-423f-8cf5-d9c7c68ee787","coordinates":[-54.1988361701181,-23.0599994818193]},{"id":"acca4c3b-9de8-4439-8f37-62b8fee34465","title":"MS - IGUATEMI","tipo":"Cebraspe","url":"\/dashboard\/details-assets\/acca4c3b-9de8-4439-8f37-62b8fee34465","coordinates":[-54.5601027,-23.6759953]},{"id":"6caed67f-e1f5-48d2-a0bf-879a2426b50d","title":"MS - JARDIM","tipo":"Cebraspe","url":"\/dashboard\/details-assets\/6caed67f-e1f5-48d2-a0bf-879a2426b50d","coordinates":[-56.1458445844119,-21.479603145113]},{"id":"132c0782-e178-4dd7-97b8-b0a07d02aac4","title":"MS - COXIM","tipo":"Cebraspe","url":"\/dashboard\/details-assets\/132c0782-e178-4dd7-97b8-b0a07d02aac4","coordinates":[-54.7580559501933,-18.508410538078]},{"id":"f27b1385-9348-43ba-a208-b3052011fa6a","title":"MS - DOURADOS","tipo":"Cebraspe","url":"\/dashboard\/details-assets\/f27b1385-9348-43ba-a208-b3052011fa6a","coordinates":[-54.8112891228926,-22.2272355362375]},{"id":"7d87485e-98ca-404b-b188-f817b99d701e","title":"MS - FATIMA DO SUL","tipo":"Cebraspe","url":"\/dashboard\/details-assets\/7d87485e-98ca-404b-b188-f817b99d701e","coordinates":[-54.5163759902411,-22.3754232103941]},{"id":"771d330e-c307-4486-b52a-0d57ee320fe0","title":"MS - CORUMBA","tipo":"Cebraspe","url":"\/dashboard\/details-assets\/771d330e-c307-4486-b52a-0d57ee320fe0","coordinates":[-57.6489854573401,-19.0063746540642]},{"id":"63214cce-aa21-48d7-9cd1-1bde8785c9b5","title":"MS - CAMPO GRANDE","tipo":"Cebraspe","url":"\/dashboard\/details-assets\/63214cce-aa21-48d7-9cd1-1bde8785c9b5","coordinates":[-54.6157435664588,-20.4580299872454]},{"id":"f3bc8167-b08d-4b2c-a5c1-82dad1309000","title":"MS - BATAGUASSU","tipo":"Cebraspe","url":"\/dashboard\/details-assets\/f3bc8167-b08d-4b2c-a5c1-82dad1309000","coordinates":[-52.4254366020331,-21.7152884351258]},{"id":"4c1ddd64-accc-4b96-908c-6abd68a875ec","title":"MS - BONITO","tipo":"Cebraspe","url":"\/dashboard\/details-assets\/4c1ddd64-accc-4b96-908c-6abd68a875ec","coordinates":[-56.492859,-21.124341]},{"id":"65cf4d14-9ad8-4b3b-9e20-85de148eb548","title":"MS - CAARAPO","tipo":"Cebraspe","url":"\/dashboard\/details-assets\/65cf4d14-9ad8-4b3b-9e20-85de148eb548","coordinates":[-54.8269701013583,-22.6365822187274]},{"id":"047a2ddf-ef2b-47f6-bc37-4046886a0c2c","title":"MS - AQUIDAUANA","tipo":"Cebraspe","url":"\/dashboard\/details-assets\/047a2ddf-ef2b-47f6-bc37-4046886a0c2c","coordinates":[-55.7906160902267,-20.4746543462973]},{"id":"1ce9c977-91aa-4069-b52d-9d551e4e6295","title":"MS - AMAMBAI","tipo":"Cebraspe","url":"\/dashboard\/details-assets\/1ce9c977-91aa-4069-b52d-9d551e4e6295","coordinates":[-55.2438276926237,-23.1005822376948]},{"id":"40306d12-129a-45a4-b540-7af403128d29","title":"MG - VICOSA","tipo":"Cebraspe","url":"\/dashboard\/details-assets\/40306d12-129a-45a4-b540-7af403128d29","coordinates":[-42.8794773756709,-20.7520720064035]},{"id":"4e80ba79-18a2-46b1-ba57-dfed79a2cfa0","title":"MG - VARGINHA","tipo":"Cebraspe","url":"\/dashboard\/details-assets\/4e80ba79-18a2-46b1-ba57-dfed79a2cfa0","coordinates":[-45.4318861442786,-21.557080038418]},{"id":"ea07fb0b-d44f-4c57-9e27-d7f5fe83397f","title":"MG - VESPASIANO","tipo":"Cebraspe","url":"\/dashboard\/details-assets\/ea07fb0b-d44f-4c57-9e27-d7f5fe83397f","coordinates":[-43.9199151867379,-19.693030439172]},{"id":"d2214ff7-067e-49cf-8b61-4abb9dc8ba8a","title":"MG - UBERLANDIA","tipo":"Cebraspe","url":"\/dashboard\/details-assets\/d2214ff7-067e-49cf-8b61-4abb9dc8ba8a","coordinates":[-48.2779501847345,-18.9189986087263]},{"id":"cb3c0086-9d56-4ee2-bdec-b62778eaa4be","title":"MG - UNAI","tipo":"Cebraspe","url":"\/dashboard\/details-assets\/cb3c0086-9d56-4ee2-bdec-b62778eaa4be","coordinates":[-46.899956595285,-16.3590084919872]},{"id":"60a4995d-c1b0-49c1-9885-ead985a3bb09","title":"MG - UBERABA","tipo":"Cebraspe","url":"\/dashboard\/details-assets\/60a4995d-c1b0-49c1-9885-ead985a3bb09","coordinates":[-47.9836248955742,-19.7135346065023]},{"id":"a28f58a2-4cbb-4b65-8511-8a183fce28a7","title":"MG - UBA","tipo":"Cebraspe","url":"\/dashboard\/details-assets\/a28f58a2-4cbb-4b65-8511-8a183fce28a7","coordinates":[-42.936786464392,-21.118596950863]},{"id":"229d4741-9dab-4d01-bab1-07c7bd4199cb","title":"MG - SETE LAGOAS","tipo":"Cebraspe","url":"\/dashboard\/details-assets\/229d4741-9dab-4d01-bab1-07c7bd4199cb","coordinates":[-44.239594615621,-19.4582874181575]},{"id":"a35a4ad2-1d63-49e6-af71-9c8ea59f1bac","title":"MG - TEOFILO OTONI","tipo":"Cebraspe","url":"\/dashboard\/details-assets\/a35a4ad2-1d63-49e6-af71-9c8ea59f1bac","coordinates":[-41.5096351657897,-17.8625398074625]},{"id":"101f1356-36ac-4340-af63-e93d652df89e","title":"MG - TRES MARIAS","tipo":"Cebraspe","url":"\/dashboard\/details-assets\/101f1356-36ac-4340-af63-e93d652df89e","coordinates":[-45.2257352467415,-18.2059212234568]},{"id":"d41b6002-edda-4bf6-8ce4-f51fb72f2d54","title":"MG - SAO JOAO DEL REI","tipo":"Cebraspe","url":"\/dashboard\/details-assets\/d41b6002-edda-4bf6-8ce4-f51fb72f2d54","coordinates":[-44.2609727347292,-21.1355089736821]},{"id":"3e2a147a-8343-4632-b1be-efdd0794361d","title":"MG - SAO SEBASTIAO DO PARAISO","tipo":"Cebraspe","url":"\/dashboard\/details-assets\/3e2a147a-8343-4632-b1be-efdd0794361d","coordinates":[-46.990833,-20.916944]},{"id":"bfe6c44b-7caa-4d71-9d07-928c84715050","title":"MG - SANTOS DUMONT","tipo":"Cebraspe","url":"\/dashboard\/details-assets\/bfe6c44b-7caa-4d71-9d07-928c84715050","coordinates":[-43.5537521652921,-21.4575319940584]},{"id":"314f0dae-6984-4a46-bab2-ca2c94b7c40b","title":"MG - SANTA LUZIA","tipo":"Cebraspe","url":"\/dashboard\/details-assets\/314f0dae-6984-4a46-bab2-ca2c94b7c40b","coordinates":[-43.8500072606321,-19.767616851921]},{"id":"221a6825-17f3-4bb8-9d77-4af31a2a24ce","title":"MG - SALINAS","tipo":"Cebraspe","url":"\/dashboard\/details-assets\/221a6825-17f3-4bb8-9d77-4af31a2a24ce","coordinates":[-42.2935064722757,-16.1698557316106]},{"id":"51b5326f-c4ea-4f4e-8da8-24359c0e7bc3","title":"MG - SABARA","tipo":"Cebraspe","url":"\/dashboard\/details-assets\/51b5326f-c4ea-4f4e-8da8-24359c0e7bc3","coordinates":[-43.8255570903302,-19.8924945114854]},{"id":"e0729140-21d5-4758-ac33-66da79b722eb","title":"MG - RIBEIRAO DAS NEVES","tipo":"Cebraspe","url":"\/dashboard\/details-assets\/e0729140-21d5-4758-ac33-66da79b722eb","coordinates":[-44.085823649141,-19.7660220148969]},{"id":"2a245b26-42de-4bfb-b153-df5338225882","title":"MG - POUSO ALEGRE","tipo":"Cebraspe","url":"\/dashboard\/details-assets\/2a245b26-42de-4bfb-b153-df5338225882","coordinates":[-45.9371442758265,-22.2303029944934]},{"id":"033c7b83-fc63-47be-8728-f647e127474d","title":"MG - PONTE NOVA","tipo":"Cebraspe","url":"\/dashboard\/details-assets\/033c7b83-fc63-47be-8728-f647e127474d","coordinates":[-42.9096842699379,-20.4166434218704]},{"id":"3721653e-ea67-4be5-bca5-d0688807b5f5","title":"MG - POCOS DE CALDAS","tipo":"Cebraspe","url":"\/dashboard\/details-assets\/3721653e-ea67-4be5-bca5-d0688807b5f5","coordinates":[-46.5664100449604,-21.7873635779441]},{"id":"a9083034-4240-42d7-ac21-5f5f5311f520","title":"MG - PEDRA AZUL","tipo":"Cebraspe","url":"\/dashboard\/details-assets\/a9083034-4240-42d7-ac21-5f5f5311f520","coordinates":[-41.4635922,-15.953656]},{"id":"75d83b21-7ae9-412d-93a7-084deb45649a","title":"MG - PIRAPORA","tipo":"Cebraspe","url":"\/dashboard\/details-assets\/75d83b21-7ae9-412d-93a7-084deb45649a","coordinates":[-44.9510653804875,-17.3495820950721]},{"id":"fa8a1b84-e3cd-4a07-8c9f-613ad033e99a","title":"MG - PASSOS","tipo":"Cebraspe","url":"\/dashboard\/details-assets\/fa8a1b84-e3cd-4a07-8c9f-613ad033e99a","coordinates":[-46.6114125680355,-20.7192119012384]},{"id":"fd1ef28f-8e6a-4180-951b-5c36daa6a122","title":"MG - PATROCINIO","tipo":"Cebraspe","url":"\/dashboard\/details-assets\/fd1ef28f-8e6a-4180-951b-5c36daa6a122","coordinates":[-46.9974382401645,-18.9408129607698]},{"id":"ed9e4481-e4a0-43b8-bd48-94b68e18887d","title":"MG - PATOS DE MINAS","tipo":"Cebraspe","url":"\/dashboard\/details-assets\/ed9e4481-e4a0-43b8-bd48-94b68e18887d","coordinates":[-46.5159156766059,-18.5925708193526]},{"id":"d8503a74-7c5f-4be7-a394-186b2d628ce5","title":"MG - PARA DE MINAS","tipo":"Cebraspe","url":"\/dashboard\/details-assets\/d8503a74-7c5f-4be7-a394-186b2d628ce5","coordinates":[-44.6053801878937,-19.8647379633427]},{"id":"3c966457-ee79-42bd-a48e-ab3eb3d36186","title":"MG - PARACATU","tipo":"Cebraspe","url":"\/dashboard\/details-assets\/3c966457-ee79-42bd-a48e-ab3eb3d36186","coordinates":[-46.8754188909564,-17.2197419096529]},{"id":"83589f10-b65f-4f27-939e-fbbdefa1adc5","title":"MG - NOVA LIMA","tipo":"Cebraspe","url":"\/dashboard\/details-assets\/83589f10-b65f-4f27-939e-fbbdefa1adc5","coordinates":[-43.8497833626163,-19.98389299326]},{"id":"c8bad42f-7cea-4a4f-90b9-efdd01239742","title":"MG - NOVA ERA","tipo":"Cebraspe","url":"\/dashboard\/details-assets\/c8bad42f-7cea-4a4f-90b9-efdd01239742","coordinates":[-43.0354568497189,-19.7644230680316]},{"id":"831bfdfb-e1ed-49fb-98ae-b19a79759a0d","title":"MG - OURO PRETO","tipo":"Cebraspe","url":"\/dashboard\/details-assets\/831bfdfb-e1ed-49fb-98ae-b19a79759a0d","coordinates":[-43.5064475197137,-20.3867763672491]},{"id":"613cd69c-3d7f-42d5-9d3b-210602337b5f","title":"MG - MURIAE","tipo":"Cebraspe","url":"\/dashboard\/details-assets\/613cd69c-3d7f-42d5-9d3b-210602337b5f","coordinates":[-42.3610748978923,-21.132046790875]},{"id":"b4db3178-966f-4a5d-9bc2-5aba199ce648","title":"MG - NANUQUE","tipo":"Cebraspe","url":"\/dashboard\/details-assets\/b4db3178-966f-4a5d-9bc2-5aba199ce648","coordinates":[-40.3517388336104,-17.8389933513878]},{"id":"c5104c22-9464-4fda-b7d3-bf84e1381f19","title":"MG - MANTENA","tipo":"Cebraspe","url":"\/dashboard\/details-assets\/c5104c22-9464-4fda-b7d3-bf84e1381f19","coordinates":[-40.9785257407467,-18.7806998743977]},{"id":"4d507c64-81ae-4041-ab57-94a7a45279e5","title":"MG - MONTE CARMELO","tipo":"Cebraspe","url":"\/dashboard\/details-assets\/4d507c64-81ae-4041-ab57-94a7a45279e5","coordinates":[-47.4959724312194,-18.7290384395177]},{"id":"fd91c6de-737f-4a97-8c50-7b7c39a4fef8","title":"MG - MONTES CLAROS","tipo":"Cebraspe","url":"\/dashboard\/details-assets\/fd91c6de-737f-4a97-8c50-7b7c39a4fef8","coordinates":[-43.8654224343832,-16.7227066394632]},{"id":"10b2b3cb-aaad-4b49-be7e-1bb91dbc31ce","title":"MG - MANGA","tipo":"Cebraspe","url":"\/dashboard\/details-assets\/10b2b3cb-aaad-4b49-be7e-1bb91dbc31ce","coordinates":[-43.9367615223531,-14.7559221139646]},{"id":"02c0c841-acb3-49bf-ac14-2ef2777e5062","title":"MG - MANHUACU","tipo":"Cebraspe","url":"\/dashboard\/details-assets\/02c0c841-acb3-49bf-ac14-2ef2777e5062","coordinates":[-42.0338482904372,-20.2586800826688]},{"id":"48926af9-8624-49a0-9364-e18aaec16d25","title":"MG - LAGOA SANTA","tipo":"Cebraspe","url":"\/dashboard\/details-assets\/48926af9-8624-49a0-9364-e18aaec16d25","coordinates":[-43.8984603808594,-19.6160018875511]},{"id":"4328cabf-b017-45e8-89e5-2daf13a0afab","title":"MG - LAVRAS","tipo":"Cebraspe","url":"\/dashboard\/details-assets\/4328cabf-b017-45e8-89e5-2daf13a0afab","coordinates":[-44.9999311091152,-21.242870236663]},{"id":"006c4269-9324-48f1-8465-9abbcda91b7e","title":"MG - LEOPOLDINA","tipo":"Cebraspe","url":"\/dashboard\/details-assets\/006c4269-9324-48f1-8465-9abbcda91b7e","coordinates":[-42.6418441295043,-21.5307293638842]},{"id":"9f527a71-4b07-416b-b57a-c765ef119cfc","title":"MG - JUIZ DE FORA","tipo":"Cebraspe","url":"\/dashboard\/details-assets\/9f527a71-4b07-416b-b57a-c765ef119cfc","coordinates":[-43.3488172724747,-21.760924308024]},{"id":"877eeed4-bddc-4af5-9df2-67a78590edb5","title":"MG - JANUARIA","tipo":"Cebraspe","url":"\/dashboard\/details-assets\/877eeed4-bddc-4af5-9df2-67a78590edb5","coordinates":[-44.3598053349032,-15.4878728135018]},{"id":"08fd4b1a-0c4e-4aa8-bc8e-309644a8a10a","title":"MG - ITUIUTABA","tipo":"Cebraspe","url":"\/dashboard\/details-assets\/08fd4b1a-0c4e-4aa8-bc8e-309644a8a10a","coordinates":[-49.4622351892104,-18.9730676803352]},{"id":"a8da0666-f511-4301-86b2-78f3ad6f1503","title":"MG - ITAUNA","tipo":"Cebraspe","url":"\/dashboard\/details-assets\/a8da0666-f511-4301-86b2-78f3ad6f1503","coordinates":[-44.5782765780477,-20.0744355861985]},{"id":"ef76dac3-7420-4bde-9f03-5ea7b7da68b5","title":"MG - JANAUBA","tipo":"Cebraspe","url":"\/dashboard\/details-assets\/ef76dac3-7420-4bde-9f03-5ea7b7da68b5","coordinates":[-43.3076829437623,-15.799028457872]},{"id":"3e981f4f-8737-441c-852e-4d93361ff5a4","title":"MG - ITAMARANDIBA","tipo":"Cebraspe","url":"\/dashboard\/details-assets\/3e981f4f-8737-441c-852e-4d93361ff5a4","coordinates":[-42.8491577569261,-17.858517325276]},{"id":"37733dce-bce3-4093-adc2-96de7f0c1a1f","title":"MG - ITAJUBA","tipo":"Cebraspe","url":"\/dashboard\/details-assets\/37733dce-bce3-4093-adc2-96de7f0c1a1f","coordinates":[-45.4645825045044,-22.4306005738282]},{"id":"0f41034b-00da-4a49-8dd4-ded0aadeb128","title":"MG - IPATINGA","tipo":"Cebraspe","url":"\/dashboard\/details-assets\/0f41034b-00da-4a49-8dd4-ded0aadeb128","coordinates":[-42.5203511114107,-19.4810320966711]},{"id":"5981cd51-497d-4692-a434-06b400e44378","title":"MG - ITABIRA","tipo":"Cebraspe","url":"\/dashboard\/details-assets\/5981cd51-497d-4692-a434-06b400e44378","coordinates":[-43.2239516190304,-19.6381694919856]},