{"type":"FeatureCollection","features":[{"type":"Feature","properties":{"municipio":"fc74adb6-9db0-4b08-8255-ed25a131292e","title":"RO - PORTO VELHO","tipo":"Cebraspe","url":"\/dashboard\/details-assets\/fc74adb6-9db0-4b08-8255-ed25a131292e"},"geometry":{"type":"Point","coordinates":[-63.8999,-8.76077]}},{"type":"Feature","properties":{"municipio":"6d65c46d-52a7-4e7d-8b3e-47a24a7cacb7","title":"DF - BRASILIA","tipo":"Cebraspe","url":"\/dashboard\/details-assets\/6d65c46d-52a7-4e7d-8b3e-47a24a7cacb7"},"geometry":{"type":"Point","coordinates":[-47.8821658,-15.7942287]}},{"type":"Feature","properties":{"municipio":"0be9d380-4af9-4215-989e-91e7427a9baf","title":"PR - CURITIBA","tipo":"Cebraspe","url":"\/dashboard\/details-assets\/0be9d380-4af9-4215-989e-91e7427a9baf"},"geometry":{"type":"Point","coordinates":[-49.2718478850774,-25.4329559992677]}},{"type":"Feature","properties":{"municipio":"a95428bf-0b32-47d0-866d-39bfffd170c5","title":"SP - SAO PAULO","tipo":"Cebraspe","url":"\/dashboard\/details-assets\/a95428bf-0b32-47d0-866d-39bfffd170c5"},"geometry":{"type":"Point","coordinates":[-46.5703831821128,-23.567386499308]}},{"type":"Feature","properties":{"municipio":"351dda65-5b07-4398-90a4-ef5f3e05391e","title":"BA - SALVADOR","tipo":"Cebraspe","url":"\/dashboard\/details-assets\/351dda65-5b07-4398-90a4-ef5f3e05391e"},"geometry":{"type":"Point","coordinates":[-38.4894342910156,-12.9906865792986]}},{"type":"Feature","properties":{"municipio":"6d272732-6af2-4432-aedb-478778d72803","title":"MG - BELO HORIZONTE","tipo":"Cebraspe","url":"\/dashboard\/details-assets\/6d272732-6af2-4432-aedb-478778d72803"},"geometry":{"type":"Point","coordinates":[-43.9264531735305,-19.9375242931696]}},{"type":"Feature","properties":{"municipio":"63b5e635-8818-4773-9699-936bbda1cef2","title":"CE - FORTALEZA","tipo":"Cebraspe","url":"\/dashboard\/details-assets\/63b5e635-8818-4773-9699-936bbda1cef2"},"geometry":{"type":"Point","coordinates":[-38.5899275550432,-3.72380503487754]}},{"type":"Feature","properties":{"municipio":"0d9e3ea6-3ccc-46f0-8f4b-25970eee3e97","title":"PA - BELEM","tipo":"Cebraspe","url":"\/dashboard\/details-assets\/0d9e3ea6-3ccc-46f0-8f4b-25970eee3e97"},"geometry":{"type":"Point","coordinates":[-48.4878256874876,-1.45984499995188]}},{"type":"Feature","properties":{"municipio":"f8379553-e84c-43d3-a21f-5cd20ef6a97b","title":"MS - CAMPO GRANDE","tipo":"Cebraspe","url":"\/dashboard\/details-assets\/f8379553-e84c-43d3-a21f-5cd20ef6a97b"},"geometry":{"type":"Point","coordinates":[-54.6157435664588,-20.4580299872454]}},{"type":"Feature","properties":{"municipio":"30a889fa-e006-4dfb-b075-1fee8d9f4f25","title":"RS - PORTO ALEGRE","tipo":"Cebraspe","url":"\/dashboard\/details-assets\/30a889fa-e006-4dfb-b075-1fee8d9f4f25"},"geometry":{"type":"Point","coordinates":[-51.2176584,-30.0346471]}},{"type":"Feature","properties":{"municipio":"cdb7f792-6d58-423d-8fe6-5b57583c364d","title":"RJ - RIO DE JANEIRO","tipo":"Cebraspe","url":"\/dashboard\/details-assets\/cdb7f792-6d58-423d-8fe6-5b57583c364d"},"geometry":{"type":"Point","coordinates":[-43.209228515625,-22.9160255902384]}},{"type":"Feature","properties":{"municipio":"87688607-4b9a-4128-a34d-48219a403080","title":"AC - RIO BRANCO","tipo":"Cebraspe","url":"\/dashboard\/details-assets\/87688607-4b9a-4128-a34d-48219a403080"},"geometry":{"type":"Point","coordinates":[-67.8298530625,-9.97343719016406]}},{"type":"Feature","properties":{"municipio":"33bdbbfc-6e99-470c-a8a3-7d048de673a2","title":"PE - RECIFE","tipo":"Cebraspe","url":"\/dashboard\/details-assets\/33bdbbfc-6e99-470c-a8a3-7d048de673a2"},"geometry":{"type":"Point","coordinates":[-34.8889419445777,-8.06276248279001]}},{"type":"Feature","properties":{"municipio":"14e3dda0-d732-4405-94bb-0c92be3a32a7","title":"AM - MANAUS","tipo":"Cebraspe","url":"\/dashboard\/details-assets\/14e3dda0-d732-4405-94bb-0c92be3a32a7"},"geometry":{"type":"Point","coordinates":[-60.023335181061,-3.13469149109877]}}]}