{"type":"FeatureCollection","features":[{"type":"Feature","properties":{"municipio":"db0b0457-82dc-46da-b9c8-433d9a67a1b4","title":"TO - XAMBIOA","name":"TO - XAMBIOA","tipo":"Munic\u00edpio","url":"\/dashboard\/details-assets\/db0b0457-82dc-46da-b9c8-433d9a67a1b4"},"geometry":{"type":"Point","coordinates":[-48.438758,-6.534881]}},{"type":"Feature","properties":{"municipio":"5170516e-4fd6-4ad8-a03d-599870755e73","title":"TO - WANDERLANDIA","name":"TO - WANDERLANDIA","tipo":"Munic\u00edpio","url":"\/dashboard\/details-assets\/5170516e-4fd6-4ad8-a03d-599870755e73"},"geometry":{"type":"Point","coordinates":[-47.987982,-6.852034]}},{"type":"Feature","properties":{"municipio":"b39b8515-2e97-4e9c-9714-12b1a241ce24","title":"TO - TOCANTINOPOLIS","name":"TO - TOCANTINOPOLIS","tipo":"Munic\u00edpio","url":"\/dashboard\/details-assets\/b39b8515-2e97-4e9c-9714-12b1a241ce24"},"geometry":{"type":"Point","coordinates":[-47.429498,-6.324747]}},{"type":"Feature","properties":{"municipio":"f43b4288-9167-4f24-b783-632b443e878e","title":"TO - TAGUATINGA","name":"TO - TAGUATINGA","tipo":"Munic\u00edpio","url":"\/dashboard\/details-assets\/f43b4288-9167-4f24-b783-632b443e878e"},"geometry":{"type":"Point","coordinates":[-46.442844,-12.406006]}},{"type":"Feature","properties":{"municipio":"f6de6c67-932d-4140-b8e3-47da3f67c635","title":"TO - SITIO NOVO DO TOCANTINS","name":"TO - SITIO NOVO DO TOCANTINS","tipo":"Munic\u00edpio","url":"\/dashboard\/details-assets\/f6de6c67-932d-4140-b8e3-47da3f67c635"},"geometry":{"type":"Point","coordinates":[-47.652845,-5.614472]}},{"type":"Feature","properties":{"municipio":"9dbe7467-cd07-47ff-9766-7508c4c0f645","title":"TO - SANTA FE DO ARAGUAIA","name":"TO - SANTA FE DO ARAGUAIA","tipo":"Munic\u00edpio","url":"\/dashboard\/details-assets\/9dbe7467-cd07-47ff-9766-7508c4c0f645"},"geometry":{"type":"Point","coordinates":[-48.766963,-7.171245]}},{"type":"Feature","properties":{"municipio":"5c59ab2c-9150-4f87-b710-b4c707b882bc","title":"TO - PORTO NACIONAL","name":"TO - PORTO NACIONAL","tipo":"Munic\u00edpio","url":"\/dashboard\/details-assets\/5c59ab2c-9150-4f87-b710-b4c707b882bc"},"geometry":{"type":"Point","coordinates":[-48.408486,-10.703164]}},{"type":"Feature","properties":{"municipio":"4e3a8f6e-31f4-4420-8d38-fb9078690c43","title":"TO - PEIXE","name":"TO - PEIXE","tipo":"Munic\u00edpio","url":"\/dashboard\/details-assets\/4e3a8f6e-31f4-4420-8d38-fb9078690c43"},"geometry":{"type":"Point","coordinates":[-48.548696,-12.025853]}},{"type":"Feature","properties":{"municipio":"16a348f0-9ccf-43aa-9adc-3a1dde30d80e","title":"TO - PEDRO AFONSO","name":"TO - PEDRO AFONSO","tipo":"Munic\u00edpio","url":"\/dashboard\/details-assets\/16a348f0-9ccf-43aa-9adc-3a1dde30d80e"},"geometry":{"type":"Point","coordinates":[-48.178975,-8.962943]}},{"type":"Feature","properties":{"municipio":"33e8d540-54e6-4711-94f0-9918c4471baa","title":"TO - PARAISO DO TOCANTINS","name":"TO - PARAISO DO TOCANTINS","tipo":"Munic\u00edpio","url":"\/dashboard\/details-assets\/33e8d540-54e6-4711-94f0-9918c4471baa"},"geometry":{"type":"Point","coordinates":[-48.874963,-10.102218]}},{"type":"Feature","properties":{"municipio":"341e3804-2ad4-49ce-9ed0-3c90e01d7f70","title":"TO - PALMEIROPOLIS","name":"TO - PALMEIROPOLIS","tipo":"Munic\u00edpio","url":"\/dashboard\/details-assets\/341e3804-2ad4-49ce-9ed0-3c90e01d7f70"},"geometry":{"type":"Point","coordinates":[-48.407342,-13.042427]}},{"type":"Feature","properties":{"municipio":"75a7b543-79dc-4f55-9505-674f70873da6","title":"TO - PALMAS","name":"TO - PALMAS","tipo":"Munic\u00edpio","url":"\/dashboard\/details-assets\/75a7b543-79dc-4f55-9505-674f70873da6"},"geometry":{"type":"Point","coordinates":[-48.317036,-10.230299]}},{"type":"Feature","properties":{"municipio":"785d50aa-a949-4380-96be-68c122501553","title":"TO - NOVO ACORDO","name":"TO - NOVO ACORDO","tipo":"Munic\u00edpio","url":"\/dashboard\/details-assets\/785d50aa-a949-4380-96be-68c122501553"},"geometry":{"type":"Point","coordinates":[-47.683543,-9.992394]}},{"type":"Feature","properties":{"municipio":"eb80f78b-4488-47b2-b18f-92034301df6f","title":"TO - NATIVIDADE","name":"TO - NATIVIDADE","tipo":"Munic\u00edpio","url":"\/dashboard\/details-assets\/eb80f78b-4488-47b2-b18f-92034301df6f"},"geometry":{"type":"Point","coordinates":[-47.684901,-11.876469]}},{"type":"Feature","properties":{"municipio":"f40f761f-5ede-4b37-a537-c0ed9f82587e","title":"TO - MIRACEMA DO TOCANTINS","name":"TO - MIRACEMA DO TOCANTINS","tipo":"Munic\u00edpio","url":"\/dashboard\/details-assets\/f40f761f-5ede-4b37-a537-c0ed9f82587e"},"geometry":{"type":"Point","coordinates":[-48.419984,-9.570547]}},{"type":"Feature","properties":{"municipio":"ac75616f-adc4-4a6c-bd9f-06b9331d9315","title":"TO - ITACAJA","name":"TO - ITACAJA","tipo":"Munic\u00edpio","url":"\/dashboard\/details-assets\/ac75616f-adc4-4a6c-bd9f-06b9331d9315"},"geometry":{"type":"Point","coordinates":[-47.783532,-8.373788]}},{"type":"Feature","properties":{"municipio":"a8ed0fc6-af40-4095-b2d4-ff52496bc781","title":"TO - GURUPI","name":"TO - GURUPI","tipo":"Munic\u00edpio","url":"\/dashboard\/details-assets\/a8ed0fc6-af40-4095-b2d4-ff52496bc781"},"geometry":{"type":"Point","coordinates":[-49.120839,-11.735005]}},{"type":"Feature","properties":{"municipio":"4165b528-2fb8-48bd-918b-7e6a47d52ae4","title":"TO - GUARAI","name":"TO - GUARAI","tipo":"Munic\u00edpio","url":"\/dashboard\/details-assets\/4165b528-2fb8-48bd-918b-7e6a47d52ae4"},"geometry":{"type":"Point","coordinates":[-48.525934,-8.841813]}},{"type":"Feature","properties":{"municipio":"479c4b0c-dab9-4356-9c45-a52208eeb10b","title":"TO - FORMOSO DO ARAGUAIA","name":"TO - FORMOSO DO ARAGUAIA","tipo":"Munic\u00edpio","url":"\/dashboard\/details-assets\/479c4b0c-dab9-4356-9c45-a52208eeb10b"},"geometry":{"type":"Point","coordinates":[-49.536601,-11.80576]}},{"type":"Feature","properties":{"municipio":"6baa4f72-9bf4-41fc-9318-ba04781f1c9a","title":"TO - ESPERANTINA","name":"TO - ESPERANTINA","tipo":"Munic\u00edpio","url":"\/dashboard\/details-assets\/6baa4f72-9bf4-41fc-9318-ba04781f1c9a"},"geometry":{"type":"Point","coordinates":[-48.540014,-5.36695]}},{"type":"Feature","properties":{"municipio":"3d18e498-2ac9-4dd4-b63f-5f1db2b51d2c","title":"TO - DIANOPOLIS","name":"TO - DIANOPOLIS","tipo":"Munic\u00edpio","url":"\/dashboard\/details-assets\/3d18e498-2ac9-4dd4-b63f-5f1db2b51d2c"},"geometry":{"type":"Point","coordinates":[-46.825934,-11.748062]}},{"type":"Feature","properties":{"municipio":"950fb51b-47ac-4dc1-be64-ae4bb54a1c81","title":"TO - CRISTALANDIA","name":"TO - CRISTALANDIA","tipo":"Munic\u00edpio","url":"\/dashboard\/details-assets\/950fb51b-47ac-4dc1-be64-ae4bb54a1c81"},"geometry":{"type":"Point","coordinates":[-49.221381,-10.579947]}},{"type":"Feature","properties":{"municipio":"dad30ed0-f381-47c3-9491-1db2f8912959","title":"TO - COLINAS DO TOCANTINS","name":"TO - COLINAS DO TOCANTINS","tipo":"Munic\u00edpio","url":"\/dashboard\/details-assets\/dad30ed0-f381-47c3-9491-1db2f8912959"},"geometry":{"type":"Point","coordinates":[-48.448591,-7.990545]}},{"type":"Feature","properties":{"municipio":"a05e822d-100e-4154-8cf7-ccfeac2e5e31","title":"TO - BREJINHO DE NAZARE","name":"TO - BREJINHO DE NAZARE","tipo":"Munic\u00edpio","url":"\/dashboard\/details-assets\/a05e822d-100e-4154-8cf7-ccfeac2e5e31"},"geometry":{"type":"Point","coordinates":[-48.638888,-11.035535]}},{"type":"Feature","properties":{"municipio":"2a92f7bf-c5f6-46e8-b030-cbf24c1c48a0","title":"TO - AUGUSTINOPOLIS","name":"TO - AUGUSTINOPOLIS","tipo":"Munic\u00edpio","url":"\/dashboard\/details-assets\/2a92f7bf-c5f6-46e8-b030-cbf24c1c48a0"},"geometry":{"type":"Point","coordinates":[-47.887112,-5.469433]}},{"type":"Feature","properties":{"municipio":"c29b461a-11c7-4761-8029-1f1f43767b07","title":"TO - ARRAIAS","name":"TO - ARRAIAS","tipo":"Munic\u00edpio","url":"\/dashboard\/details-assets\/c29b461a-11c7-4761-8029-1f1f43767b07"},"geometry":{"type":"Point","coordinates":[-46.98051,-12.67706]}},{"type":"Feature","properties":{"municipio":"88c31068-8b3e-47fa-8820-e9e18bf94305","title":"TO - ARAPOEMA","name":"TO - ARAPOEMA","tipo":"Munic\u00edpio","url":"\/dashboard\/details-assets\/88c31068-8b3e-47fa-8820-e9e18bf94305"},"geometry":{"type":"Point","coordinates":[-49.064131,-7.655037]}},{"type":"Feature","properties":{"municipio":"2b450cbc-b69a-45cd-a074-10345e09decc","title":"TO - ARAGUATINS","name":"TO - ARAGUATINS","tipo":"Munic\u00edpio","url":"\/dashboard\/details-assets\/2b450cbc-b69a-45cd-a074-10345e09decc"},"geometry":{"type":"Point","coordinates":[-48.119389,-5.648411]}},{"type":"Feature","properties":{"municipio":"d4dcffd4-1c36-4d55-8ab6-ed6485021282","title":"TO - ARAGUANA","name":"TO - ARAGUANA","tipo":"Munic\u00edpio","url":"\/dashboard\/details-assets\/d4dcffd4-1c36-4d55-8ab6-ed6485021282"},"geometry":{"type":"Point","coordinates":[-48.518723,-6.81017]}},{"type":"Feature","properties":{"municipio":"0c92e8e2-a89c-4baf-989e-dde682b8bb0e","title":"TO - ARAGUAINA","name":"TO - ARAGUAINA","tipo":"Munic\u00edpio","url":"\/dashboard\/details-assets\/0c92e8e2-a89c-4baf-989e-dde682b8bb0e"},"geometry":{"type":"Point","coordinates":[-48.287407,-7.210941]}},{"type":"Feature","properties":{"municipio":"1d7e32ea-3f47-4ff4-8158-1b51f640727f","title":"TO - ANANAS","name":"TO - ANANAS","tipo":"Munic\u00edpio","url":"\/dashboard\/details-assets\/1d7e32ea-3f47-4ff4-8158-1b51f640727f"},"geometry":{"type":"Point","coordinates":[-48.073889,-6.364762]}},{"type":"Feature","properties":{"municipio":"0862eb97-8034-457c-b66b-cd13654de223","title":"SE - UMBAUBA","name":"SE - UMBAUBA","tipo":"Munic\u00edpio","url":"\/dashboard\/details-assets\/0862eb97-8034-457c-b66b-cd13654de223"},"geometry":{"type":"Point","coordinates":[-37.659948,-11.416068]}},{"type":"Feature","properties":{"municipio":"2777aea8-a494-439d-a4c7-97506b57ac03","title":"SE - TOBIAS BARRETO","name":"SE - TOBIAS BARRETO","tipo":"Munic\u00edpio","url":"\/dashboard\/details-assets\/2777aea8-a494-439d-a4c7-97506b57ac03"},"geometry":{"type":"Point","coordinates":[-38.000521,-11.185188]}},{"type":"Feature","properties":{"municipio":"f2d48654-ee9b-4f75-af6f-f4fb56c77bc8","title":"SE - SIMAO DIAS","name":"SE - SIMAO DIAS","tipo":"Munic\u00edpio","url":"\/dashboard\/details-assets\/f2d48654-ee9b-4f75-af6f-f4fb56c77bc8"},"geometry":{"type":"Point","coordinates":[-37.809338,-10.739792]}},{"type":"Feature","properties":{"municipio":"f30f998b-fb38-4be3-83c4-0cea623e4ebb","title":"SE - SAO CRISTOVAO","name":"SE - SAO CRISTOVAO","tipo":"Munic\u00edpio","url":"\/dashboard\/details-assets\/f30f998b-fb38-4be3-83c4-0cea623e4ebb"},"geometry":{"type":"Point","coordinates":[-37.205934,-11.012236]}},{"type":"Feature","properties":{"municipio":"19a2f492-f3cf-4b59-afdb-04c4c94dc079","title":"SE - SANTA ROSA DE LIMA","name":"SE - SANTA ROSA DE LIMA","tipo":"Munic\u00edpio","url":"\/dashboard\/details-assets\/19a2f492-f3cf-4b59-afdb-04c4c94dc079"},"geometry":{"type":"Point","coordinates":[-37193078,-10646335]}},{"type":"Feature","properties":{"municipio":"35255bde-03e6-4b38-b03f-3899aad5e972","title":"SE - RIACHUELO","name":"SE - RIACHUELO","tipo":"Munic\u00edpio","url":"\/dashboard\/details-assets\/35255bde-03e6-4b38-b03f-3899aad5e972"},"geometry":{"type":"Point","coordinates":[-37.187039,-10.732649]}},{"type":"Feature","properties":{"municipio":"f2999df4-e3d0-42f6-a672-7db2766468e7","title":"SE - PROPRIA","name":"SE - PROPRIA","tipo":"Munic\u00edpio","url":"\/dashboard\/details-assets\/f2999df4-e3d0-42f6-a672-7db2766468e7"},"geometry":{"type":"Point","coordinates":[-36.837185,-10.212228]}},{"type":"Feature","properties":{"municipio":"c8ac59dc-044a-438e-9140-115840001030","title":"SE - PORTO DA FOLHA","name":"SE - PORTO DA FOLHA","tipo":"Munic\u00edpio","url":"\/dashboard\/details-assets\/c8ac59dc-044a-438e-9140-115840001030"},"geometry":{"type":"Point","coordinates":[-37.275759,-9.919741]}},{"type":"Feature","properties":{"municipio":"75c53d7d-d34b-488d-b408-a6eb3e630aba","title":"SE - POCO VERDE","name":"SE - POCO VERDE","tipo":"Munic\u00edpio","url":"\/dashboard\/details-assets\/75c53d7d-d34b-488d-b408-a6eb3e630aba"},"geometry":{"type":"Point","coordinates":[-38.173065,-10.717071]}},{"type":"Feature","properties":{"municipio":"955e7c3f-9b85-4160-ad7d-703c7841b9c3","title":"SE - POCO REDONDO","name":"SE - POCO REDONDO","tipo":"Munic\u00edpio","url":"\/dashboard\/details-assets\/955e7c3f-9b85-4160-ad7d-703c7841b9c3"},"geometry":{"type":"Point","coordinates":[-37.723768,-9.822267]}},{"type":"Feature","properties":{"municipio":"4169a0de-10e7-4936-a482-d960f78e414c","title":"SE - NOSSA SENHORA DO SOCORRO","name":"SE - NOSSA SENHORA DO SOCORRO","tipo":"Munic\u00edpio","url":"\/dashboard\/details-assets\/4169a0de-10e7-4936-a482-d960f78e414c"},"geometry":{"type":"Point","coordinates":[-37.126979,-10.853164]}},{"type":"Feature","properties":{"municipio":"868e1ed3-337b-4e4c-87b1-37da4ce91270","title":"SE - NOSSA SENHORA DAS DORES","name":"SE - NOSSA SENHORA DAS DORES","tipo":"Munic\u00edpio","url":"\/dashboard\/details-assets\/868e1ed3-337b-4e4c-87b1-37da4ce91270"},"geometry":{"type":"Point","coordinates":[-37.196622,-10.485792]}},{"type":"Feature","properties":{"municipio":"df882477-c4db-446f-acd7-47901f428d9c","title":"SE - NOSSA SENHORA DA GLORIA","name":"SE - NOSSA SENHORA DA GLORIA","tipo":"Munic\u00edpio","url":"\/dashboard\/details-assets\/df882477-c4db-446f-acd7-47901f428d9c"},"geometry":{"type":"Point","coordinates":[-37.421281,-10.215655]}},{"type":"Feature","properties":{"municipio":"a60c2e3d-86ac-410c-ac72-c2ebc428cb58","title":"SE - NOSSA SENHORA APARECIDA","name":"SE - NOSSA SENHORA APARECIDA","tipo":"Munic\u00edpio","url":"\/dashboard\/details-assets\/a60c2e3d-86ac-410c-ac72-c2ebc428cb58"},"geometry":{"type":"Point","coordinates":[-37454432,-10397443]}},{"type":"Feature","properties":{"municipio":"749d3ca6-d1ca-4cd8-85b8-33390c3fd29a","title":"SE - NEOPOLIS","name":"SE - NEOPOLIS","tipo":"Munic\u00edpio","url":"\/dashboard\/details-assets\/749d3ca6-d1ca-4cd8-85b8-33390c3fd29a"},"geometry":{"type":"Point","coordinates":[-36.585281,-10.321944]}},{"type":"Feature","properties":{"municipio":"2779d8d0-202c-4fc2-8344-c888c9edc653","title":"SE - MONTE ALEGRE DE SERGIPE","name":"SE - MONTE ALEGRE DE SERGIPE","tipo":"Munic\u00edpio","url":"\/dashboard\/details-assets\/2779d8d0-202c-4fc2-8344-c888c9edc653"},"geometry":{"type":"Point","coordinates":[-37561432,-10028255]}},{"type":"Feature","properties":{"municipio":"b679862e-05ab-43b1-a6c8-6d985dbe438c","title":"SE - MARUIM","name":"SE - MARUIM","tipo":"Munic\u00edpio","url":"\/dashboard\/details-assets\/b679862e-05ab-43b1-a6c8-6d985dbe438c"},"geometry":{"type":"Point","coordinates":[-37.085935,-10.731196]}},{"type":"Feature","properties":{"municipio":"2cfd07e8-2049-48fa-99e4-9efe6eaeb964","title":"SE - LARANJEIRAS","name":"SE - LARANJEIRAS","tipo":"Munic\u00edpio","url":"\/dashboard\/details-assets\/2cfd07e8-2049-48fa-99e4-9efe6eaeb964"},"geometry":{"type":"Point","coordinates":[-37167937,-10804856]}},{"type":"Feature","properties":{"municipio":"7c9a504e-6d87-4b1a-accf-4c37faa63f77","title":"SE - LAGARTO","name":"SE - LAGARTO","tipo":"Munic\u00edpio","url":"\/dashboard\/details-assets\/7c9a504e-6d87-4b1a-accf-4c37faa63f77"},"geometry":{"type":"Point","coordinates":[-37.666353,-10.915301]}},{"type":"Feature","properties":{"municipio":"5f268fbd-84ce-4ddf-ac0e-2c307504ed13","title":"SE - JAPARATUBA","name":"SE - JAPARATUBA","tipo":"Munic\u00edpio","url":"\/dashboard\/details-assets\/5f268fbd-84ce-4ddf-ac0e-2c307504ed13"},"geometry":{"type":"Point","coordinates":[-36.942008,-10.577323]}},{"type":"Feature","properties":{"municipio":"f50347c6-1843-46b7-9f3d-3f5fb063d997","title":"SE - ITAPORANGA DAJUDA","name":"SE - ITAPORANGA DAJUDA","tipo":"Munic\u00edpio","url":"\/dashboard\/details-assets\/f50347c6-1843-46b7-9f3d-3f5fb063d997"},"geometry":{"type":"Point","coordinates":[-37.307827,-10.996733]}},{"type":"Feature","properties":{"municipio":"70844b7d-290f-4699-a81b-c8e7cd224b96","title":"SE - ITABAIANINHA","name":"SE - ITABAIANINHA","tipo":"Munic\u00edpio","url":"\/dashboard\/details-assets\/70844b7d-290f-4699-a81b-c8e7cd224b96"},"geometry":{"type":"Point","coordinates":[-37.787411,-11.276785]}},{"type":"Feature","properties":{"municipio":"a95dc884-50d2-409a-8e54-2c9987f2aad4","title":"SE - INDIAROBA","name":"SE - INDIAROBA","tipo":"Munic\u00edpio","url":"\/dashboard\/details-assets\/a95dc884-50d2-409a-8e54-2c9987f2aad4"},"geometry":{"type":"Point","coordinates":[-37.515095,-11.518507]}},{"type":"Feature","properties":{"municipio":"c1c3967c-4933-4e8a-8fdc-100ec028023f","title":"SE - ITABAIANA","name":"SE - ITABAIANA","tipo":"Munic\u00edpio","url":"\/dashboard\/details-assets\/c1c3967c-4933-4e8a-8fdc-100ec028023f"},"geometry":{"type":"Point","coordinates":[-37.426861,-10.685716]}},{"type":"Feature","properties":{"municipio":"ee26f480-ab01-4358-9d93-80ea5a3d2b6e","title":"SE - GARARU","name":"SE - GARARU","tipo":"Munic\u00edpio","url":"\/dashboard\/details-assets\/ee26f480-ab01-4358-9d93-80ea5a3d2b6e"},"geometry":{"type":"Point","coordinates":[-37.084372,-9.967351]}},{"type":"Feature","properties":{"municipio":"8d781daa-84db-4341-af0c-891001da722a","title":"SE - ESTANCIA","name":"SE - ESTANCIA","tipo":"Munic\u00edpio","url":"\/dashboard\/details-assets\/8d781daa-84db-4341-af0c-891001da722a"},"geometry":{"type":"Point","coordinates":[-37.440011,-11.267949]}},{"type":"Feature","properties":{"municipio":"67e2babb-4b51-43f4-a2a9-952c0c0ff880","title":"SE - CARMOPOLIS","name":"SE - CARMOPOLIS","tipo":"Munic\u00edpio","url":"\/dashboard\/details-assets\/67e2babb-4b51-43f4-a2a9-952c0c0ff880"},"geometry":{"type":"Point","coordinates":[-36.989078,-10.645303]}},{"type":"Feature","properties":{"municipio":"8c8ca1f6-380d-4804-988b-b06c2c3badc2","title":"SE - CARIRA","name":"SE - CARIRA","tipo":"Munic\u00edpio","url":"\/dashboard\/details-assets\/8c8ca1f6-380d-4804-988b-b06c2c3badc2"},"geometry":{"type":"Point","coordinates":[-37.701919,-10.358017]}},{"type":"Feature","properties":{"municipio":"e3bfbf2b-4f90-4a0c-9084-f8dc017729b7","title":"SE - CAPELA","name":"SE - CAPELA","tipo":"Munic\u00edpio","url":"\/dashboard\/details-assets\/e3bfbf2b-4f90-4a0c-9084-f8dc017729b7"},"geometry":{"type":"Point","coordinates":[-37.054833,-10.5061]}},{"type":"Feature","properties":{"municipio":"9ce421db-7567-4d42-9d2b-b820e79da473","title":"SE - CANINDE DE SAO FRANCISCO","name":"SE - CANINDE DE SAO FRANCISCO","tipo":"Munic\u00edpio","url":"\/dashboard\/details-assets\/9ce421db-7567-4d42-9d2b-b820e79da473"},"geometry":{"type":"Point","coordinates":[-37.822052,-9.64847]}},{"type":"Feature","properties":{"municipio":"f7de6985-31f8-47cf-9817-22871d5c0fa1","title":"SE - CAMPO DO BRITO","name":"SE - CAMPO DO BRITO","tipo":"Munic\u00edpio","url":"\/dashboard\/details-assets\/f7de6985-31f8-47cf-9817-22871d5c0fa1"},"geometry":{"type":"Point","coordinates":[-37.496356,-10.743335]}},{"type":"Feature","properties":{"municipio":"532a9924-2a51-411b-996b-86f72b9a0db3","title":"SE - BOQUIM","name":"SE - BOQUIM","tipo":"Munic\u00edpio","url":"\/dashboard\/details-assets\/532a9924-2a51-411b-996b-86f72b9a0db3"},"geometry":{"type":"Point","coordinates":[-37.623573,-11.146392]}},{"type":"Feature","properties":{"municipio":"f7f1628c-c9dd-495c-95b3-bd97a47455e1","title":"SE - AREIA BRANCA","name":"SE - AREIA BRANCA","tipo":"Munic\u00edpio","url":"\/dashboard\/details-assets\/f7f1628c-c9dd-495c-95b3-bd97a47455e1"},"geometry":{"type":"Point","coordinates":[-37.324314,-10.776843]}},{"type":"Feature","properties":{"municipio":"15efa40b-4692-45a1-ac27-721258e43475","title":"SE - ARACAJU","name":"SE - ARACAJU","tipo":"Munic\u00edpio","url":"\/dashboard\/details-assets\/15efa40b-4692-45a1-ac27-721258e43475"},"geometry":{"type":"Point","coordinates":[-37.073082,-10.947247]}},{"type":"Feature","properties":{"municipio":"870e3d93-a9e0-4625-b48f-9f75943f746f","title":"SP - VOTUPORANGA","name":"SP - VOTUPORANGA","tipo":"Munic\u00edpio","url":"\/dashboard\/details-assets\/870e3d93-a9e0-4625-b48f-9f75943f746f"},"geometry":{"type":"Point","coordinates":[-49.970325,-20.417194]}},{"type":"Feature","properties":{"municipio":"699c4a57-536d-4922-b6b0-98018133763b","title":"SP - VOTORANTIM","name":"SP - VOTORANTIM","tipo":"Munic\u00edpio","url":"\/dashboard\/details-assets\/699c4a57-536d-4922-b6b0-98018133763b"},"geometry":{"type":"Point","coordinates":[-47.444598,-23.540286]}},{"type":"Feature","properties":{"municipio":"1498dfac-51fc-4589-9a44-d4c9e80d787a","title":"SP - VINHEDO","name":"SP - VINHEDO","tipo":"Munic\u00edpio","url":"\/dashboard\/details-assets\/1498dfac-51fc-4589-9a44-d4c9e80d787a"},"geometry":{"type":"Point","coordinates":[-46.976476,-23.030538]}},{"type":"Feature","properties":{"municipio":"3ca5b6cd-9854-4983-8bb7-51002b787258","title":"SP - VARZEA PAULISTA","name":"SP - VARZEA PAULISTA","tipo":"Munic\u00edpio","url":"\/dashboard\/details-assets\/3ca5b6cd-9854-4983-8bb7-51002b787258"},"geometry":{"type":"Point","coordinates":[-46.82989,-23.214466]}},{"type":"Feature","properties":{"municipio":"a57be0dc-4757-4a3d-a1d8-9e87bda1d35b","title":"SP - VARGEM GRANDE PAULISTA","name":"SP - VARGEM GRANDE PAULISTA","tipo":"Munic\u00edpio","url":"\/dashboard\/details-assets\/a57be0dc-4757-4a3d-a1d8-9e87bda1d35b"},"geometry":{"type":"Point","coordinates":[-47.019648,-23.615302]}},{"type":"Feature","properties":{"municipio":"2fa2cfc4-8b53-4f5c-8627-2ee56cb7357f","title":"SP - VARGEM GRANDE DO SUL","name":"SP - VARGEM GRANDE DO SUL","tipo":"Munic\u00edpio","url":"\/dashboard\/details-assets\/2fa2cfc4-8b53-4f5c-8627-2ee56cb7357f"},"geometry":{"type":"Point","coordinates":[-46.895609,-21.835866]}},{"type":"Feature","properties":{"municipio":"a3900a77-9bdb-43dc-9a21-eecbdb60e7ac","title":"SP - VALINHOS","name":"SP - VALINHOS","tipo":"Munic\u00edpio","url":"\/dashboard\/details-assets\/a3900a77-9bdb-43dc-9a21-eecbdb60e7ac"},"geometry":{"type":"Point","coordinates":[-46.99663,-22.971244]}},{"type":"Feature","properties":{"municipio":"682e6dba-b458-4afb-8da7-d37170fad365","title":"SP - UBATUBA","name":"SP - UBATUBA","tipo":"Munic\u00edpio","url":"\/dashboard\/details-assets\/682e6dba-b458-4afb-8da7-d37170fad365"},"geometry":{"type":"Point","coordinates":[-45.072091,-23.435965]}},{"type":"Feature","properties":{"municipio":"427b3e86-892f-4675-ad42-ec3e4b5a8e05","title":"SP - TUPA","name":"SP - TUPA","tipo":"Munic\u00edpio","url":"\/dashboard\/details-assets\/427b3e86-892f-4675-ad42-ec3e4b5a8e05"},"geometry":{"type":"Point","coordinates":[-50.514006,-21.934822]}},{"type":"Feature","properties":{"municipio":"9aa70d38-393f-4cd1-a622-c74670f63da1","title":"SP - TIETE","name":"SP - TIETE","tipo":"Munic\u00edpio","url":"\/dashboard\/details-assets\/9aa70d38-393f-4cd1-a622-c74670f63da1"},"geometry":{"type":"Point","coordinates":[-47.711473,-23.097889]}},{"type":"Feature","properties":{"municipio":"144fa5a4-65d9-42f7-be8c-2830a8b7c35e","title":"SP - TEODORO SAMPAIO","name":"SP - TEODORO SAMPAIO","tipo":"Munic\u00edpio","url":"\/dashboard\/details-assets\/144fa5a4-65d9-42f7-be8c-2830a8b7c35e"},"geometry":{"type":"Point","coordinates":[-52.173362,-22.53144]}},{"type":"Feature","properties":{"municipio":"40a1f915-0969-4940-a8c3-454c0f8033ec","title":"SP - TAUBATE","name":"SP - TAUBATE","tipo":"Munic\u00edpio","url":"\/dashboard\/details-assets\/40a1f915-0969-4940-a8c3-454c0f8033ec"},"geometry":{"type":"Point","coordinates":[-45.556609,-23.026555]}},{"type":"Feature","properties":{"municipio":"b2d8e817-d0c9-46b2-8380-59a677fca9ab","title":"SP - TATUI","name":"SP - TATUI","tipo":"Munic\u00edpio","url":"\/dashboard\/details-assets\/b2d8e817-d0c9-46b2-8380-59a677fca9ab"},"geometry":{"type":"Point","coordinates":[-47.849464,-23.348576]}},{"type":"Feature","properties":{"municipio":"407b150f-5a87-4b84-a6e3-12f46744fa64","title":"SP - TAQUARITINGA","name":"SP - TAQUARITINGA","tipo":"Munic\u00edpio","url":"\/dashboard\/details-assets\/407b150f-5a87-4b84-a6e3-12f46744fa64"},"geometry":{"type":"Point","coordinates":[-48.506742,-21.410008]}},{"type":"Feature","properties":{"municipio":"1a35aaa7-c20d-4f7b-bf3b-6f5c5c73b12d","title":"SP - TAPIRATIBA","name":"SP - TAPIRATIBA","tipo":"Munic\u00edpio","url":"\/dashboard\/details-assets\/1a35aaa7-c20d-4f7b-bf3b-6f5c5c73b12d"},"geometry":{"type":"Point","coordinates":[-46.745515,-21.471885]}},{"type":"Feature","properties":{"municipio":"cbed2e36-2839-4a32-a6b2-2965cb3b84d6","title":"SP - TABOAO DA SERRA","name":"SP - TABOAO DA SERRA","tipo":"Munic\u00edpio","url":"\/dashboard\/details-assets\/cbed2e36-2839-4a32-a6b2-2965cb3b84d6"},"geometry":{"type":"Point","coordinates":[-46.78578,-23.623328]}},{"type":"Feature","properties":{"municipio":"804f7e63-d4b5-48bb-8317-4d994439cfaa","title":"SP - SUZANO","name":"SP - SUZANO","tipo":"Munic\u00edpio","url":"\/dashboard\/details-assets\/804f7e63-d4b5-48bb-8317-4d994439cfaa"},"geometry":{"type":"Point","coordinates":[-46.30781,-23.536827]}},{"type":"Feature","properties":{"municipio":"7dd5567d-8683-44cc-a774-4bb3251d377d","title":"SP - SUMARE","name":"SP - SUMARE","tipo":"Munic\u00edpio","url":"\/dashboard\/details-assets\/7dd5567d-8683-44cc-a774-4bb3251d377d"},"geometry":{"type":"Point","coordinates":[-47.265803,-22.822145]}},{"type":"Feature","properties":{"municipio":"7085a8c7-7512-4261-a2ed-6affeadfc5e5","title":"SP - SOROCABA","name":"SP - SOROCABA","tipo":"Munic\u00edpio","url":"\/dashboard\/details-assets\/7085a8c7-7512-4261-a2ed-6affeadfc5e5"},"geometry":{"type":"Point","coordinates":[-47.457853,-23.499323]}},{"type":"Feature","properties":{"municipio":"5e756d1a-371d-49b8-a14b-5e696f704ddd","title":"SP - SOCORRO","name":"SP - SOCORRO","tipo":"Munic\u00edpio","url":"\/dashboard\/details-assets\/5e756d1a-371d-49b8-a14b-5e696f704ddd"},"geometry":{"type":"Point","coordinates":[-46.529212,-22.59203]}},{"type":"Feature","properties":{"municipio":"b3da1985-a517-451c-95cc-3fbd44abafa8","title":"SP - SERTAOZINHO","name":"SP - SERTAOZINHO","tipo":"Munic\u00edpio","url":"\/dashboard\/details-assets\/b3da1985-a517-451c-95cc-3fbd44abafa8"},"geometry":{"type":"Point","coordinates":[-47.991148,-21.137022]}},{"type":"Feature","properties":{"municipio":"6ffcbeb1-b05c-4445-9838-a8ef885adaf5","title":"SP - SERRANA","name":"SP - SERRANA","tipo":"Munic\u00edpio","url":"\/dashboard\/details-assets\/6ffcbeb1-b05c-4445-9838-a8ef885adaf5"},"geometry":{"type":"Point","coordinates":[-47.597762,-21.209478]}},{"type":"Feature","properties":{"municipio":"44a8df72-6e7a-4b6d-9810-ee478e15e72d","title":"SP - SAO VICENTE","name":"SP - SAO VICENTE","tipo":"Munic\u00edpio","url":"\/dashboard\/details-assets\/44a8df72-6e7a-4b6d-9810-ee478e15e72d"},"geometry":{"type":"Point","coordinates":[-46.384491,-23.967373]}},{"type":"Feature","properties":{"municipio":"196664c3-90ec-4524-8006-917c57f927d3","title":"SP - SAO SEBASTIAO","name":"SP - SAO SEBASTIAO","tipo":"Munic\u00edpio","url":"\/dashboard\/details-assets\/196664c3-90ec-4524-8006-917c57f927d3"},"geometry":{"type":"Point","coordinates":[-45.40268,-23.806688]}},{"type":"Feature","properties":{"municipio":"001331a7-b181-458a-a7c1-6576e4ed3f6b","title":"SP - SAO ROQUE","name":"SP - SAO ROQUE","tipo":"Munic\u00edpio","url":"\/dashboard\/details-assets\/001331a7-b181-458a-a7c1-6576e4ed3f6b"},"geometry":{"type":"Point","coordinates":[-47.135423,-23.530359]}},{"type":"Feature","properties":{"municipio":"5f3c5a57-9e43-4ff6-b6ba-8a2a49d1f64b","title":"SP - SAO PAULO","name":"SP - SAO PAULO","tipo":"Munic\u00edpio","url":"\/dashboard\/details-assets\/5f3c5a57-9e43-4ff6-b6ba-8a2a49d1f64b"},"geometry":{"type":"Point","coordinates":[-46.570383,-23.567386]}},{"type":"Feature","properties":{"municipio":"5d5749d0-f590-4868-811a-00938950b935","title":"SP - SAO MIGUEL ARCANJO","name":"SP - SAO MIGUEL ARCANJO","tipo":"Munic\u00edpio","url":"\/dashboard\/details-assets\/5d5749d0-f590-4868-811a-00938950b935"},"geometry":{"type":"Point","coordinates":[-47.995589,-23.87949]}},{"type":"Feature","properties":{"municipio":"eff78e9e-e851-46b3-9962-1ffa4ff3e234","title":"SP - SAO MANUEL","name":"SP - SAO MANUEL","tipo":"Munic\u00edpio","url":"\/dashboard\/details-assets\/eff78e9e-e851-46b3-9962-1ffa4ff3e234"},"geometry":{"type":"Point","coordinates":[-48.568763,-22.73646]}},{"type":"Feature","properties":{"municipio":"6b07708d-7342-47b1-985b-5dbc879f40cb","title":"SP - SAO JOSE DOS CAMPOS","name":"SP - SAO JOSE DOS CAMPOS","tipo":"Munic\u00edpio","url":"\/dashboard\/details-assets\/6b07708d-7342-47b1-985b-5dbc879f40cb"},"geometry":{"type":"Point","coordinates":[-45.899405,-23.23021]}},{"type":"Feature","properties":{"municipio":"ca43a070-843e-4430-8a3c-9111267a63ae","title":"SP - SAO JOSE DO RIO PRETO","name":"SP - SAO JOSE DO RIO PRETO","tipo":"Munic\u00edpio","url":"\/dashboard\/details-assets\/ca43a070-843e-4430-8a3c-9111267a63ae"},"geometry":{"type":"Point","coordinates":[-49.376227,-20.811761]}},{"type":"Feature","properties":{"municipio":"2b95b5b3-fde8-4489-8855-8495aa15ad97","title":"SP - SAO JOSE DO RIO PARDO","name":"SP - SAO JOSE DO RIO PARDO","tipo":"Munic\u00edpio","url":"\/dashboard\/details-assets\/2b95b5b3-fde8-4489-8855-8495aa15ad97"},"geometry":{"type":"Point","coordinates":[-46.887746,-21.59577]}},{"type":"Feature","properties":{"municipio":"e2ccf18d-df4e-4490-a912-2b16bc65754e","title":"SP - SAO JOAQUIM DA BARRA","name":"SP - SAO JOAQUIM DA BARRA","tipo":"Munic\u00edpio","url":"\/dashboard\/details-assets\/e2ccf18d-df4e-4490-a912-2b16bc65754e"},"geometry":{"type":"Point","coordinates":[-47.863268,-20.583166]}},{"type":"Feature","properties":{"municipio":"66c42e73-b37c-4fda-b77c-e89417451ab3","title":"SP - SAO JOAO DA BOA VISTA","name":"SP - SAO JOAO DA BOA VISTA","tipo":"Munic\u00edpio","url":"\/dashboard\/details-assets\/66c42e73-b37c-4fda-b77c-e89417451ab3"},"geometry":{"type":"Point","coordinates":[-46.796351,-21.972011]}},{"type":"Feature","properties":{"municipio":"5c54f532-5601-463f-92c7-f09af0b7c9dd","title":"SP - SAO CARLOS","name":"SP - SAO CARLOS","tipo":"Munic\u00edpio","url":"\/dashboard\/details-assets\/5c54f532-5601-463f-92c7-f09af0b7c9dd"},"geometry":{"type":"Point","coordinates":[-53.017394,-27.078635]}},{"type":"Feature","properties":{"municipio":"7dc7d405-edd0-4ad8-8ab6-c8e82bd870b0","title":"SP - SAO BERNARDO DO CAMPO","name":"SP - SAO BERNARDO DO CAMPO","tipo":"Munic\u00edpio","url":"\/dashboard\/details-assets\/7dc7d405-edd0-4ad8-8ab6-c8e82bd870b0"},"geometry":{"type":"Point","coordinates":[-46.550257,-23.710304]}},{"type":"Feature","properties":{"municipio":"285efde1-f140-454e-a5e1-99743b128d4e","title":"SP - SAO CAETANO DO SUL","name":"SP - SAO CAETANO DO SUL","tipo":"Munic\u00edpio","url":"\/dashboard\/details-assets\/285efde1-f140-454e-a5e1-99743b128d4e"},"geometry":{"type":"Point","coordinates":[-46.571515,-23.614705]}},{"type":"Feature","properties":{"municipio":"ae5010ba-7839-4f55-893f-dd3a778570a7","title":"SP - SANTOS","name":"SP - SANTOS","tipo":"Munic\u00edpio","url":"\/dashboard\/details-assets\/ae5010ba-7839-4f55-893f-dd3a778570a7"},"geometry":{"type":"Point","coordinates":[-46.331371,-23.933737]}},{"type":"Feature","properties":{"municipio":"676f02b1-1005-4fa2-ac24-a22a44c40c37","title":"SP - SANTO ANDRE","name":"SP - SANTO ANDRE","tipo":"Munic\u00edpio","url":"\/dashboard\/details-assets\/676f02b1-1005-4fa2-ac24-a22a44c40c37"},"geometry":{"type":"Point","coordinates":[-46.530874,-23.65751]}},{"type":"Feature","properties":{"municipio":"44432b9f-06ad-4197-b142-0e0891a21084","title":"SP - SANTANA DE PARNAIBA","name":"SP - SANTANA DE PARNAIBA","tipo":"Munic\u00edpio","url":"\/dashboard\/details-assets\/44432b9f-06ad-4197-b142-0e0891a21084"},"geometry":{"type":"Point","coordinates":[-46.922093,-23.449453]}},{"type":"Feature","properties":{"municipio":"940b626b-e3a0-4de4-8824-e607bbbf295f","title":"SP - SANTA ROSA DE VITERBO","name":"SP - SANTA ROSA DE VITERBO","tipo":"Munic\u00edpio","url":"\/dashboard\/details-assets\/940b626b-e3a0-4de4-8824-e607bbbf295f"},"geometry":{"type":"Point","coordinates":[-47.355603,-21.504574]}},{"type":"Feature","properties":{"municipio":"42210919-5ce9-4cd0-b795-76d606e94da3","title":"SP - SANTA ISABEL","name":"SP - SANTA ISABEL","tipo":"Munic\u00edpio","url":"\/dashboard\/details-assets\/42210919-5ce9-4cd0-b795-76d606e94da3"},"geometry":{"type":"Point","coordinates":[-46.224396,-23.312622]}},{"type":"Feature","properties":{"municipio":"41539593-478e-45e1-a241-529338548565","title":"SP - SANTA FE DO SUL","name":"SP - SANTA FE DO SUL","tipo":"Munic\u00edpio","url":"\/dashboard\/details-assets\/41539593-478e-45e1-a241-529338548565"},"geometry":{"type":"Point","coordinates":[-50.926777,-20.211693]}},{"type":"Feature","properties":{"municipio":"cbd19693-aa4a-4518-816d-c32dfab81cb5","title":"SP - SANTA CRUZ DO RIO PARDO","name":"SP - SANTA CRUZ DO RIO PARDO","tipo":"Munic\u00edpio","url":"\/dashboard\/details-assets\/cbd19693-aa4a-4518-816d-c32dfab81cb5"},"geometry":{"type":"Point","coordinates":[-49.624609,-22.905722]}},{"type":"Feature","properties":{"municipio":"ff7680a5-4f6e-4ee3-b659-8a341940f591","title":"SP - SANTA BARBARA DOESTE","name":"SP - SANTA BARBARA DOESTE","tipo":"Munic\u00edpio","url":"\/dashboard\/details-assets\/ff7680a5-4f6e-4ee3-b659-8a341940f591"},"geometry":{"type":"Point","coordinates":[-47.413955,-22.755393]}},{"type":"Feature","properties":{"municipio":"280d34a9-d176-4742-b2c4-4cd06a5e11b2","title":"SP - SALTO DE PIRAPORA","name":"SP - SALTO DE PIRAPORA","tipo":"Munic\u00edpio","url":"\/dashboard\/details-assets\/280d34a9-d176-4742-b2c4-4cd06a5e11b2"},"geometry":{"type":"Point","coordinates":[-47.57468,-23.649132]}},{"type":"Feature","properties":{"municipio":"4543b35a-4571-49bb-85d3-598d13db299a","title":"SP - SALTO","name":"SP - SALTO","tipo":"Munic\u00edpio","url":"\/dashboard\/details-assets\/4543b35a-4571-49bb-85d3-598d13db299a"},"geometry":{"type":"Point","coordinates":[-47.292416,-23.204074]}},{"type":"Feature","properties":{"municipio":"1590b36c-f77b-43f8-b7e4-bcdfa38c8848","title":"SP - ROSANA","name":"SP - ROSANA","tipo":"Munic\u00edpio","url":"\/dashboard\/details-assets\/1590b36c-f77b-43f8-b7e4-bcdfa38c8848"},"geometry":{"type":"Point","coordinates":[-53.058654,-22.581175]}},{"type":"Feature","properties":{"municipio":"4b2ce291-d852-4fd4-9b87-cb7f0967de34","title":"SP - RIO GRANDE DA SERRA","name":"SP - RIO GRANDE DA SERRA","tipo":"Munic\u00edpio","url":"\/dashboard\/details-assets\/4b2ce291-d852-4fd4-9b87-cb7f0967de34"},"geometry":{"type":"Point","coordinates":[-46.3972,-23.74393]}},{"type":"Feature","properties":{"municipio":"89c5ac91-920e-4796-89c6-5a55dd51c339","title":"SP - RIO CLARO","name":"SP - RIO CLARO","tipo":"Munic\u00edpio","url":"\/dashboard\/details-assets\/89c5ac91-920e-4796-89c6-5a55dd51c339"},"geometry":{"type":"Point","coordinates":[-47.563533,-22.412511]}},{"type":"Feature","properties":{"municipio":"7cf52eec-dd23-42db-b592-692039549d6c","title":"SP - RIBEIRAO PRETO","name":"SP - RIBEIRAO PRETO","tipo":"Munic\u00edpio","url":"\/dashboard\/details-assets\/7cf52eec-dd23-42db-b592-692039549d6c"},"geometry":{"type":"Point","coordinates":[-47.805476,-21.184834]}},{"type":"Feature","properties":{"municipio":"968f2b4a-a568-46c6-942f-6ff7e9db49c2","title":"SP - RIBEIRAO PIRES","name":"SP - RIBEIRAO PIRES","tipo":"Munic\u00edpio","url":"\/dashboard\/details-assets\/968f2b4a-a568-46c6-942f-6ff7e9db49c2"},"geometry":{"type":"Point","coordinates":[-46.415344,-23.707423]}},{"type":"Feature","properties":{"municipio":"30230f93-38c7-443d-9d59-daa4aba768d3","title":"SP - REGISTRO","name":"SP - REGISTRO","tipo":"Munic\u00edpio","url":"\/dashboard\/details-assets\/30230f93-38c7-443d-9d59-daa4aba768d3"},"geometry":{"type":"Point","coordinates":[-47.841055,-24.494251]}},{"type":"Feature","properties":{"municipio":"b1a8496b-5c3b-4202-951e-ff1dedb1d50f","title":"SP - RANCHARIA","name":"SP - RANCHARIA","tipo":"Munic\u00edpio","url":"\/dashboard\/details-assets\/b1a8496b-5c3b-4202-951e-ff1dedb1d50f"},"geometry":{"type":"Point","coordinates":[-50.890212,-22.228451]}},{"type":"Feature","properties":{"municipio":"1c83fb82-9633-4a8c-ae9d-489133caa216","title":"SP - PROMISSAO","name":"SP - PROMISSAO","tipo":"Munic\u00edpio","url":"\/dashboard\/details-assets\/1c83fb82-9633-4a8c-ae9d-489133caa216"},"geometry":{"type":"Point","coordinates":[-49.857735,-21.538867]}},{"type":"Feature","properties":{"municipio":"93176bcd-80ad-429b-8347-1ddc09387ff7","title":"SP - PRESIDENTE VENCESLAU","name":"SP - PRESIDENTE VENCESLAU","tipo":"Munic\u00edpio","url":"\/dashboard\/details-assets\/93176bcd-80ad-429b-8347-1ddc09387ff7"},"geometry":{"type":"Point","coordinates":[-51.840259,-21.87594]}},{"type":"Feature","properties":{"municipio":"c6f1f441-a228-44e7-aa40-fc554029adeb","title":"SP - PRESIDENTE PRUDENTE","name":"SP - PRESIDENTE PRUDENTE","tipo":"Munic\u00edpio","url":"\/dashboard\/details-assets\/c6f1f441-a228-44e7-aa40-fc554029adeb"},"geometry":{"type":"Point","coordinates":[-51.386766,-22.122743]}},{"type":"Feature","properties":{"municipio":"edf30beb-3e25-491f-9ec5-19cfe763d68e","title":"SP - PRAIA GRANDE","name":"SP - PRAIA GRANDE","tipo":"Munic\u00edpio","url":"\/dashboard\/details-assets\/edf30beb-3e25-491f-9ec5-19cfe763d68e"},"geometry":{"type":"Point","coordinates":[-46.412462,-24.008842]}},{"type":"Feature","properties":{"municipio":"2981bd22-4eec-48a7-ad62-5841c57a0bb3","title":"SP - PRESIDENTE EPITACIO","name":"SP - PRESIDENTE EPITACIO","tipo":"Munic\u00edpio","url":"\/dashboard\/details-assets\/2981bd22-4eec-48a7-ad62-5841c57a0bb3"},"geometry":{"type":"Point","coordinates":[-52.115276,-21.768782]}},{"type":"Feature","properties":{"municipio":"8f06bdf8-dee6-407f-9e4c-ac3e19b1e30e","title":"SP - PORTO FERREIRA","name":"SP - PORTO FERREIRA","tipo":"Munic\u00edpio","url":"\/dashboard\/details-assets\/8f06bdf8-dee6-407f-9e4c-ac3e19b1e30e"},"geometry":{"type":"Point","coordinates":[-47.48141,-21.858363]}},{"type":"Feature","properties":{"municipio":"7744545a-32a4-4e08-a9e1-95d70bb8c6d5","title":"SP - PORTO FELIZ","name":"SP - PORTO FELIZ","tipo":"Munic\u00edpio","url":"\/dashboard\/details-assets\/7744545a-32a4-4e08-a9e1-95d70bb8c6d5"},"geometry":{"type":"Point","coordinates":[-47.524597,-23.214412]}},{"type":"Feature","properties":{"municipio":"fe0fb4b8-356b-48cd-86bb-9a220c3ee180","title":"SP - PONTAL","name":"SP - PONTAL","tipo":"Munic\u00edpio","url":"\/dashboard\/details-assets\/fe0fb4b8-356b-48cd-86bb-9a220c3ee180"},"geometry":{"type":"Point","coordinates":[-48.037837,-21.02571]}},{"type":"Feature","properties":{"municipio":"08e54609-4115-4812-98a3-a63d0da7b1e0","title":"SP - POA","name":"SP - POA","tipo":"Munic\u00edpio","url":"\/dashboard\/details-assets\/08e54609-4115-4812-98a3-a63d0da7b1e0"},"geometry":{"type":"Point","coordinates":[-46.34622,-23.528627]}},{"type":"Feature","properties":{"municipio":"f6cd5ff3-d445-45e1-b228-446210732a33","title":"SP - PITANGUEIRAS","name":"SP - PITANGUEIRAS","tipo":"Munic\u00edpio","url":"\/dashboard\/details-assets\/f6cd5ff3-d445-45e1-b228-446210732a33"},"geometry":{"type":"Point","coordinates":[-51.585768,-23.230304]}},{"type":"Feature","properties":{"municipio":"bb1be9f5-7023-4761-ad85-956cb4d0b560","title":"SP - PIRASSUNUNGA","name":"SP - PIRASSUNUNGA","tipo":"Munic\u00edpio","url":"\/dashboard\/details-assets\/bb1be9f5-7023-4761-ad85-956cb4d0b560"},"geometry":{"type":"Point","coordinates":[-47.425173,-21.994049]}},{"type":"Feature","properties":{"municipio":"11a91422-a127-43af-81e8-02a7e30a3a6c","title":"SP - PIRAJUI","name":"SP - PIRAJUI","tipo":"Munic\u00edpio","url":"\/dashboard\/details-assets\/11a91422-a127-43af-81e8-02a7e30a3a6c"},"geometry":{"type":"Point","coordinates":[-49.457917,-21.974887]}},{"type":"Feature","properties":{"municipio":"62fe3a44-dcb5-43b0-aa8c-5cec59a631fd","title":"SP - PIRAJU","name":"SP - PIRAJU","tipo":"Munic\u00edpio","url":"\/dashboard\/details-assets\/62fe3a44-dcb5-43b0-aa8c-5cec59a631fd"},"geometry":{"type":"Point","coordinates":[-49.383974,-23.192991]}},{"type":"Feature","properties":{"municipio":"1ab54571-548b-4aa0-a506-344771b23c42","title":"SP - PIRACICABA","name":"SP - PIRACICABA","tipo":"Munic\u00edpio","url":"\/dashboard\/details-assets\/1ab54571-548b-4aa0-a506-344771b23c42"},"geometry":{"type":"Point","coordinates":[-47.646846,-22.723722]}},{"type":"Feature","properties":{"municipio":"1009ca10-ed29-40a0-a993-12f7ca4d9644","title":"SP - PINDAMONHANGABA","name":"SP - PINDAMONHANGABA","tipo":"Munic\u00edpio","url":"\/dashboard\/details-assets\/1009ca10-ed29-40a0-a993-12f7ca4d9644"},"geometry":{"type":"Point","coordinates":[-45.462049,-22.926669]}},{"type":"Feature","properties":{"municipio":"f0b302c3-be10-43f1-9c22-d3ba8658d43a","title":"SP - PILAR DO SUL","name":"SP - PILAR DO SUL","tipo":"Munic\u00edpio","url":"\/dashboard\/details-assets\/f0b302c3-be10-43f1-9c22-d3ba8658d43a"},"geometry":{"type":"Point","coordinates":[-47.715508,-23.814612]}},{"type":"Feature","properties":{"municipio":"24f1bb5b-929c-4194-9833-0cba57188fb3","title":"SP - PIEDADE","name":"SP - PIEDADE","tipo":"Munic\u00edpio","url":"\/dashboard\/details-assets\/24f1bb5b-929c-4194-9833-0cba57188fb3"},"geometry":{"type":"Point","coordinates":[-47.418015,-23.714202]}},{"type":"Feature","properties":{"municipio":"b2594c47-ba88-4be8-9efa-b18750bed2a5","title":"SP - PERUIBE","name":"SP - PERUIBE","tipo":"Munic\u00edpio","url":"\/dashboard\/details-assets\/b2594c47-ba88-4be8-9efa-b18750bed2a5"},"geometry":{"type":"Point","coordinates":[-46.997302,-24.319509]}},{"type":"Feature","properties":{"municipio":"f9695eb0-2243-4311-ab6d-32b0280cba91","title":"SP - PEREIRA BARRETO","name":"SP - PEREIRA BARRETO","tipo":"Munic\u00edpio","url":"\/dashboard\/details-assets\/f9695eb0-2243-4311-ab6d-32b0280cba91"},"geometry":{"type":"Point","coordinates":[-51.106661,-20.636669]}},{"type":"Feature","properties":{"municipio":"7c5d7342-3ea3-4840-822f-99a67db2079a","title":"SP - PENAPOLIS","name":"SP - PENAPOLIS","tipo":"Munic\u00edpio","url":"\/dashboard\/details-assets\/7c5d7342-3ea3-4840-822f-99a67db2079a"},"geometry":{"type":"Point","coordinates":[-50.073036,-21.418383]}},{"type":"Feature","properties":{"municipio":"2c4b8887-8ed6-4758-9c04-75c9172ba4ed","title":"SP - PEDREIRA","name":"SP - PEDREIRA","tipo":"Munic\u00edpio","url":"\/dashboard\/details-assets\/2c4b8887-8ed6-4758-9c04-75c9172ba4ed"},"geometry":{"type":"Point","coordinates":[-46.897802,-22.743771]}},{"type":"Feature","properties":{"municipio":"19795754-f2db-43a9-bfdb-22394c29f397","title":"SP - PEDERNEIRAS","name":"SP - PEDERNEIRAS","tipo":"Munic\u00edpio","url":"\/dashboard\/details-assets\/19795754-f2db-43a9-bfdb-22394c29f397"},"geometry":{"type":"Point","coordinates":[-48.779681,-22.355491]}},{"type":"Feature","properties":{"municipio":"796e8d30-e333-415e-836e-53b188d47748","title":"SP - PAULINIA","name":"SP - PAULINIA","tipo":"Munic\u00edpio","url":"\/dashboard\/details-assets\/796e8d30-e333-415e-836e-53b188d47748"},"geometry":{"type":"Point","coordinates":[-47.154386,-22.759922]}},{"type":"Feature","properties":{"municipio":"7bf2e3aa-14bc-4cb6-b22a-9f1099dd9df5","title":"SP - PARAGUACU PAULISTA","name":"SP - PARAGUACU PAULISTA","tipo":"Munic\u00edpio","url":"\/dashboard\/details-assets\/7bf2e3aa-14bc-4cb6-b22a-9f1099dd9df5"},"geometry":{"type":"Point","coordinates":[-50.575029,-22.417711]}},{"type":"Feature","properties":{"municipio":"3f84517b-debf-4cc1-b31e-1c98184bccb6","title":"SP - OURINHOS","name":"SP - OURINHOS","tipo":"Munic\u00edpio","url":"\/dashboard\/details-assets\/3f84517b-debf-4cc1-b31e-1c98184bccb6"},"geometry":{"type":"Point","coordinates":[-49.86858,-22.977267]}},{"type":"Feature","properties":{"municipio":"1510b580-a4cd-4320-b461-d6baefbf07cd","title":"SP - OSVALDO CRUZ","name":"SP - OSVALDO CRUZ","tipo":"Munic\u00edpio","url":"\/dashboard\/details-assets\/1510b580-a4cd-4320-b461-d6baefbf07cd"},"geometry":{"type":"Point","coordinates":[-50.873139,-21.797083]}},{"type":"Feature","properties":{"municipio":"2076e5d0-b777-4a5a-bba5-41f556411ff7","title":"SP - OSASCO","name":"SP - OSASCO","tipo":"Munic\u00edpio","url":"\/dashboard\/details-assets\/2076e5d0-b777-4a5a-bba5-41f556411ff7"},"geometry":{"type":"Point","coordinates":[-46.78881,-23.533612]}},{"type":"Feature","properties":{"municipio":"62e378db-c085-42e9-8ba0-1e1dd1055b24","title":"SP - ORLANDIA","name":"SP - ORLANDIA","tipo":"Munic\u00edpio","url":"\/dashboard\/details-assets\/62e378db-c085-42e9-8ba0-1e1dd1055b24"},"geometry":{"type":"Point","coordinates":[-47.885819,-20.71754]}},{"type":"Feature","properties":{"municipio":"68221136-5f58-4a1b-9925-25f2de608920","title":"SP - OLIMPIA","name":"SP - OLIMPIA","tipo":"Munic\u00edpio","url":"\/dashboard\/details-assets\/68221136-5f58-4a1b-9925-25f2de608920"},"geometry":{"type":"Point","coordinates":[-48.911061,-20.737112]}},{"type":"Feature","properties":{"municipio":"e5a4ba7e-66d2-4c59-a7c3-6530387d17eb","title":"SP - NOVO HORIZONTE","name":"SP - NOVO HORIZONTE","tipo":"Munic\u00edpio","url":"\/dashboard\/details-assets\/e5a4ba7e-66d2-4c59-a7c3-6530387d17eb"},"geometry":{"type":"Point","coordinates":[-49.224652,-21.464975]}},{"type":"Feature","properties":{"municipio":"b416e433-6b56-405f-a77f-50993e10586f","title":"SP - NOVA ODESSA","name":"SP - NOVA ODESSA","tipo":"Munic\u00edpio","url":"\/dashboard\/details-assets\/b416e433-6b56-405f-a77f-50993e10586f"},"geometry":{"type":"Point","coordinates":[-47.293635,-22.782795]}},{"type":"Feature","properties":{"municipio":"b7095960-4950-4c2f-8b4f-1d981fb854ab","title":"SP - MONTE MOR","name":"SP - MONTE MOR","tipo":"Munic\u00edpio","url":"\/dashboard\/details-assets\/b7095960-4950-4c2f-8b4f-1d981fb854ab"},"geometry":{"type":"Point","coordinates":[-47.313269,-22.945522]}},{"type":"Feature","properties":{"municipio":"205b0b9b-958a-4f6b-8362-92599450c1cc","title":"SP - MONTE APRAZIVEL","name":"SP - MONTE APRAZIVEL","tipo":"Munic\u00edpio","url":"\/dashboard\/details-assets\/205b0b9b-958a-4f6b-8362-92599450c1cc"},"geometry":{"type":"Point","coordinates":[-49.714116,-20.77214]}},{"type":"Feature","properties":{"municipio":"7b313e6e-6566-4134-a450-be19b2f8cb68","title":"SP - MONTE ALTO","name":"SP - MONTE ALTO","tipo":"Munic\u00edpio","url":"\/dashboard\/details-assets\/7b313e6e-6566-4134-a450-be19b2f8cb68"},"geometry":{"type":"Point","coordinates":[-48.496651,-21.263864]}},{"type":"Feature","properties":{"municipio":"9e99c67c-b141-4044-b620-8a87d2755fa5","title":"SP - MONGAGUA","name":"SP - MONGAGUA","tipo":"Munic\u00edpio","url":"\/dashboard\/details-assets\/9e99c67c-b141-4044-b620-8a87d2755fa5"},"geometry":{"type":"Point","coordinates":[-46.619993,-24.094116]}},{"type":"Feature","properties":{"municipio":"0accc3c8-934f-4186-9a88-263af101da30","title":"SP - MOGI MIRIM","name":"SP - MOGI MIRIM","tipo":"Munic\u00edpio","url":"\/dashboard\/details-assets\/0accc3c8-934f-4186-9a88-263af101da30"},"geometry":{"type":"Point","coordinates":[-46.956367,-22.432695]}},{"type":"Feature","properties":{"municipio":"a548db39-7745-468a-8274-c3dc586e4442","title":"SP - MOGI GUACU","name":"SP - MOGI GUACU","tipo":"Munic\u00edpio","url":"\/dashboard\/details-assets\/a548db39-7745-468a-8274-c3dc586e4442"},"geometry":{"type":"Point","coordinates":[-46.944474,-22.36572]}},{"type":"Feature","properties":{"municipio":"3dbb3b1e-bc3c-4c05-bc1b-56ec1c898d4a","title":"SP - MOGI DAS CRUZES","name":"SP - MOGI DAS CRUZES","tipo":"Munic\u00edpio","url":"\/dashboard\/details-assets\/3dbb3b1e-bc3c-4c05-bc1b-56ec1c898d4a"},"geometry":{"type":"Point","coordinates":[-46.19676,-23.522706]}},{"type":"Feature","properties":{"municipio":"d416ad4d-8952-4e0f-ae2f-2c54dfd86273","title":"SP - MOCOCA","name":"SP - MOCOCA","tipo":"Munic\u00edpio","url":"\/dashboard\/details-assets\/d416ad4d-8952-4e0f-ae2f-2c54dfd86273"},"geometry":{"type":"Point","coordinates":[-47.007171,-21.468991]}},{"type":"Feature","properties":{"municipio":"f0b526da-7be4-4ba7-9a45-c2786cf0dd7f","title":"SP - MIRASSOL","name":"SP - MIRASSOL","tipo":"Munic\u00edpio","url":"\/dashboard\/details-assets\/f0b526da-7be4-4ba7-9a45-c2786cf0dd7f"},"geometry":{"type":"Point","coordinates":[-49.512139,-20.817004]}},{"type":"Feature","properties":{"municipio":"2b5d2e1d-c999-46b6-ad06-e7cfe29a1c7e","title":"SP - MIRANTE DO PARANAPANEMA","name":"SP - MIRANTE DO PARANAPANEMA","tipo":"Munic\u00edpio","url":"\/dashboard\/details-assets\/2b5d2e1d-c999-46b6-ad06-e7cfe29a1c7e"},"geometry":{"type":"Point","coordinates":[-51.905794,-22.290559]}},{"type":"Feature","properties":{"municipio":"be3a4462-f7d7-4e16-95e6-c704aac6a7cb","title":"SP - MIRANDOPOLIS","name":"SP - MIRANDOPOLIS","tipo":"Munic\u00edpio","url":"\/dashboard\/details-assets\/be3a4462-f7d7-4e16-95e6-c704aac6a7cb"},"geometry":{"type":"Point","coordinates":[-51.102338,-21.133105]}},{"type":"Feature","properties":{"municipio":"df0cf11f-da9e-4673-a326-10ce524f0e04","title":"SP - MIRACATU","name":"SP - MIRACATU","tipo":"Munic\u00edpio","url":"\/dashboard\/details-assets\/df0cf11f-da9e-4673-a326-10ce524f0e04"},"geometry":{"type":"Point","coordinates":[-47.462913,-24.277132]}},{"type":"Feature","properties":{"municipio":"802ae68a-8bb4-4fcf-8f6c-36c627cf3770","title":"SP - MAUA","name":"SP - MAUA","tipo":"Munic\u00edpio","url":"\/dashboard\/details-assets\/802ae68a-8bb4-4fcf-8f6c-36c627cf3770"},"geometry":{"type":"Point","coordinates":[-46.461709,-23.668163]}},{"type":"Feature","properties":{"municipio":"27086a9b-ca49-4435-b5ca-19ccd3188c11","title":"SP - MATAO","name":"SP - MATAO","tipo":"Munic\u00edpio","url":"\/dashboard\/details-assets\/27086a9b-ca49-4435-b5ca-19ccd3188c11"},"geometry":{"type":"Point","coordinates":[-48.364423,-21.602989]}},{"type":"Feature","properties":{"municipio":"fef3bb81-61cc-408e-8a2e-0edfa1a19e57","title":"SP - MARTINOPOLIS","name":"SP - MARTINOPOLIS","tipo":"Munic\u00edpio","url":"\/dashboard\/details-assets\/fef3bb81-61cc-408e-8a2e-0edfa1a19e57"},"geometry":{"type":"Point","coordinates":[-51.172105,-22.149528]}},{"type":"Feature","properties":{"municipio":"b5dcb679-caba-4432-a086-06c8eb5f129b","title":"SP - MARILIA","name":"SP - MARILIA","tipo":"Munic\u00edpio","url":"\/dashboard\/details-assets\/b5dcb679-caba-4432-a086-06c8eb5f129b"},"geometry":{"type":"Point","coordinates":[-49.950529,-22.217585]}},{"type":"Feature","properties":{"municipio":"2cd8dcfa-5282-449e-bf96-7192218296c4","title":"SP - MAIRIPORA","name":"SP - MAIRIPORA","tipo":"Munic\u00edpio","url":"\/dashboard\/details-assets\/2cd8dcfa-5282-449e-bf96-7192218296c4"},"geometry":{"type":"Point","coordinates":[-46.590279,-23.319505]}},{"type":"Feature","properties":{"municipio":"dfc7f70b-c757-48eb-9933-fa2f733fc431","title":"SP - MAIRINQUE","name":"SP - MAIRINQUE","tipo":"Munic\u00edpio","url":"\/dashboard\/details-assets\/dfc7f70b-c757-48eb-9933-fa2f733fc431"},"geometry":{"type":"Point","coordinates":[-47.194723,-23.529723]}},{"type":"Feature","properties":{"municipio":"a9d93eb2-5d95-4342-874d-4ea50fc3fda8","title":"SP - LOUVEIRA","name":"SP - LOUVEIRA","tipo":"Munic\u00edpio","url":"\/dashboard\/details-assets\/a9d93eb2-5d95-4342-874d-4ea50fc3fda8"},"geometry":{"type":"Point","coordinates":[-46.94644,-23.086778]}},{"type":"Feature","properties":{"municipio":"53b48d97-f1eb-4032-8724-98e1e75e1cfa","title":"SP - LORENA","name":"SP - LORENA","tipo":"Munic\u00edpio","url":"\/dashboard\/details-assets\/53b48d97-f1eb-4032-8724-98e1e75e1cfa"},"geometry":{"type":"Point","coordinates":[-45.124248,-22.731693]}},{"type":"Feature","properties":{"municipio":"99ae41ea-4c97-450d-bf98-bdfb90a0eb4a","title":"SP - LINS","name":"SP - LINS","tipo":"Munic\u00edpio","url":"\/dashboard\/details-assets\/99ae41ea-4c97-450d-bf98-bdfb90a0eb4a"},"geometry":{"type":"Point","coordinates":[-49.751423,-21.672346]}},{"type":"Feature","properties":{"municipio":"21ca88ab-cb19-44fc-abda-e400e0af3456","title":"SP - LIMEIRA","name":"SP - LIMEIRA","tipo":"Munic\u00edpio","url":"\/dashboard\/details-assets\/21ca88ab-cb19-44fc-abda-e400e0af3456"},"geometry":{"type":"Point","coordinates":[-47.40194,-22.562194]}},{"type":"Feature","properties":{"municipio":"8eae49c9-b1a6-49c3-8ae0-119abfe3c89e","title":"SP - LENCOIS PAULISTA","name":"SP - LENCOIS PAULISTA","tipo":"Munic\u00edpio","url":"\/dashboard\/details-assets\/8eae49c9-b1a6-49c3-8ae0-119abfe3c89e"},"geometry":{"type":"Point","coordinates":[-48.798682,-22.597507]}},{"type":"Feature","properties":{"municipio":"41685a83-5fab-4ac9-b059-cf8014da8301","title":"SP - LEME","name":"SP - LEME","tipo":"Munic\u00edpio","url":"\/dashboard\/details-assets\/41685a83-5fab-4ac9-b059-cf8014da8301"},"geometry":{"type":"Point","coordinates":[-47.388708,-22.185436]}},{"type":"Feature","properties":{"municipio":"3b34a1cb-380f-4932-835c-579af37038b7","title":"SP - JUQUITIBA","name":"SP - JUQUITIBA","tipo":"Munic\u00edpio","url":"\/dashboard\/details-assets\/3b34a1cb-380f-4932-835c-579af37038b7"},"geometry":{"type":"Point","coordinates":[-47.081594,-23.935689]}},{"type":"Feature","properties":{"municipio":"b6e4e5fb-9372-46e7-820e-7b35e2ae8ea5","title":"SP - JUNDIAI","name":"SP - JUNDIAI","tipo":"Munic\u00edpio","url":"\/dashboard\/details-assets\/b6e4e5fb-9372-46e7-820e-7b35e2ae8ea5"},"geometry":{"type":"Point","coordinates":[-46.885274,-23.187668]}},{"type":"Feature","properties":{"municipio":"0cbfeecf-7787-4f3a-abc9-1cafaff63908","title":"SP - JOSE BONIFACIO","name":"SP - JOSE BONIFACIO","tipo":"Munic\u00edpio","url":"\/dashboard\/details-assets\/0cbfeecf-7787-4f3a-abc9-1cafaff63908"},"geometry":{"type":"Point","coordinates":[-49.686283,-21.053719]}},{"type":"Feature","properties":{"municipio":"e291deff-1fb9-47fb-8da9-633a860c2c86","title":"SP - JAU","name":"SP - JAU","tipo":"Munic\u00edpio","url":"\/dashboard\/details-assets\/e291deff-1fb9-47fb-8da9-633a860c2c86"},"geometry":{"type":"Point","coordinates":[-48.558141,-22.295791]}},{"type":"Feature","properties":{"municipio":"968e2758-1f9b-42f0-9ca4-72790fb7b132","title":"SP - JARDINOPOLIS","name":"SP - JARDINOPOLIS","tipo":"Munic\u00edpio","url":"\/dashboard\/details-assets\/968e2758-1f9b-42f0-9ca4-72790fb7b132"},"geometry":{"type":"Point","coordinates":[-47.777205,-21.027762]}},{"type":"Feature","properties":{"municipio":"10564f0a-7230-4ebd-8ef4-87087d796a63","title":"SP - JANDIRA","name":"SP - JANDIRA","tipo":"Munic\u00edpio","url":"\/dashboard\/details-assets\/10564f0a-7230-4ebd-8ef4-87087d796a63"},"geometry":{"type":"Point","coordinates":[-46.905221,-23.529939]}},{"type":"Feature","properties":{"municipio":"6bb4cb26-9c8a-4d0d-a568-dbffc5ff924e","title":"SP - JALES","name":"SP - JALES","tipo":"Munic\u00edpio","url":"\/dashboard\/details-assets\/6bb4cb26-9c8a-4d0d-a568-dbffc5ff924e"},"geometry":{"type":"Point","coordinates":[-50.550356,-20.267853]}},{"type":"Feature","properties":{"municipio":"f80fe75d-e7fd-49fa-bcb4-02946b20d686","title":"SP - JAGUARIUNA","name":"SP - JAGUARIUNA","tipo":"Munic\u00edpio","url":"\/dashboard\/details-assets\/f80fe75d-e7fd-49fa-bcb4-02946b20d686"},"geometry":{"type":"Point","coordinates":[-46.982343,-22.706782]}},{"type":"Feature","properties":{"municipio":"c32dc432-f33b-46f4-8601-93f232c510be","title":"SP - JACAREI","name":"SP - JACAREI","tipo":"Munic\u00edpio","url":"\/dashboard\/details-assets\/c32dc432-f33b-46f4-8601-93f232c510be"},"geometry":{"type":"Point","coordinates":[-45.969593,-23.30488]}},{"type":"Feature","properties":{"municipio":"53f93539-32d7-419d-ae79-111e0ffd358b","title":"SP - JABOTICABAL","name":"SP - JABOTICABAL","tipo":"Munic\u00edpio","url":"\/dashboard\/details-assets\/53f93539-32d7-419d-ae79-111e0ffd358b"},"geometry":{"type":"Point","coordinates":[-48.32035,-21.254471]}},{"type":"Feature","properties":{"municipio":"8d2335e1-23fd-48b9-bb4a-9a35ddcd9d93","title":"SP - ITUPEVA","name":"SP - ITUPEVA","tipo":"Munic\u00edpio","url":"\/dashboard\/details-assets\/8d2335e1-23fd-48b9-bb4a-9a35ddcd9d93"},"geometry":{"type":"Point","coordinates":[-47.055701,-23.15341]}},{"type":"Feature","properties":{"municipio":"b747046e-14c5-4e19-a976-af82df28dd31","title":"SP - ITUVERAVA","name":"SP - ITUVERAVA","tipo":"Munic\u00edpio","url":"\/dashboard\/details-assets\/b747046e-14c5-4e19-a976-af82df28dd31"},"geometry":{"type":"Point","coordinates":[-47.780416,-20.336288]}},{"type":"Feature","properties":{"municipio":"d380df7a-cc4e-47e6-83f4-c459b757fc7c","title":"SP - ITU","name":"SP - ITU","tipo":"Munic\u00edpio","url":"\/dashboard\/details-assets\/d380df7a-cc4e-47e6-83f4-c459b757fc7c"},"geometry":{"type":"Point","coordinates":[-47.29975,-23.265442]}},{"type":"Feature","properties":{"municipio":"6c769430-bbac-43a5-8bac-39b295ba841b","title":"SP - ITATIBA","name":"SP - ITATIBA","tipo":"Munic\u00edpio","url":"\/dashboard\/details-assets\/6c769430-bbac-43a5-8bac-39b295ba841b"},"geometry":{"type":"Point","coordinates":[-46.837558,-23.004853]}},{"type":"Feature","properties":{"municipio":"dd5a4f78-aeaa-42f2-86ea-fbdb99c2def1","title":"SP - ITARARE","name":"SP - ITARARE","tipo":"Munic\u00edpio","url":"\/dashboard\/details-assets\/dd5a4f78-aeaa-42f2-86ea-fbdb99c2def1"},"geometry":{"type":"Point","coordinates":[-49.33612,-24.112138]}},{"type":"Feature","properties":{"municipio":"1121ba5f-6a85-4ea0-b1fe-0268823baa2f","title":"SP - ITAQUAQUECETUBA","name":"SP - ITAQUAQUECETUBA","tipo":"Munic\u00edpio","url":"\/dashboard\/details-assets\/1121ba5f-6a85-4ea0-b1fe-0268823baa2f"},"geometry":{"type":"Point","coordinates":[-46.351603,-23.476897]}},{"type":"Feature","properties":{"municipio":"61953fec-e56d-4743-a3fe-86a0ccc325e2","title":"SP - ITAPOLIS","name":"SP - ITAPOLIS","tipo":"Munic\u00edpio","url":"\/dashboard\/details-assets\/61953fec-e56d-4743-a3fe-86a0ccc325e2"},"geometry":{"type":"Point","coordinates":[-48.813392,-21.594704]}},{"type":"Feature","properties":{"municipio":"dc1e7ef5-839e-4380-8f3a-58e58809e3f8","title":"SP - ITAPIRA","name":"SP - ITAPIRA","tipo":"Munic\u00edpio","url":"\/dashboard\/details-assets\/dc1e7ef5-839e-4380-8f3a-58e58809e3f8"},"geometry":{"type":"Point","coordinates":[-46.821248,-22.436005]}},{"type":"Feature","properties":{"municipio":"61216302-77eb-432b-9fc8-80a02521c383","title":"SP - ITAPEVI","name":"SP - ITAPEVI","tipo":"Munic\u00edpio","url":"\/dashboard\/details-assets\/61216302-77eb-432b-9fc8-80a02521c383"},"geometry":{"type":"Point","coordinates":[-46.933373,-23.546934]}},{"type":"Feature","properties":{"municipio":"853c3782-d454-40f3-a25d-b008bef9f40b","title":"SP - ITAPEVA","name":"SP - ITAPEVA","tipo":"Munic\u00edpio","url":"\/dashboard\/details-assets\/853c3782-d454-40f3-a25d-b008bef9f40b"},"geometry":{"type":"Point","coordinates":[-48.877389,-23.983438]}},{"type":"Feature","properties":{"municipio":"dbed677d-446f-486e-8b4f-65f2e0662258","title":"SP - ITAPETININGA","name":"SP - ITAPETININGA","tipo":"Munic\u00edpio","url":"\/dashboard\/details-assets\/dbed677d-446f-486e-8b4f-65f2e0662258"},"geometry":{"type":"Point","coordinates":[-48.046143,-23.587872]}},{"type":"Feature","properties":{"municipio":"d53a55c0-846c-4c43-8d8c-23bb5e900523","title":"SP - ITAPECERICA DA SERRA","name":"SP - ITAPECERICA DA SERRA","tipo":"Munic\u00edpio","url":"\/dashboard\/details-assets\/d53a55c0-846c-4c43-8d8c-23bb5e900523"},"geometry":{"type":"Point","coordinates":[-46.850552,-23.715357]}},{"type":"Feature","properties":{"municipio":"e4b038ba-96d3-4c4a-b8f1-b7c1a6be7f30","title":"SP - ITANHAEM","name":"SP - ITANHAEM","tipo":"Munic\u00edpio","url":"\/dashboard\/details-assets\/e4b038ba-96d3-4c4a-b8f1-b7c1a6be7f30"},"geometry":{"type":"Point","coordinates":[-46.790991,-24.186121]}},{"type":"Feature","properties":{"municipio":"b6255d72-0247-4cf8-b682-4ff4571f51cd","title":"SP - ITAI","name":"SP - ITAI","tipo":"Munic\u00edpio","url":"\/dashboard\/details-assets\/b6255d72-0247-4cf8-b682-4ff4571f51cd"},"geometry":{"type":"Point","coordinates":[-49.081032,-23.419055]}},{"type":"Feature","properties":{"municipio":"25aa9720-6502-4b44-9e50-a72e7380263f","title":"SP - INDAIATUBA","name":"SP - INDAIATUBA","tipo":"Munic\u00edpio","url":"\/dashboard\/details-assets\/25aa9720-6502-4b44-9e50-a72e7380263f"},"geometry":{"type":"Point","coordinates":[-47.212309,-23.081646]}},{"type":"Feature","properties":{"municipio":"d9628b51-ad17-4861-a382-941eb86b11f2","title":"SP - ILHABELA","name":"SP - ILHABELA","tipo":"Munic\u00edpio","url":"\/dashboard\/details-assets\/d9628b51-ad17-4861-a382-941eb86b11f2"},"geometry":{"type":"Point","coordinates":[-45.354355,-23.807791]}},{"type":"Feature","properties":{"municipio":"c6179966-417a-4aa7-8037-3a666ad6c9a2","title":"SP - ILHA SOLTEIRA","name":"SP - ILHA SOLTEIRA","tipo":"Munic\u00edpio","url":"\/dashboard\/details-assets\/c6179966-417a-4aa7-8037-3a666ad6c9a2"},"geometry":{"type":"Point","coordinates":[-51.344891,-20.429372]}},{"type":"Feature","properties":{"municipio":"ddd28ed3-56f5-414d-9bf5-c9430a1c9b9f","title":"SP - IGUAPE","name":"SP - IGUAPE","tipo":"Munic\u00edpio","url":"\/dashboard\/details-assets\/ddd28ed3-56f5-414d-9bf5-c9430a1c9b9f"},"geometry":{"type":"Point","coordinates":[-47.553137,-24.706954]}},{"type":"Feature","properties":{"municipio":"7ed5c3dc-4847-459c-976c-4ab32eb2e663","title":"SP - IBIUNA","name":"SP - IBIUNA","tipo":"Munic\u00edpio","url":"\/dashboard\/details-assets\/7ed5c3dc-4847-459c-976c-4ab32eb2e663"},"geometry":{"type":"Point","coordinates":[-47.220491,-23.652632]}},{"type":"Feature","properties":{"municipio":"ed50bb9a-56b4-457d-909a-f51d846666f7","title":"SP - IBITINGA","name":"SP - IBITINGA","tipo":"Munic\u00edpio","url":"\/dashboard\/details-assets\/ed50bb9a-56b4-457d-909a-f51d846666f7"},"geometry":{"type":"Point","coordinates":[-48.827695,-21.757083]}},{"type":"Feature","properties":{"municipio":"9772cc84-afba-434e-9d7a-390031471f13","title":"SP - IBATE","name":"SP - IBATE","tipo":"Munic\u00edpio","url":"\/dashboard\/details-assets\/9772cc84-afba-434e-9d7a-390031471f13"},"geometry":{"type":"Point","coordinates":[-48.002388,-21.955602]}},{"type":"Feature","properties":{"municipio":"20a3d95f-90e5-4256-b329-5916d1eb8c49","title":"SP - HORTOLANDIA","name":"SP - HORTOLANDIA","tipo":"Munic\u00edpio","url":"\/dashboard\/details-assets\/20a3d95f-90e5-4256-b329-5916d1eb8c49"},"geometry":{"type":"Point","coordinates":[-47.221097,-22.858395]}},{"type":"Feature","properties":{"municipio":"1e04e65d-b30b-4468-acd4-eeddcf555301","title":"SP - GUARULHOS","name":"SP - GUARULHOS","tipo":"Munic\u00edpio","url":"\/dashboard\/details-assets\/1e04e65d-b30b-4468-acd4-eeddcf555301"},"geometry":{"type":"Point","coordinates":[-46.531084,-23.468506]}},{"type":"Feature","properties":{"municipio":"ff2f5e46-a3c7-4d8a-9373-27c345aca66e","title":"SP - GUARUJA","name":"SP - GUARUJA","tipo":"Munic\u00edpio","url":"\/dashboard\/details-assets\/ff2f5e46-a3c7-4d8a-9373-27c345aca66e"},"geometry":{"type":"Point","coordinates":[-46.249034,-23.995149]}},{"type":"Feature","properties":{"municipio":"fb3ea355-5a5c-4ef0-b9cf-604c79c28b06","title":"SP - GUARATINGUETA","name":"SP - GUARATINGUETA","tipo":"Munic\u00edpio","url":"\/dashboard\/details-assets\/fb3ea355-5a5c-4ef0-b9cf-604c79c28b06"},"geometry":{"type":"Point","coordinates":[-45.1916,-22.817425]}},{"type":"Feature","properties":{"municipio":"615da974-754e-45e2-ae9b-79ff8eab69d2","title":"SP - GUARARAPES","name":"SP - GUARARAPES","tipo":"Munic\u00edpio","url":"\/dashboard\/details-assets\/615da974-754e-45e2-ae9b-79ff8eab69d2"},"geometry":{"type":"Point","coordinates":[-50.642639,-21.253446]}},{"type":"Feature","properties":{"municipio":"217572ae-986e-41c6-a282-888b64d2e7ed","title":"SP - GUAIRA","name":"SP - GUAIRA","tipo":"Munic\u00edpio","url":"\/dashboard\/details-assets\/217572ae-986e-41c6-a282-888b64d2e7ed"},"geometry":{"type":"Point","coordinates":[-54.246758,-24.085275]}},{"type":"Feature","properties":{"municipio":"d29f3fde-f7c6-47ce-a30d-70d71f098edf","title":"SP - GARCA","name":"SP - GARCA","tipo":"Munic\u00edpio","url":"\/dashboard\/details-assets\/d29f3fde-f7c6-47ce-a30d-70d71f098edf"},"geometry":{"type":"Point","coordinates":[-49.65653,-22.210709]}},{"type":"Feature","properties":{"municipio":"ac064956-a0f5-46e4-86f4-f947ce1b621e","title":"SP - FRANCO DA ROCHA","name":"SP - FRANCO DA ROCHA","tipo":"Munic\u00edpio","url":"\/dashboard\/details-assets\/ac064956-a0f5-46e4-86f4-f947ce1b621e"},"geometry":{"type":"Point","coordinates":[-46.727875,-23.320302]}},{"type":"Feature","properties":{"municipio":"d766752d-c174-4f40-9d61-6534fe155083","title":"SP - FRANCISCO MORATO","name":"SP - FRANCISCO MORATO","tipo":"Munic\u00edpio","url":"\/dashboard\/details-assets\/d766752d-c174-4f40-9d61-6534fe155083"},"geometry":{"type":"Point","coordinates":[-46.732527,-23.275825]}},{"type":"Feature","properties":{"municipio":"89f5fbb1-e63a-450b-9be5-afaa9571b546","title":"SP - FRANCA","name":"SP - FRANCA","tipo":"Munic\u00edpio","url":"\/dashboard\/details-assets\/89f5fbb1-e63a-450b-9be5-afaa9571b546"},"geometry":{"type":"Point","coordinates":[-47.402332,-20.536097]}},{"type":"Feature","properties":{"municipio":"5186c4de-9bb9-479a-8f64-371b3f746fe7","title":"SP - FERRAZ DE VASCONCELOS","name":"SP - FERRAZ DE VASCONCELOS","tipo":"Munic\u00edpio","url":"\/dashboard\/details-assets\/5186c4de-9bb9-479a-8f64-371b3f746fe7"},"geometry":{"type":"Point","coordinates":[-46.364493,-23.528796]}},{"type":"Feature","properties":{"municipio":"bf8716b6-002a-4291-9d10-2a66b4ce7114","title":"SP - FERNANDOPOLIS","name":"SP - FERNANDOPOLIS","tipo":"Munic\u00edpio","url":"\/dashboard\/details-assets\/bf8716b6-002a-4291-9d10-2a66b4ce7114"},"geometry":{"type":"Point","coordinates":[-50.248748,-20.282383]}},{"type":"Feature","properties":{"municipio":"2c724673-44db-471b-bf03-be83052eefd9","title":"SP - ESPIRITO SANTO DO PINHAL","name":"SP - ESPIRITO SANTO DO PINHAL","tipo":"Munic\u00edpio","url":"\/dashboard\/details-assets\/2c724673-44db-471b-bf03-be83052eefd9"},"geometry":{"type":"Point","coordinates":[-46.745514,-22.197053]}},{"type":"Feature","properties":{"municipio":"c54fc225-675d-4bde-a122-0bffd50107f9","title":"SP - EMBU-GUACU","name":"SP - EMBU-GUACU","tipo":"Munic\u00edpio","url":"\/dashboard\/details-assets\/c54fc225-675d-4bde-a122-0bffd50107f9"},"geometry":{"type":"Point","coordinates":[-46.817109,-23.831829]}},{"type":"Feature","properties":{"municipio":"e9ec89f9-c3f3-4d1a-9c2e-a6a1ef4526c8","title":"SP - EMBU DAS ARTES","name":"SP - EMBU DAS ARTES","tipo":"Munic\u00edpio","url":"\/dashboard\/details-assets\/e9ec89f9-c3f3-4d1a-9c2e-a6a1ef4526c8"},"geometry":{"type":"Point","coordinates":[-46.85086,-23.647312]}},{"type":"Feature","properties":{"municipio":"70229cf3-e803-4dfd-84ce-f9c296a360a7","title":"SP - ELDORADO","name":"SP - ELDORADO","tipo":"Munic\u00edpio","url":"\/dashboard\/details-assets\/70229cf3-e803-4dfd-84ce-f9c296a360a7"},"geometry":{"type":"Point","coordinates":[-54.280028,-23.774054]}},{"type":"Feature","properties":{"municipio":"e436a05a-6032-471f-9761-b9af8ea3c240","title":"SP - DRACENA","name":"SP - DRACENA","tipo":"Munic\u00edpio","url":"\/dashboard\/details-assets\/e436a05a-6032-471f-9761-b9af8ea3c240"},"geometry":{"type":"Point","coordinates":[-51.53405,-21.486138]}},{"type":"Feature","properties":{"municipio":"fc8b26b7-f9dc-4f60-bce4-a6b14d50dcbf","title":"SP - DIADEMA","name":"SP - DIADEMA","tipo":"Munic\u00edpio","url":"\/dashboard\/details-assets\/fc8b26b7-f9dc-4f60-bce4-a6b14d50dcbf"},"geometry":{"type":"Point","coordinates":[-46.623381,-23.689295]}},{"type":"Feature","properties":{"municipio":"d09311b9-2c21-48f2-9767-845f68df5b0c","title":"SP - CUBATAO","name":"SP - CUBATAO","tipo":"Munic\u00edpio","url":"\/dashboard\/details-assets\/d09311b9-2c21-48f2-9767-845f68df5b0c"},"geometry":{"type":"Point","coordinates":[-46.420032,-23.883839]}},{"type":"Feature","properties":{"municipio":"04e0500f-5b98-4fa6-9fe4-44c4947abb37","title":"SP - CRUZEIRO","name":"SP - CRUZEIRO","tipo":"Munic\u00edpio","url":"\/dashboard\/details-assets\/04e0500f-5b98-4fa6-9fe4-44c4947abb37"},"geometry":{"type":"Point","coordinates":[-44.961732,-22.57775]}},{"type":"Feature","properties":{"municipio":"9a5a8659-ddb4-4999-be4d-3566e1c99543","title":"SP - COTIA","name":"SP - COTIA","tipo":"Munic\u00edpio","url":"\/dashboard\/details-assets\/9a5a8659-ddb4-4999-be4d-3566e1c99543"},"geometry":{"type":"Point","coordinates":[-46.931846,-23.603514]}},{"type":"Feature","properties":{"municipio":"72feb5e3-95e4-4b99-9fa9-edc5e74b66eb","title":"SP - COSMOPOLIS","name":"SP - COSMOPOLIS","tipo":"Munic\u00edpio","url":"\/dashboard\/details-assets\/72feb5e3-95e4-4b99-9fa9-edc5e74b66eb"},"geometry":{"type":"Point","coordinates":[-47.196771,-22.645785]}},{"type":"Feature","properties":{"municipio":"33c7503b-3e9f-435a-ab48-79d19c24cb54","title":"SP - CERQUILHO","name":"SP - CERQUILHO","tipo":"Munic\u00edpio","url":"\/dashboard\/details-assets\/33c7503b-3e9f-435a-ab48-79d19c24cb54"},"geometry":{"type":"Point","coordinates":[-47.737531,-23.168672]}},{"type":"Feature","properties":{"municipio":"9227759a-f030-4358-9ac9-1cc3e248afe2","title":"SP - CERQUEIRA CESAR","name":"SP - CERQUEIRA CESAR","tipo":"Munic\u00edpio","url":"\/dashboard\/details-assets\/9227759a-f030-4358-9ac9-1cc3e248afe2"},"geometry":{"type":"Point","coordinates":[-49.16533,-23.034797]}},{"type":"Feature","properties":{"municipio":"989af765-c4a9-4fb3-a921-7e2c62a98153","title":"SP - CATANDUVA","name":"SP - CATANDUVA","tipo":"Munic\u00edpio","url":"\/dashboard\/details-assets\/989af765-c4a9-4fb3-a921-7e2c62a98153"},"geometry":{"type":"Point","coordinates":[-48.975871,-21.139538]}},{"type":"Feature","properties":{"municipio":"7d6c495b-20c8-4ace-846f-a270cb8d1f3a","title":"SP - CASA BRANCA","name":"SP - CASA BRANCA","tipo":"Munic\u00edpio","url":"\/dashboard\/details-assets\/7d6c495b-20c8-4ace-846f-a270cb8d1f3a"},"geometry":{"type":"Point","coordinates":[-47.079758,-21.777987]}},{"type":"Feature","properties":{"municipio":"1a70345f-36e2-40f2-8155-26499faf96a7","title":"SP - CARAPICUIBA","name":"SP - CARAPICUIBA","tipo":"Munic\u00edpio","url":"\/dashboard\/details-assets\/1a70345f-36e2-40f2-8155-26499faf96a7"},"geometry":{"type":"Point","coordinates":[-46.841445,-23.535249]}},{"type":"Feature","properties":{"municipio":"b2ab54d0-9edd-49d0-9367-7c85c27a6b0c","title":"SP - CARAGUATATUBA","name":"SP - CARAGUATATUBA","tipo":"Munic\u00edpio","url":"\/dashboard\/details-assets\/b2ab54d0-9edd-49d0-9367-7c85c27a6b0c"},"geometry":{"type":"Point","coordinates":[-45.410818,-23.622006]}},{"type":"Feature","properties":{"municipio":"756fb0d2-81f7-4e3a-93c9-86249f464697","title":"SP - CAPIVARI","name":"SP - CAPIVARI","tipo":"Munic\u00edpio","url":"\/dashboard\/details-assets\/756fb0d2-81f7-4e3a-93c9-86249f464697"},"geometry":{"type":"Point","coordinates":[-47.502206,-22.999549]}},{"type":"Feature","properties":{"municipio":"f6e080a4-2c3c-43c2-900a-49772f7441fb","title":"SP - CAPAO BONITO","name":"SP - CAPAO BONITO","tipo":"Munic\u00edpio","url":"\/dashboard\/details-assets\/f6e080a4-2c3c-43c2-900a-49772f7441fb"},"geometry":{"type":"Point","coordinates":[-48.351435,-24.006801]}},{"type":"Feature","properties":{"municipio":"3e34adb6-e493-42f5-9a3b-ad9d70861746","title":"SP - CANDIDO MOTA","name":"SP - CANDIDO MOTA","tipo":"Munic\u00edpio","url":"\/dashboard\/details-assets\/3e34adb6-e493-42f5-9a3b-ad9d70861746"},"geometry":{"type":"Point","coordinates":[-50.388393,-22.746925]}},{"type":"Feature","properties":{"municipio":"8e271e7d-00a9-4a3b-9259-41fe7a37a2c7","title":"SP - CAMPOS DO JORDAO","name":"SP - CAMPOS DO JORDAO","tipo":"Munic\u00edpio","url":"\/dashboard\/details-assets\/8e271e7d-00a9-4a3b-9259-41fe7a37a2c7"},"geometry":{"type":"Point","coordinates":[-45.589202,-22.740092]}},{"type":"Feature","properties":{"municipio":"d1377fe3-6ca0-495d-a062-3b244995dd00","title":"SP - CAMPO LIMPO PAULISTA","name":"SP - CAMPO LIMPO PAULISTA","tipo":"Munic\u00edpio","url":"\/dashboard\/details-assets\/d1377fe3-6ca0-495d-a062-3b244995dd00"},"geometry":{"type":"Point","coordinates":[-46.789369,-23.208293]}},{"type":"Feature","properties":{"municipio":"43848b36-5b4d-4149-b699-c25d36919947","title":"SP - CAMPINAS","name":"SP - CAMPINAS","tipo":"Munic\u00edpio","url":"\/dashboard\/details-assets\/43848b36-5b4d-4149-b699-c25d36919947"},"geometry":{"type":"Point","coordinates":[-47.060156,-22.907342]}},{"type":"Feature","properties":{"municipio":"2e3c1bce-3e40-42fa-9546-7524191f99bf","title":"SP - CAJURU","name":"SP - CAJURU","tipo":"Munic\u00edpio","url":"\/dashboard\/details-assets\/2e3c1bce-3e40-42fa-9546-7524191f99bf"},"geometry":{"type":"Point","coordinates":[-47.303467,-21.275414]}},{"type":"Feature","properties":{"municipio":"7b2ed4a3-a20d-4d8f-8072-4233dcb74db1","title":"SP - CAJATI","name":"SP - CAJATI","tipo":"Munic\u00edpio","url":"\/dashboard\/details-assets\/7b2ed4a3-a20d-4d8f-8072-4233dcb74db1"},"geometry":{"type":"Point","coordinates":[-48.105,-24.726361]}},{"type":"Feature","properties":{"municipio":"ed1ef59c-cd67-4180-8fb3-cac5decb6533","title":"SP - CAJAMAR","name":"SP - CAJAMAR","tipo":"Munic\u00edpio","url":"\/dashboard\/details-assets\/ed1ef59c-cd67-4180-8fb3-cac5decb6533"},"geometry":{"type":"Point","coordinates":[-46.88292,-23.360971]}},{"type":"Feature","properties":{"municipio":"328d7932-f13d-47c1-ba2d-d4f2f8a8153f","title":"SP - CAIEIRAS","name":"SP - CAIEIRAS","tipo":"Munic\u00edpio","url":"\/dashboard\/details-assets\/328d7932-f13d-47c1-ba2d-d4f2f8a8153f"},"geometry":{"type":"Point","coordinates":[-46.744101,-23.362116]}},{"type":"Feature","properties":{"municipio":"6d231b0d-91ea-40d3-957a-c74bc39a3c0b","title":"SP - CACHOEIRA PAULISTA","name":"SP - CACHOEIRA PAULISTA","tipo":"Munic\u00edpio","url":"\/dashboard\/details-assets\/6d231b0d-91ea-40d3-957a-c74bc39a3c0b"},"geometry":{"type":"Point","coordinates":[-45.01063,-22.664754]}},{"type":"Feature","properties":{"municipio":"fe532cb6-314e-45d4-83e0-d186467d91f9","title":"SP - CACAPAVA","name":"SP - CACAPAVA","tipo":"Munic\u00edpio","url":"\/dashboard\/details-assets\/fe532cb6-314e-45d4-83e0-d186467d91f9"},"geometry":{"type":"Point","coordinates":[-45.70773,-23.100664]}},{"type":"Feature","properties":{"municipio":"e782febd-166f-4883-983a-edef4f07acb7","title":"SP - CABREUVA","name":"SP - CABREUVA","tipo":"Munic\u00edpio","url":"\/dashboard\/details-assets\/e782febd-166f-4883-983a-edef4f07acb7"},"geometry":{"type":"Point","coordinates":[-47.133658,-23.312674]}},{"type":"Feature","properties":{"municipio":"bb35f920-5d84-48df-9b15-fb20ae4ad295","title":"SP - BRAGANCA PAULISTA","name":"SP - BRAGANCA PAULISTA","tipo":"Munic\u00edpio","url":"\/dashboard\/details-assets\/bb35f920-5d84-48df-9b15-fb20ae4ad295"},"geometry":{"type":"Point","coordinates":[-46.542333,-22.956895]}},{"type":"Feature","properties":{"municipio":"30e0f597-492d-4802-9bda-9e0274968803","title":"SP - BOTUCATU","name":"SP - BOTUCATU","tipo":"Munic\u00edpio","url":"\/dashboard\/details-assets\/30e0f597-492d-4802-9bda-9e0274968803"},"geometry":{"type":"Point","coordinates":[-48.441289,-22.888381]}},{"type":"Feature","properties":{"municipio":"7baf2937-478f-40fb-b0f1-8c1881f3a633","title":"SP - BOITUVA","name":"SP - BOITUVA","tipo":"Munic\u00edpio","url":"\/dashboard\/details-assets\/7baf2937-478f-40fb-b0f1-8c1881f3a633"},"geometry":{"type":"Point","coordinates":[-47.671473,-23.281944]}},{"type":"Feature","properties":{"municipio":"87daace3-a5b6-4819-a20c-ecbd2ff2f9ad","title":"SP - BIRIGUI","name":"SP - BIRIGUI","tipo":"Munic\u00edpio","url":"\/dashboard\/details-assets\/87daace3-a5b6-4819-a20c-ecbd2ff2f9ad"},"geometry":{"type":"Point","coordinates":[-50.339329,-21.292392]}},{"type":"Feature","properties":{"municipio":"ebb54de9-ad39-44c7-b4de-0cc2f5ee45f0","title":"SP - BERTIOGA","name":"SP - BERTIOGA","tipo":"Munic\u00edpio","url":"\/dashboard\/details-assets\/ebb54de9-ad39-44c7-b4de-0cc2f5ee45f0"},"geometry":{"type":"Point","coordinates":[-46.136538,-23.854014]}},{"type":"Feature","properties":{"municipio":"1f12a0f5-fe73-45bc-a12d-ea153ecaae0d","title":"SP - BEBEDOURO","name":"SP - BEBEDOURO","tipo":"Munic\u00edpio","url":"\/dashboard\/details-assets\/1f12a0f5-fe73-45bc-a12d-ea153ecaae0d"},"geometry":{"type":"Point","coordinates":[-48.477362,-20.949816]}},{"type":"Feature","properties":{"municipio":"21b22ce1-1b91-40e8-8852-539d3fd8c6b2","title":"SP - BAURU","name":"SP - BAURU","tipo":"Munic\u00edpio","url":"\/dashboard\/details-assets\/21b22ce1-1b91-40e8-8852-539d3fd8c6b2"},"geometry":{"type":"Point","coordinates":[-49.083001,-22.325122]}},{"type":"Feature","properties":{"municipio":"85fcc29d-5635-4a22-9f88-0a938406ff0e","title":"SP - BATATAIS","name":"SP - BATATAIS","tipo":"Munic\u00edpio","url":"\/dashboard\/details-assets\/85fcc29d-5635-4a22-9f88-0a938406ff0e"},"geometry":{"type":"Point","coordinates":[-47.586107,-20.891929]}},{"type":"Feature","properties":{"municipio":"c8617440-23db-494e-a615-3accab17266c","title":"SP - BARUERI","name":"SP - BARUERI","tipo":"Munic\u00edpio","url":"\/dashboard\/details-assets\/c8617440-23db-494e-a615-3accab17266c"},"geometry":{"type":"Point","coordinates":[-46.874653,-23.508902]}},{"type":"Feature","properties":{"municipio":"dc5a15d3-c932-4a25-8c72-6f2dff6f5e3e","title":"SP - BARRINHA","name":"SP - BARRINHA","tipo":"Munic\u00edpio","url":"\/dashboard\/details-assets\/dc5a15d3-c932-4a25-8c72-6f2dff6f5e3e"},"geometry":{"type":"Point","coordinates":[-48.162814,-21.191743]}},{"type":"Feature","properties":{"municipio":"f252c8ed-4a61-4e83-85c8-75daedfa11ac","title":"SP - BARRETOS","name":"SP - BARRETOS","tipo":"Munic\u00edpio","url":"\/dashboard\/details-assets\/f252c8ed-4a61-4e83-85c8-75daedfa11ac"},"geometry":{"type":"Point","coordinates":[-48.567378,-20.558456]}},{"type":"Feature","properties":{"municipio":"1dd10a3d-eba6-4bd6-8e2a-5781dfa9b439","title":"SP - BARRA DO TURVO","name":"SP - BARRA DO TURVO","tipo":"Munic\u00edpio","url":"\/dashboard\/details-assets\/1dd10a3d-eba6-4bd6-8e2a-5781dfa9b439"},"geometry":{"type":"Point","coordinates":[-48.545153,-24.876025]}},{"type":"Feature","properties":{"municipio":"877965cb-3a0f-4c6b-82f9-7554bab0974a","title":"SP - BARRA BONITA","name":"SP - BARRA BONITA","tipo":"Munic\u00edpio","url":"\/dashboard\/details-assets\/877965cb-3a0f-4c6b-82f9-7554bab0974a"},"geometry":{"type":"Point","coordinates":[-48.552414,-22.490671]}},{"type":"Feature","properties":{"municipio":"703a7a58-4777-4d8b-ad4c-ecc9ba25b104","title":"SP - AVARE","name":"SP - AVARE","tipo":"Munic\u00edpio","url":"\/dashboard\/details-assets\/703a7a58-4777-4d8b-ad4c-ecc9ba25b104"},"geometry":{"type":"Point","coordinates":[-48.923263,-23.103193]}},{"type":"Feature","properties":{"municipio":"a67cc953-b8e0-4ece-a8ee-df1b79ce67c0","title":"SP - AURIFLAMA","name":"SP - AURIFLAMA","tipo":"Munic\u00edpio","url":"\/dashboard\/details-assets\/a67cc953-b8e0-4ece-a8ee-df1b79ce67c0"},"geometry":{"type":"Point","coordinates":[-50.553959,-20.687335]}},{"type":"Feature","properties":{"municipio":"28e898a0-882e-4b42-bf51-791b9616c5f9","title":"SP - ATIBAIA","name":"SP - ATIBAIA","tipo":"Munic\u00edpio","url":"\/dashboard\/details-assets\/28e898a0-882e-4b42-bf51-791b9616c5f9"},"geometry":{"type":"Point","coordinates":[-46.555063,-23.116308]}},{"type":"Feature","properties":{"municipio":"348c5029-814a-4d3d-8b76-555f402cf77f","title":"SP - ASSIS","name":"SP - ASSIS","tipo":"Munic\u00edpio","url":"\/dashboard\/details-assets\/348c5029-814a-4d3d-8b76-555f402cf77f"},"geometry":{"type":"Point","coordinates":[-50.41751,-22.662835]}},{"type":"Feature","properties":{"municipio":"6a9686d8-8535-44ef-92c6-0de5221359da","title":"SP - ARUJA","name":"SP - ARUJA","tipo":"Munic\u00edpio","url":"\/dashboard\/details-assets\/6a9686d8-8535-44ef-92c6-0de5221359da"},"geometry":{"type":"Point","coordinates":[-46.32049,-23.395827]}},{"type":"Feature","properties":{"municipio":"81c95a46-b95e-4d76-9905-f7db0ebf017c","title":"SP - ARTUR NOGUEIRA","name":"SP - ARTUR NOGUEIRA","tipo":"Munic\u00edpio","url":"\/dashboard\/details-assets\/81c95a46-b95e-4d76-9905-f7db0ebf017c"},"geometry":{"type":"Point","coordinates":[-47.164301,-22.571343]}},{"type":"Feature","properties":{"municipio":"f27b70e6-bf3d-4250-a5d0-229978b5b44c","title":"SP - ARARAS","name":"SP - ARARAS","tipo":"Munic\u00edpio","url":"\/dashboard\/details-assets\/f27b70e6-bf3d-4250-a5d0-229978b5b44c"},"geometry":{"type":"Point","coordinates":[-47.38583,-22.357087]}},{"type":"Feature","properties":{"municipio":"e47c850c-7a40-427e-9f4e-7b168367b5df","title":"SP - ARARAQUARA","name":"SP - ARARAQUARA","tipo":"Munic\u00edpio","url":"\/dashboard\/details-assets\/e47c850c-7a40-427e-9f4e-7b168367b5df"},"geometry":{"type":"Point","coordinates":[-48.17444,-21.790359]}},{"type":"Feature","properties":{"municipio":"def72eda-935c-4a4d-8617-fb2b58123d32","title":"SP - ARACOIABA DA SERRA","name":"SP - ARACOIABA DA SERRA","tipo":"Munic\u00edpio","url":"\/dashboard\/details-assets\/def72eda-935c-4a4d-8617-fb2b58123d32"},"geometry":{"type":"Point","coordinates":[-47.587243,-23.50732]}},{"type":"Feature","properties":{"municipio":"87df8fcf-03a7-49cf-995d-13e06ee2616f","title":"SP - ARACATUBA","name":"SP - ARACATUBA","tipo":"Munic\u00edpio","url":"\/dashboard\/details-assets\/87df8fcf-03a7-49cf-995d-13e06ee2616f"},"geometry":{"type":"Point","coordinates":[-50.439226,-21.205476]}},{"type":"Feature","properties":{"municipio":"47d2efc9-ebbb-4d2f-a222-445d80cde830","title":"SP - APIAI","name":"SP - APIAI","tipo":"Munic\u00edpio","url":"\/dashboard\/details-assets\/47d2efc9-ebbb-4d2f-a222-445d80cde830"},"geometry":{"type":"Point","coordinates":[-48.84866,-24.513316]}},{"type":"Feature","properties":{"municipio":"81b4133b-343b-47e2-ad80-13670e92f113","title":"SP - APARECIDA","name":"SP - APARECIDA","tipo":"Munic\u00edpio","url":"\/dashboard\/details-assets\/81b4133b-343b-47e2-ad80-13670e92f113"},"geometry":{"type":"Point","coordinates":[-45.229429,-22.848154]}},{"type":"Feature","properties":{"municipio":"c294cb2c-58d1-411f-a4e0-53eb847e98b6","title":"SP - ANDRADINA","name":"SP - ANDRADINA","tipo":"Munic\u00edpio","url":"\/dashboard\/details-assets\/c294cb2c-58d1-411f-a4e0-53eb847e98b6"},"geometry":{"type":"Point","coordinates":[-51.378848,-20.901464]}},{"type":"Feature","properties":{"municipio":"06cedb1b-b56d-492b-9d1b-f80087b65510","title":"SP - AMPARO","name":"SP - AMPARO","tipo":"Munic\u00edpio","url":"\/dashboard\/details-assets\/06cedb1b-b56d-492b-9d1b-f80087b65510"},"geometry":{"type":"Point","coordinates":[-46.765086,-22.699389]}},{"type":"Feature","properties":{"municipio":"6c37b72a-3ee6-4614-8978-6a260a09adfc","title":"SP - AMERICANA","name":"SP - AMERICANA","tipo":"Munic\u00edpio","url":"\/dashboard\/details-assets\/6c37b72a-3ee6-4614-8978-6a260a09adfc"},"geometry":{"type":"Point","coordinates":[-47.330363,-22.740883]}},{"type":"Feature","properties":{"municipio":"79b3b2f2-338f-4707-8573-9af0d7620c59","title":"SP - AGUDOS","name":"SP - AGUDOS","tipo":"Munic\u00edpio","url":"\/dashboard\/details-assets\/79b3b2f2-338f-4707-8573-9af0d7620c59"},"geometry":{"type":"Point","coordinates":[-48.990156,-22.474037]}},{"type":"Feature","properties":{"municipio":"c9abbf79-dabc-45a3-8897-0cc3f207d35d","title":"SP - ADAMANTINA","name":"SP - ADAMANTINA","tipo":"Munic\u00edpio","url":"\/dashboard\/details-assets\/c9abbf79-dabc-45a3-8897-0cc3f207d35d"},"geometry":{"type":"Point","coordinates":[-51.102504,-21.685058]}},{"type":"Feature","properties":{"municipio":"105bcbf6-a4a1-4bf9-bede-9c5c13dec89c","title":"SC - XAXIM","name":"SC - XAXIM","tipo":"Munic\u00edpio","url":"\/dashboard\/details-assets\/105bcbf6-a4a1-4bf9-bede-9c5c13dec89c"},"geometry":{"type":"Point","coordinates":[-52.534933,-26.963719]}},{"type":"Feature","properties":{"municipio":"0bd6ac9e-7884-4a77-bd47-8bcbb0669150","title":"SC - XANXERE","name":"SC - XANXERE","tipo":"Munic\u00edpio","url":"\/dashboard\/details-assets\/0bd6ac9e-7884-4a77-bd47-8bcbb0669150"},"geometry":{"type":"Point","coordinates":[-52.404667,-26.874584]}},{"type":"Feature","properties":{"municipio":"f6500490-1de5-4526-8461-1b208857a978","title":"SC - VIDEIRA","name":"SC - VIDEIRA","tipo":"Munic\u00edpio","url":"\/dashboard\/details-assets\/f6500490-1de5-4526-8461-1b208857a978"},"geometry":{"type":"Point","coordinates":[-51.151705,-27.006129]}},{"type":"Feature","properties":{"municipio":"35594b18-58f4-4735-9958-e433dd49b308","title":"SC - TUBARAO","name":"SC - TUBARAO","tipo":"Munic\u00edpio","url":"\/dashboard\/details-assets\/35594b18-58f4-4735-9958-e433dd49b308"},"geometry":{"type":"Point","coordinates":[-49.005268,-28.480034]}},{"type":"Feature","properties":{"municipio":"17f091eb-0f56-40d5-b0aa-2d9c9a762e8d","title":"SC - TIMBO","name":"SC - TIMBO","tipo":"Munic\u00edpio","url":"\/dashboard\/details-assets\/17f091eb-0f56-40d5-b0aa-2d9c9a762e8d"},"geometry":{"type":"Point","coordinates":[-49.277712,-26.822903]}},{"type":"Feature","properties":{"municipio":"ba3c0855-d7aa-44f2-841c-56ca391858dc","title":"SC - TIJUCAS","name":"SC - TIJUCAS","tipo":"Munic\u00edpio","url":"\/dashboard\/details-assets\/ba3c0855-d7aa-44f2-841c-56ca391858dc"},"geometry":{"type":"Point","coordinates":[-48.632071,-27.239454]}},{"type":"Feature","properties":{"municipio":"13c676af-bb31-4ced-98ad-6619a844cdc1","title":"SC - TAIO","name":"SC - TAIO","tipo":"Munic\u00edpio","url":"\/dashboard\/details-assets\/13c676af-bb31-4ced-98ad-6619a844cdc1"},"geometry":{"type":"Point","coordinates":[-50.005096,-27.117937]}},{"type":"Feature","properties":{"municipio":"fb76bca4-5657-48fa-a029-6058b6c0c37e","title":"SC - SOMBRIO","name":"SC - SOMBRIO","tipo":"Munic\u00edpio","url":"\/dashboard\/details-assets\/fb76bca4-5657-48fa-a029-6058b6c0c37e"},"geometry":{"type":"Point","coordinates":[-49.63421,-29.109133]}},{"type":"Feature","properties":{"municipio":"6bec4f9a-13dd-4976-ab12-3675597cb350","title":"SC - SEARA","name":"SC - SEARA","tipo":"Munic\u00edpio","url":"\/dashboard\/details-assets\/6bec4f9a-13dd-4976-ab12-3675597cb350"},"geometry":{"type":"Point","coordinates":[-52.307093,-27.14266]}},{"type":"Feature","properties":{"municipio":"c49907b2-3daf-4757-9349-6a4a69fe308c","title":"SC - SAO MIGUEL DO OESTE","name":"SC - SAO MIGUEL DO OESTE","tipo":"Munic\u00edpio","url":"\/dashboard\/details-assets\/c49907b2-3daf-4757-9349-6a4a69fe308c"},"geometry":{"type":"Point","coordinates":[-53.518839,-26.726427]}},{"type":"Feature","properties":{"municipio":"bf1e7b02-6819-4407-b37b-d70b2ce77926","title":"SC - SAO LOURENCO DO OESTE","name":"SC - SAO LOURENCO DO OESTE","tipo":"Munic\u00edpio","url":"\/dashboard\/details-assets\/bf1e7b02-6819-4407-b37b-d70b2ce77926"},"geometry":{"type":"Point","coordinates":[-52.852705,-26.354526]}},{"type":"Feature","properties":{"municipio":"f874bcfe-0a61-4a4c-b9dc-6951e2ef405b","title":"SC - SAO JOSE","name":"SC - SAO JOSE","tipo":"Munic\u00edpio","url":"\/dashboard\/details-assets\/f874bcfe-0a61-4a4c-b9dc-6951e2ef405b"},"geometry":{"type":"Point","coordinates":[-48.642802,-27.610088]}},{"type":"Feature","properties":{"municipio":"a654e7c8-63a0-4f7f-a467-9f81703b206e","title":"SC - SAO JOAQUIM","name":"SC - SAO JOAQUIM","tipo":"Munic\u00edpio","url":"\/dashboard\/details-assets\/a654e7c8-63a0-4f7f-a467-9f81703b206e"},"geometry":{"type":"Point","coordinates":[-49.937587,-28.292455]}},{"type":"Feature","properties":{"municipio":"71f11ce5-54e9-490c-a811-dc1b2b1d7c96","title":"SC - SAO FRANCISCO DO SUL","name":"SC - SAO FRANCISCO DO SUL","tipo":"Munic\u00edpio","url":"\/dashboard\/details-assets\/71f11ce5-54e9-490c-a811-dc1b2b1d7c96"},"geometry":{"type":"Point","coordinates":[-48.637571,-26.244018]}},{"type":"Feature","properties":{"municipio":"e662e2dc-17ac-49eb-9f9e-b09a0257577e","title":"SC - SAO BENTO DO SUL","name":"SC - SAO BENTO DO SUL","tipo":"Munic\u00edpio","url":"\/dashboard\/details-assets\/e662e2dc-17ac-49eb-9f9e-b09a0257577e"},"geometry":{"type":"Point","coordinates":[-49.383557,-26.250037]}},{"type":"Feature","properties":{"municipio":"cc121d90-dc6b-42db-80ea-e6a2b7cc2f56","title":"SC - RIO NEGRINHO","name":"SC - RIO NEGRINHO","tipo":"Munic\u00edpio","url":"\/dashboard\/details-assets\/cc121d90-dc6b-42db-80ea-e6a2b7cc2f56"},"geometry":{"type":"Point","coordinates":[-49.517295,-26.255325]}},{"type":"Feature","properties":{"municipio":"35179331-389b-460d-98d1-b6963bc4ca77","title":"SC - RIO DO SUL","name":"SC - RIO DO SUL","tipo":"Munic\u00edpio","url":"\/dashboard\/details-assets\/35179331-389b-460d-98d1-b6963bc4ca77"},"geometry":{"type":"Point","coordinates":[-49.643238,-27.217903]}},{"type":"Feature","properties":{"municipio":"c4c61416-81c0-4876-903a-d14d0338c2ba","title":"SC - QUILOMBO","name":"SC - QUILOMBO","tipo":"Munic\u00edpio","url":"\/dashboard\/details-assets\/c4c61416-81c0-4876-903a-d14d0338c2ba"},"geometry":{"type":"Point","coordinates":[-52.72761,-26.740056]}},{"type":"Feature","properties":{"municipio":"0a231e12-8cee-4b96-b85a-8f45720510e0","title":"SC - PORTO UNIAO","name":"SC - PORTO UNIAO","tipo":"Munic\u00edpio","url":"\/dashboard\/details-assets\/0a231e12-8cee-4b96-b85a-8f45720510e0"},"geometry":{"type":"Point","coordinates":[-51.08171,-26.238912]}},{"type":"Feature","properties":{"municipio":"5b191906-1693-4ab4-b4b3-e8382cfbb1ec","title":"SC - PALMITOS","name":"SC - PALMITOS","tipo":"Munic\u00edpio","url":"\/dashboard\/details-assets\/5b191906-1693-4ab4-b4b3-e8382cfbb1ec"},"geometry":{"type":"Point","coordinates":[-53.159223,-27.071789]}},{"type":"Feature","properties":{"municipio":"ffe0e263-cd70-46fe-8a77-8c297b17530c","title":"SC - PALHOCA","name":"SC - PALHOCA","tipo":"Munic\u00edpio","url":"\/dashboard\/details-assets\/ffe0e263-cd70-46fe-8a77-8c297b17530c"},"geometry":{"type":"Point","coordinates":[-48.670288,-27.647044]}},{"type":"Feature","properties":{"municipio":"fa7f9999-317f-454e-9412-7f72cf9fc4cc","title":"SC - ORLEANS","name":"SC - ORLEANS","tipo":"Munic\u00edpio","url":"\/dashboard\/details-assets\/fa7f9999-317f-454e-9412-7f72cf9fc4cc"},"geometry":{"type":"Point","coordinates":[-49.291426,-28.360469]}},{"type":"Feature","properties":{"municipio":"b47e578c-70a9-44e6-a8ba-5af6819a450e","title":"SC - NAVEGANTES","name":"SC - NAVEGANTES","tipo":"Munic\u00edpio","url":"\/dashboard\/details-assets\/b47e578c-70a9-44e6-a8ba-5af6819a450e"},"geometry":{"type":"Point","coordinates":[-48.649183,-26.897439]}},{"type":"Feature","properties":{"municipio":"54470672-ad79-44af-97fd-b283091e4713","title":"SC - MARAVILHA","name":"SC - MARAVILHA","tipo":"Munic\u00edpio","url":"\/dashboard\/details-assets\/54470672-ad79-44af-97fd-b283091e4713"},"geometry":{"type":"Point","coordinates":[-53.174819,-26.761624]}},{"type":"Feature","properties":{"municipio":"23536119-f39f-4f64-928f-58e67afcfdfd","title":"SC - MAFRA","name":"SC - MAFRA","tipo":"Munic\u00edpio","url":"\/dashboard\/details-assets\/23536119-f39f-4f64-928f-58e67afcfdfd"},"geometry":{"type":"Point","coordinates":[-49.801038,-26.115228]}},{"type":"Feature","properties":{"municipio":"9ac88d18-1931-41b5-aa3d-d5ad24f3bcc4","title":"SC - LAGUNA","name":"SC - LAGUNA","tipo":"Munic\u00edpio","url":"\/dashboard\/details-assets\/9ac88d18-1931-41b5-aa3d-d5ad24f3bcc4"},"geometry":{"type":"Point","coordinates":[-48.781389,-28.483586]}},{"type":"Feature","properties":{"municipio":"ebfccffb-3916-4fca-b48f-60a33d0c6ca2","title":"SC - LAGES","name":"SC - LAGES","tipo":"Munic\u00edpio","url":"\/dashboard\/details-assets\/ebfccffb-3916-4fca-b48f-60a33d0c6ca2"},"geometry":{"type":"Point","coordinates":[-50.330222,-27.817259]}},{"type":"Feature","properties":{"municipio":"92e04488-3d7e-49c4-add1-a24dfa8764c4","title":"SC - JOINVILLE","name":"SC - JOINVILLE","tipo":"Munic\u00edpio","url":"\/dashboard\/details-assets\/92e04488-3d7e-49c4-add1-a24dfa8764c4"},"geometry":{"type":"Point","coordinates":[-48.849409,-26.304518]}},{"type":"Feature","properties":{"municipio":"f4c15e1a-dd5b-4a83-a35b-90271e0b587e","title":"SC - JOACABA","name":"SC - JOACABA","tipo":"Munic\u00edpio","url":"\/dashboard\/details-assets\/f4c15e1a-dd5b-4a83-a35b-90271e0b587e"},"geometry":{"type":"Point","coordinates":[-51.50669,-27.173945]}},{"type":"Feature","properties":{"municipio":"ce86881a-90f6-404a-b55d-8180e9a45719","title":"SC - JARAGUA DO SUL","name":"SC - JARAGUA DO SUL","tipo":"Munic\u00edpio","url":"\/dashboard\/details-assets\/ce86881a-90f6-404a-b55d-8180e9a45719"},"geometry":{"type":"Point","coordinates":[-49.076299,-26.490484]}},{"type":"Feature","properties":{"municipio":"477598cf-50a3-43a6-9683-e989bbd82d1f","title":"SC - ITUPORANGA","name":"SC - ITUPORANGA","tipo":"Munic\u00edpio","url":"\/dashboard\/details-assets\/477598cf-50a3-43a6-9683-e989bbd82d1f"},"geometry":{"type":"Point","coordinates":[-49.603415,-27.414858]}},{"type":"Feature","properties":{"municipio":"f48b8e7d-89e7-47b4-9e9c-4da2b510e1d1","title":"SC - ITAPIRANGA","name":"SC - ITAPIRANGA","tipo":"Munic\u00edpio","url":"\/dashboard\/details-assets\/f48b8e7d-89e7-47b4-9e9c-4da2b510e1d1"},"geometry":{"type":"Point","coordinates":[-53.714802,-27.175375]}},{"type":"Feature","properties":{"municipio":"d8f7d103-1fb1-465b-8ce0-769ecc38b6b9","title":"SC - ITAPEMA","name":"SC - ITAPEMA","tipo":"Munic\u00edpio","url":"\/dashboard\/details-assets\/d8f7d103-1fb1-465b-8ce0-769ecc38b6b9"},"geometry":{"type":"Point","coordinates":[-48.617399,-27.095938]}},{"type":"Feature","properties":{"municipio":"09e12c27-da73-4830-b485-fa5f156b4f06","title":"SC - ITAJAI","name":"SC - ITAJAI","tipo":"Munic\u00edpio","url":"\/dashboard\/details-assets\/09e12c27-da73-4830-b485-fa5f156b4f06"},"geometry":{"type":"Point","coordinates":[-48.670913,-26.910705]}},{"type":"Feature","properties":{"municipio":"c3f3c5fa-87ef-4894-846a-7ead5da9cbb0","title":"SC - INDAIAL","name":"SC - INDAIAL","tipo":"Munic\u00edpio","url":"\/dashboard\/details-assets\/c3f3c5fa-87ef-4894-846a-7ead5da9cbb0"},"geometry":{"type":"Point","coordinates":[-49.24014,-26.906256]}},{"type":"Feature","properties":{"municipio":"3fac3f02-8e25-44ed-bc18-a33049574580","title":"SC - IMBITUBA","name":"SC - IMBITUBA","tipo":"Munic\u00edpio","url":"\/dashboard\/details-assets\/3fac3f02-8e25-44ed-bc18-a33049574580"},"geometry":{"type":"Point","coordinates":[-48.669284,-28.239951]}},{"type":"Feature","properties":{"municipio":"90b4791c-2026-4c6a-a242-178d308d7149","title":"SC - ICARA","name":"SC - ICARA","tipo":"Munic\u00edpio","url":"\/dashboard\/details-assets\/90b4791c-2026-4c6a-a242-178d308d7149"},"geometry":{"type":"Point","coordinates":[-49.309144,-28.71371]}},{"type":"Feature","properties":{"municipio":"61efc8f6-b07e-4d8e-a7d4-f5e91df9a3dd","title":"SC - GUARAMIRIM","name":"SC - GUARAMIRIM","tipo":"Munic\u00edpio","url":"\/dashboard\/details-assets\/61efc8f6-b07e-4d8e-a7d4-f5e91df9a3dd"},"geometry":{"type":"Point","coordinates":[-48.992104,-26.474445]}},{"type":"Feature","properties":{"municipio":"4b4be318-bcd1-4607-be94-6522a53c9d0f","title":"SC - GAROPABA","name":"SC - GAROPABA","tipo":"Munic\u00edpio","url":"\/dashboard\/details-assets\/4b4be318-bcd1-4607-be94-6522a53c9d0f"},"geometry":{"type":"Point","coordinates":[-48.6355,-28.024935]}},{"type":"Feature","properties":{"municipio":"f4662c09-0aa0-44e6-8b8d-4b4917246cbf","title":"SC - FRAIBURGO","name":"SC - FRAIBURGO","tipo":"Munic\u00edpio","url":"\/dashboard\/details-assets\/f4662c09-0aa0-44e6-8b8d-4b4917246cbf"},"geometry":{"type":"Point","coordinates":[-50.925079,-27.023447]}},{"type":"Feature","properties":{"municipio":"2469af6c-d68d-4856-876d-0b3230880389","title":"SC - FLORIANOPOLIS","name":"SC - FLORIANOPOLIS","tipo":"Munic\u00edpio","url":"\/dashboard\/details-assets\/2469af6c-d68d-4856-876d-0b3230880389"},"geometry":{"type":"Point","coordinates":[-48.547637,-27.587796]}},{"type":"Feature","properties":{"municipio":"e95b876d-0af7-45c1-9859-fb0c14b42367","title":"SC - DIONISIO CERQUEIRA","name":"SC - DIONISIO CERQUEIRA","tipo":"Munic\u00edpio","url":"\/dashboard\/details-assets\/e95b876d-0af7-45c1-9859-fb0c14b42367"},"geometry":{"type":"Point","coordinates":[-53.631395,-26.266489]}},{"type":"Feature","properties":{"municipio":"cbd90ced-b932-48a3-9d2e-64cbdc00254c","title":"SC - CURITIBANOS","name":"SC - CURITIBANOS","tipo":"Munic\u00edpio","url":"\/dashboard\/details-assets\/cbd90ced-b932-48a3-9d2e-64cbdc00254c"},"geometry":{"type":"Point","coordinates":[-50.582601,-27.282983]}},{"type":"Feature","properties":{"municipio":"48a3311d-7f52-40c3-b46d-a7da8c118b11","title":"SC - CRICIUMA","name":"SC - CRICIUMA","tipo":"Munic\u00edpio","url":"\/dashboard\/details-assets\/48a3311d-7f52-40c3-b46d-a7da8c118b11"},"geometry":{"type":"Point","coordinates":[-49.36594,-28.673572]}},{"type":"Feature","properties":{"municipio":"b8c5ce65-a4fa-480f-a270-d5da289471b3","title":"SC - CONCORDIA","name":"SC - CONCORDIA","tipo":"Munic\u00edpio","url":"\/dashboard\/details-assets\/b8c5ce65-a4fa-480f-a270-d5da289471b3"},"geometry":{"type":"Point","coordinates":[-52.023971,-27.233659]}},{"type":"Feature","properties":{"municipio":"ba9aeb57-771a-4de2-adf8-c23db2c7acac","title":"SC - CHAPECO","name":"SC - CHAPECO","tipo":"Munic\u00edpio","url":"\/dashboard\/details-assets\/ba9aeb57-771a-4de2-adf8-c23db2c7acac"},"geometry":{"type":"Point","coordinates":[-52.615699,-27.100934]}},{"type":"Feature","properties":{"municipio":"0cbd58e4-72b4-4f7b-b88d-c51109a1f233","title":"SC - CANOINHAS","name":"SC - CANOINHAS","tipo":"Munic\u00edpio","url":"\/dashboard\/details-assets\/0cbd58e4-72b4-4f7b-b88d-c51109a1f233"},"geometry":{"type":"Point","coordinates":[-50.397849,-26.178807]}},{"type":"Feature","properties":{"municipio":"241dfd2e-94d3-4ebd-8038-7fde5500a2b8","title":"SC - CAMPOS NOVOS","name":"SC - CAMPOS NOVOS","tipo":"Munic\u00edpio","url":"\/dashboard\/details-assets\/241dfd2e-94d3-4ebd-8038-7fde5500a2b8"},"geometry":{"type":"Point","coordinates":[-51.223673,-27.399053]}},{"type":"Feature","properties":{"municipio":"2a4148f6-69a6-44ae-9424-1b443aefda63","title":"SC - CAMBORIU","name":"SC - CAMBORIU","tipo":"Munic\u00edpio","url":"\/dashboard\/details-assets\/2a4148f6-69a6-44ae-9424-1b443aefda63"},"geometry":{"type":"Point","coordinates":[-48.649996,-27.026456]}},{"type":"Feature","properties":{"municipio":"2dbbeeef-c9b3-476a-8d50-cd5a13ee114c","title":"SC - CACADOR","name":"SC - CACADOR","tipo":"Munic\u00edpio","url":"\/dashboard\/details-assets\/2dbbeeef-c9b3-476a-8d50-cd5a13ee114c"},"geometry":{"type":"Point","coordinates":[-51.019035,-26.775348]}},{"type":"Feature","properties":{"municipio":"924f6d63-d215-485c-b83e-9d6cf5c64996","title":"SC - BRUSQUE","name":"SC - BRUSQUE","tipo":"Munic\u00edpio","url":"\/dashboard\/details-assets\/924f6d63-d215-485c-b83e-9d6cf5c64996"},"geometry":{"type":"Point","coordinates":[-48.915163,-27.09831]}},{"type":"Feature","properties":{"municipio":"488d6a1f-a2d9-4d76-b3b6-52876437b5ed","title":"SC - BRACO DO NORTE","name":"SC - BRACO DO NORTE","tipo":"Munic\u00edpio","url":"\/dashboard\/details-assets\/488d6a1f-a2d9-4d76-b3b6-52876437b5ed"},"geometry":{"type":"Point","coordinates":[-49.164548,-28.280039]}},{"type":"Feature","properties":{"municipio":"441d221e-068e-4016-83cc-32f9ee2f1e96","title":"SC - BIGUACU","name":"SC - BIGUACU","tipo":"Munic\u00edpio","url":"\/dashboard\/details-assets\/441d221e-068e-4016-83cc-32f9ee2f1e96"},"geometry":{"type":"Point","coordinates":[-48.654489,-27.494323]}},{"type":"Feature","properties":{"municipio":"77ef1fbd-cddd-4458-8990-e8aa04ea9bac","title":"SC - BLUMENAU","name":"SC - BLUMENAU","tipo":"Munic\u00edpio","url":"\/dashboard\/details-assets\/77ef1fbd-cddd-4458-8990-e8aa04ea9bac"},"geometry":{"type":"Point","coordinates":[-49.057631,-26.916108]}},{"type":"Feature","properties":{"municipio":"0ca1c0e1-6301-4c1d-9028-200652ea4e7c","title":"SC - BALNEARIO CAMBORIU","name":"SC - BALNEARIO CAMBORIU","tipo":"Munic\u00edpio","url":"\/dashboard\/details-assets\/0ca1c0e1-6301-4c1d-9028-200652ea4e7c"},"geometry":{"type":"Point","coordinates":[-48.634617,-26.991819]}},{"type":"Feature","properties":{"municipio":"ae6d04b1-495c-4780-99f0-5663aae3ffa1","title":"SC - ARARANGUA","name":"SC - ARARANGUA","tipo":"Munic\u00edpio","url":"\/dashboard\/details-assets\/ae6d04b1-495c-4780-99f0-5663aae3ffa1"},"geometry":{"type":"Point","coordinates":[-49.492301,-28.936119]}},{"type":"Feature","properties":{"municipio":"1b0612ad-7858-4716-bbcc-6ac143cc809e","title":"RR - SAO JOAO DA BALIZA","name":"RR - SAO JOAO DA BALIZA","tipo":"Munic\u00edpio","url":"\/dashboard\/details-assets\/1b0612ad-7858-4716-bbcc-6ac143cc809e"},"geometry":{"type":"Point","coordinates":[-59.906044,0.947157]}},