{"type":"FeatureCollection","features":[{"type":"Feature","properties":{"municipio":"7cb46ffc-54aa-409f-9d22-9c45f543ac6c","title":"TO - TOCANTINOPOLIS","name":"TO - TOCANTINOPOLIS","tipo":"Munic\u00edpio","url":"\/dashboard\/details-assets\/7cb46ffc-54aa-409f-9d22-9c45f543ac6c"},"geometry":{"type":"Point","coordinates":[-47.427412928693,-6.325634375821]}},{"type":"Feature","properties":{"municipio":"eae92df7-cf46-4c36-9723-c1eea50fda7f","title":"TO - PALMAS","name":"TO - PALMAS","tipo":"Munic\u00edpio","url":"\/dashboard\/details-assets\/eae92df7-cf46-4c36-9723-c1eea50fda7f"},"geometry":{"type":"Point","coordinates":[-48.4873224,-10.2596918]}},{"type":"Feature","properties":{"municipio":"e3a226cc-3da9-4256-9a6d-643ef824b0ef","title":"TO - PORTO NACIONAL","name":"TO - PORTO NACIONAL","tipo":"Munic\u00edpio","url":"\/dashboard\/details-assets\/e3a226cc-3da9-4256-9a6d-643ef824b0ef"},"geometry":{"type":"Point","coordinates":[-48.177556112739,-8.9644495921321]}},{"type":"Feature","properties":{"municipio":"2dbd25c2-bbbf-46ac-87f5-7df9ded6913d","title":"TO - PARAISO DO TOCANTINS","name":"TO - PARAISO DO TOCANTINS","tipo":"Munic\u00edpio","url":"\/dashboard\/details-assets\/2dbd25c2-bbbf-46ac-87f5-7df9ded6913d"},"geometry":{"type":"Point","coordinates":[-48.337193189453,-10.176897759401]}},{"type":"Feature","properties":{"municipio":"1b04015d-1bcf-491f-9944-59ccf54343af","title":"TO - MIRACEMA DO TOCANTINS","name":"TO - MIRACEMA DO TOCANTINS","tipo":"Munic\u00edpio","url":"\/dashboard\/details-assets\/1b04015d-1bcf-491f-9944-59ccf54343af"},"geometry":{"type":"Point","coordinates":[-49.07147746893,-11.729772322484]}},{"type":"Feature","properties":{"municipio":"a551cd19-e2d2-47ef-b032-13e62a4b5e18","title":"TO - GURUPI","name":"TO - GURUPI","tipo":"Munic\u00edpio","url":"\/dashboard\/details-assets\/a551cd19-e2d2-47ef-b032-13e62a4b5e18"},"geometry":{"type":"Point","coordinates":[-49.526860362913,-11.805141968271]}},{"type":"Feature","properties":{"municipio":"6028cc5a-03f2-4741-a819-40c47dc0356a","title":"TO - GUARAI","name":"TO - GUARAI","tipo":"Munic\u00edpio","url":"\/dashboard\/details-assets\/6028cc5a-03f2-4741-a819-40c47dc0356a"},"geometry":{"type":"Point","coordinates":[-48.544147600412,-5.3666080592286]}},{"type":"Feature","properties":{"municipio":"e14aba9a-2d4f-41b6-960b-2415fb98af2a","title":"TO - DIANOPOLIS","name":"TO - DIANOPOLIS","tipo":"Munic\u00edpio","url":"\/dashboard\/details-assets\/e14aba9a-2d4f-41b6-960b-2415fb98af2a"},"geometry":{"type":"Point","coordinates":[-48.481594543749,-8.0546246752378]}},{"type":"Feature","properties":{"municipio":"79379c24-7e40-4f8f-b6a6-4243cc447e4e","title":"TO - COLINAS DO TOCANTINS","name":"TO - COLINAS DO TOCANTINS","tipo":"Munic\u00edpio","url":"\/dashboard\/details-assets\/79379c24-7e40-4f8f-b6a6-4243cc447e4e"},"geometry":{"type":"Point","coordinates":[-47.880956791005,-5.4654142957174]}},{"type":"Feature","properties":{"municipio":"1f7c3f21-c0e5-4b87-992f-4ea2395b92ba","title":"TO - ARRAIAS","name":"TO - ARRAIAS","tipo":"Munic\u00edpio","url":"\/dashboard\/details-assets\/1f7c3f21-c0e5-4b87-992f-4ea2395b92ba"},"geometry":{"type":"Point","coordinates":[-48.123507343029,-5.6505864728148]}},{"type":"Feature","properties":{"municipio":"200b218d-7010-4cee-8f78-4798dc933513","title":"TO - ARAGUATINS","name":"TO - ARAGUATINS","tipo":"Munic\u00edpio","url":"\/dashboard\/details-assets\/200b218d-7010-4cee-8f78-4798dc933513"},"geometry":{"type":"Point","coordinates":[-48.208705251856,-7.1913289394203]}},{"type":"Feature","properties":{"municipio":"7c09abcc-5719-4880-b71a-b7c0a4335f63","title":"TO - ARAGUAINA","name":"TO - ARAGUAINA","tipo":"Munic\u00edpio","url":"\/dashboard\/details-assets\/7c09abcc-5719-4880-b71a-b7c0a4335f63"},"geometry":{"type":"Point","coordinates":[-48.208705251856,-7.1913289394203]}},{"type":"Feature","properties":{"municipio":"0f0c3e85-8222-491c-af58-9a0269b28577","title":"SP - VOTUPORANGA","name":"SP - VOTUPORANGA","tipo":"Munic\u00edpio","url":"\/dashboard\/details-assets\/0f0c3e85-8222-491c-af58-9a0269b28577"},"geometry":{"type":"Point","coordinates":[-49.974672015207,-20.419469999382]}},{"type":"Feature","properties":{"municipio":"79868cf0-d4cb-44ee-a2a4-4b4f65d2fcb0","title":"SP - VOTORANTIM","name":"SP - VOTORANTIM","tipo":"Munic\u00edpio","url":"\/dashboard\/details-assets\/79868cf0-d4cb-44ee-a2a4-4b4f65d2fcb0"},"geometry":{"type":"Point","coordinates":[-47.449738057983,-23.541871205308]}},{"type":"Feature","properties":{"municipio":"3d70a341-8f10-4e97-b107-1a1691b410c6","title":"SP - VARZEA PAULISTA","name":"SP - VARZEA PAULISTA","tipo":"Munic\u00edpio","url":"\/dashboard\/details-assets\/3d70a341-8f10-4e97-b107-1a1691b410c6"},"geometry":{"type":"Point","coordinates":[-46.8604024,-23.2149689]}},{"type":"Feature","properties":{"municipio":"3db2aeb7-36f7-44c6-9eff-4029fa7d8a43","title":"SP - VALINHOS","name":"SP - VALINHOS","tipo":"Munic\u00edpio","url":"\/dashboard\/details-assets\/3db2aeb7-36f7-44c6-9eff-4029fa7d8a43"},"geometry":{"type":"Point","coordinates":[-46.996630027555,-22.971243999321]}},{"type":"Feature","properties":{"municipio":"b24a3f1b-e02d-49f9-9abd-2818dd699bbe","title":"SP - TUPA","name":"SP - TUPA","tipo":"Munic\u00edpio","url":"\/dashboard\/details-assets\/b24a3f1b-e02d-49f9-9abd-2818dd699bbe"},"geometry":{"type":"Point","coordinates":[-50.514006421723,-21.934821509346]}},{"type":"Feature","properties":{"municipio":"ef735183-99ae-4221-927c-da32c9f210ce","title":"SP - TAUBATE","name":"SP - TAUBATE","tipo":"Munic\u00edpio","url":"\/dashboard\/details-assets\/ef735183-99ae-4221-927c-da32c9f210ce"},"geometry":{"type":"Point","coordinates":[-45.556608696687,-23.02655549932]}},{"type":"Feature","properties":{"municipio":"78730f67-bc06-44cd-8dc6-d269b87564eb","title":"SP - TATUI","name":"SP - TATUI","tipo":"Munic\u00edpio","url":"\/dashboard\/details-assets\/78730f67-bc06-44cd-8dc6-d269b87564eb"},"geometry":{"type":"Point","coordinates":[-47.849464033661,-23.348576499313]}},{"type":"Feature","properties":{"municipio":"7051c78c-26b9-450a-b0d0-ab0f7dbce56c","title":"SP - TABOAO DA SERRA","name":"SP - TABOAO DA SERRA","tipo":"Munic\u00edpio","url":"\/dashboard\/details-assets\/7051c78c-26b9-450a-b0d0-ab0f7dbce56c"},"geometry":{"type":"Point","coordinates":[-46.78578003421,-23.623328499307]}},{"type":"Feature","properties":{"municipio":"f95b260b-9a1b-4cd8-8ab3-52e0bd7d2a1b","title":"SP - SUZANO","name":"SP - SUZANO","tipo":"Munic\u00edpio","url":"\/dashboard\/details-assets\/f95b260b-9a1b-4cd8-8ab3-52e0bd7d2a1b"},"geometry":{"type":"Point","coordinates":[-46.307810467288,-23.536827499309]}},{"type":"Feature","properties":{"municipio":"e85b09ba-5802-4aaf-beaf-fd70d7a50fed","title":"SP - SUMARE","name":"SP - SUMARE","tipo":"Munic\u00edpio","url":"\/dashboard\/details-assets\/e85b09ba-5802-4aaf-beaf-fd70d7a50fed"},"geometry":{"type":"Point","coordinates":[-47.26580273209,-22.822144999325]}},{"type":"Feature","properties":{"municipio":"1f8f044a-263b-4d4e-9a8e-9f641a562cab","title":"SP - SERTAOZINHO","name":"SP - SERTAOZINHO","tipo":"Munic\u00edpio","url":"\/dashboard\/details-assets\/1f8f044a-263b-4d4e-9a8e-9f641a562cab"},"geometry":{"type":"Point","coordinates":[-47.991148431,-21.137021504365]}},{"type":"Feature","properties":{"municipio":"b1060c83-e054-4e84-98dc-24740095dfea","title":"SP - SAO VICENTE","name":"SP - SAO VICENTE","tipo":"Munic\u00edpio","url":"\/dashboard\/details-assets\/b1060c83-e054-4e84-98dc-24740095dfea"},"geometry":{"type":"Point","coordinates":[-46.384490817318,-23.967372999299]}},{"type":"Feature","properties":{"municipio":"14ab16d1-e188-4332-ae3b-c8c69102f7dc","title":"SP - SAO PAULO","name":"SP - SAO PAULO","tipo":"Munic\u00edpio","url":"\/dashboard\/details-assets\/14ab16d1-e188-4332-ae3b-c8c69102f7dc"},"geometry":{"type":"Point","coordinates":[-46.570383182113,-23.567386499308]}},{"type":"Feature","properties":{"municipio":"50032b94-486e-4361-846b-945b52536ae5","title":"SP - SAO JOSE DOS CAMPOS","name":"SP - SAO JOSE DOS CAMPOS","tipo":"Munic\u00edpio","url":"\/dashboard\/details-assets\/50032b94-486e-4361-846b-945b52536ae5"},"geometry":{"type":"Point","coordinates":[-45.899405,-23.23021]}},{"type":"Feature","properties":{"municipio":"76155fa9-bf17-412b-a497-ced58e4b4bdb","title":"SP - SAO JOSE DO RIO PRETO","name":"SP - SAO JOSE DO RIO PRETO","tipo":"Munic\u00edpio","url":"\/dashboard\/details-assets\/76155fa9-bf17-412b-a497-ced58e4b4bdb"},"geometry":{"type":"Point","coordinates":[-49.4523962,-20.8166393]}},{"type":"Feature","properties":{"municipio":"71885fb3-4439-486c-bccf-46e09c08eebe","title":"SP - SAO JOAO DA BOA VISTA","name":"SP - SAO JOAO DA BOA VISTA","tipo":"Munic\u00edpio","url":"\/dashboard\/details-assets\/71885fb3-4439-486c-bccf-46e09c08eebe"},"geometry":{"type":"Point","coordinates":[-46.796350781796,-21.972010999345]}},{"type":"Feature","properties":{"municipio":"b29e822e-aa77-4d9e-a38b-76a5bd6b2b97","title":"SP - SAO CARLOS","name":"SP - SAO CARLOS","tipo":"Munic\u00edpio","url":"\/dashboard\/details-assets\/b29e822e-aa77-4d9e-a38b-76a5bd6b2b97"},"geometry":{"type":"Point","coordinates":[-53.017394273321,-27.078635077131]}},{"type":"Feature","properties":{"municipio":"fd342349-9f50-4017-be15-9a4f802bbd4b","title":"SP - SAO CAETANO DO SUL","name":"SP - SAO CAETANO DO SUL","tipo":"Munic\u00edpio","url":"\/dashboard\/details-assets\/fd342349-9f50-4017-be15-9a4f802bbd4b"},"geometry":{"type":"Point","coordinates":[-46.571514608631,-23.614704999307]}},{"type":"Feature","properties":{"municipio":"1bdd47cf-9a1a-4b7f-bf3c-ae2f0207b89a","title":"SP - SAO BERNARDO DO CAMPO","name":"SP - SAO BERNARDO DO CAMPO","tipo":"Munic\u00edpio","url":"\/dashboard\/details-assets\/1bdd47cf-9a1a-4b7f-bf3c-ae2f0207b89a"},"geometry":{"type":"Point","coordinates":[-46.550257247678,-23.710304499305]}},{"type":"Feature","properties":{"municipio":"8eb73137-400b-4be3-8ed1-bbbe8814ee9c","title":"SP - SANTOS","name":"SP - SANTOS","tipo":"Munic\u00edpio","url":"\/dashboard\/details-assets\/8eb73137-400b-4be3-8ed1-bbbe8814ee9c"},"geometry":{"type":"Point","coordinates":[-46.331370849191,-23.9337374993]}},{"type":"Feature","properties":{"municipio":"7efb8283-ef9c-4f09-8eed-7a129173ad7e","title":"SP - SANTO ANDRE","name":"SP - SANTO ANDRE","tipo":"Munic\u00edpio","url":"\/dashboard\/details-assets\/7efb8283-ef9c-4f09-8eed-7a129173ad7e"},"geometry":{"type":"Point","coordinates":[-46.530874257629,-23.657509999306]}},{"type":"Feature","properties":{"municipio":"a10c2485-3a24-4f71-9750-f6c64fc2aba8","title":"SP - SANTANA DE PARNAIBA","name":"SP - SANTANA DE PARNAIBA","tipo":"Munic\u00edpio","url":"\/dashboard\/details-assets\/a10c2485-3a24-4f71-9750-f6c64fc2aba8"},"geometry":{"type":"Point","coordinates":[-46.92209250565,-23.449452999311]}},{"type":"Feature","properties":{"municipio":"db52efb9-d7ad-4287-b8c5-a42cbc68a24e","title":"SP - SALTO","name":"SP - SALTO","tipo":"Munic\u00edpio","url":"\/dashboard\/details-assets\/db52efb9-d7ad-4287-b8c5-a42cbc68a24e"},"geometry":{"type":"Point","coordinates":[-47.292415629079,-23.204073805113]}},{"type":"Feature","properties":{"municipio":"e4a796a6-ede8-4d86-b20e-1eba6a2c0148","title":"SP - RIO CLARO","name":"SP - RIO CLARO","tipo":"Munic\u00edpio","url":"\/dashboard\/details-assets\/e4a796a6-ede8-4d86-b20e-1eba6a2c0148"},"geometry":{"type":"Point","coordinates":[-47.563533238434,-22.412511499334]}},{"type":"Feature","properties":{"municipio":"d1bd2154-5a38-445e-bcf7-a621c9b53597","title":"SP - RIBEIRAO PRETO","name":"SP - RIBEIRAO PRETO","tipo":"Munic\u00edpio","url":"\/dashboard\/details-assets\/d1bd2154-5a38-445e-bcf7-a621c9b53597"},"geometry":{"type":"Point","coordinates":[-47.805475915541,-21.184834499364]}},{"type":"Feature","properties":{"municipio":"6838010c-0c13-435d-94b9-f27d08c68c4d","title":"SP - RIBEIRAO PIRES","name":"SP - RIBEIRAO PIRES","tipo":"Munic\u00edpio","url":"\/dashboard\/details-assets\/6838010c-0c13-435d-94b9-f27d08c68c4d"},"geometry":{"type":"Point","coordinates":[-46.415344374918,-23.707422999305]}},{"type":"Feature","properties":{"municipio":"0523e9d7-d643-41c4-a3e0-13eeed5e71e3","title":"SP - REGISTRO","name":"SP - REGISTRO","tipo":"Munic\u00edpio","url":"\/dashboard\/details-assets\/0523e9d7-d643-41c4-a3e0-13eeed5e71e3"},"geometry":{"type":"Point","coordinates":[-47.841054751675,-24.494251427287]}},{"type":"Feature","properties":{"municipio":"6ed59641-b88a-4137-9cf5-50c2fdd03c6b","title":"SP - PRESIDENTE PRUDENTE","name":"SP - PRESIDENTE PRUDENTE","tipo":"Munic\u00edpio","url":"\/dashboard\/details-assets\/6ed59641-b88a-4137-9cf5-50c2fdd03c6b"},"geometry":{"type":"Point","coordinates":[-51.386765581912,-22.122743499341]}},{"type":"Feature","properties":{"municipio":"4048bfb3-05ee-4aa5-be06-127d20242f5d","title":"SP - PRAIA GRANDE","name":"SP - PRAIA GRANDE","tipo":"Munic\u00edpio","url":"\/dashboard\/details-assets\/4048bfb3-05ee-4aa5-be06-127d20242f5d"},"geometry":{"type":"Point","coordinates":[-49.960591976336,-29.195776362813]}},{"type":"Feature","properties":{"municipio":"32629e07-f542-45f5-8f2c-ed907c342e89","title":"SP - POA","name":"SP - POA","tipo":"Munic\u00edpio","url":"\/dashboard\/details-assets\/32629e07-f542-45f5-8f2c-ed907c342e89"},"geometry":{"type":"Point","coordinates":[-46.346220388659,-23.52862656697]}},{"type":"Feature","properties":{"municipio":"162db08b-fb96-4f45-b752-b60cb156fef5","title":"SP - PIRACICABA","name":"SP - PIRACICABA","tipo":"Munic\u00edpio","url":"\/dashboard\/details-assets\/162db08b-fb96-4f45-b752-b60cb156fef5"},"geometry":{"type":"Point","coordinates":[-47.646846236158,-22.723721999327]}},{"type":"Feature","properties":{"municipio":"3bc79f28-48d8-49bb-b9f1-64de9e085ec3","title":"SP - PINDAMONHANGABA","name":"SP - PINDAMONHANGABA","tipo":"Munic\u00edpio","url":"\/dashboard\/details-assets\/3bc79f28-48d8-49bb-b9f1-64de9e085ec3"},"geometry":{"type":"Point","coordinates":[-45.46204884623,-22.926668725221]}},{"type":"Feature","properties":{"municipio":"1aac6591-beff-463d-a1d9-6485b7b7dbd1","title":"SP - PAULINIA","name":"SP - PAULINIA","tipo":"Munic\u00edpio","url":"\/dashboard\/details-assets\/1aac6591-beff-463d-a1d9-6485b7b7dbd1"},"geometry":{"type":"Point","coordinates":[-47.15438580097,-22.759921699326]}},{"type":"Feature","properties":{"municipio":"c28d5c05-0c3d-4d8c-b256-9f8052a91e7d","title":"SP - OURINHOS","name":"SP - OURINHOS","tipo":"Munic\u00edpio","url":"\/dashboard\/details-assets\/c28d5c05-0c3d-4d8c-b256-9f8052a91e7d"},"geometry":{"type":"Point","coordinates":[-49.868579835937,-22.977267499321]}},{"type":"Feature","properties":{"municipio":"78874378-c405-477b-844f-da622daeaa59","title":"SP - OSASCO","name":"SP - OSASCO","tipo":"Munic\u00edpio","url":"\/dashboard\/details-assets\/78874378-c405-477b-844f-da622daeaa59"},"geometry":{"type":"Point","coordinates":[-46.788810144271,-23.533611999309]}},{"type":"Feature","properties":{"municipio":"3e6032b8-2ed8-448b-a240-6b6469dfde19","title":"SP - MOJI MIRIM","name":"SP - MOJI MIRIM","tipo":"Munic\u00edpio","url":"\/dashboard\/details-assets\/3e6032b8-2ed8-448b-a240-6b6469dfde19"},"geometry":{"type":"Point","coordinates":[-46.956367126579,-22.432695499334]}},{"type":"Feature","properties":{"municipio":"7edbce50-c162-44e4-97f1-9ade32fe8abe","title":"SP - MOGI DAS CRUZES","name":"SP - MOGI DAS CRUZES","tipo":"Munic\u00edpio","url":"\/dashboard\/details-assets\/7edbce50-c162-44e4-97f1-9ade32fe8abe"},"geometry":{"type":"Point","coordinates":[-46.196760084327,-23.522706499309]}},{"type":"Feature","properties":{"municipio":"5a9181d3-8c42-49cd-a3c2-f0d2df35807f","title":"SP - MIRANTE DO PARANAPANEMA","name":"SP - MIRANTE DO PARANAPANEMA","tipo":"Munic\u00edpio","url":"\/dashboard\/details-assets\/5a9181d3-8c42-49cd-a3c2-f0d2df35807f"},"geometry":{"type":"Point","coordinates":[-51.905794305935,-22.29055859381]}},{"type":"Feature","properties":{"municipio":"4b8e54a8-58ff-4fa7-83d6-36d7b3f586d4","title":"SP - MAUA","name":"SP - MAUA","tipo":"Munic\u00edpio","url":"\/dashboard\/details-assets\/4b8e54a8-58ff-4fa7-83d6-36d7b3f586d4"},"geometry":{"type":"Point","coordinates":[-46.458262012165,-23.669334499306]}},{"type":"Feature","properties":{"municipio":"d6c03c2e-e54b-4583-b10e-93589066075f","title":"SP - MARILIA","name":"SP - MARILIA","tipo":"Munic\u00edpio","url":"\/dashboard\/details-assets\/d6c03c2e-e54b-4583-b10e-93589066075f"},"geometry":{"type":"Point","coordinates":[-49.951645643103,-22.214932999339]}},{"type":"Feature","properties":{"municipio":"3fccf847-a383-4968-91d2-fed3d85ae6f8","title":"SP - LIMEIRA","name":"SP - LIMEIRA","tipo":"Munic\u00edpio","url":"\/dashboard\/details-assets\/3fccf847-a383-4968-91d2-fed3d85ae6f8"},"geometry":{"type":"Point","coordinates":[-47.40193952331,-22.562193999331]}},{"type":"Feature","properties":{"municipio":"99760d31-6f1f-476b-bf2d-0e1ecd377bb4","title":"SP - LEME","name":"SP - LEME","tipo":"Munic\u00edpio","url":"\/dashboard\/details-assets\/99760d31-6f1f-476b-bf2d-0e1ecd377bb4"},"geometry":{"type":"Point","coordinates":[-47.388707969615,-22.18543600434]}},{"type":"Feature","properties":{"municipio":"57702136-90f6-4cb7-a9ff-06c39107e3d2","title":"SP - JUNDIAI","name":"SP - JUNDIAI","tipo":"Munic\u00edpio","url":"\/dashboard\/details-assets\/57702136-90f6-4cb7-a9ff-06c39107e3d2"},"geometry":{"type":"Point","coordinates":[-46.885273967997,-23.187667999316]}},{"type":"Feature","properties":{"municipio":"5cd2c485-7115-4e64-a0be-672b5b8811f5","title":"SP - JAU","name":"SP - JAU","tipo":"Munic\u00edpio","url":"\/dashboard\/details-assets\/5cd2c485-7115-4e64-a0be-672b5b8811f5"},"geometry":{"type":"Point","coordinates":[-48.558141387833,-22.295790989337]}},{"type":"Feature","properties":{"municipio":"fd564087-a22c-4a57-9b20-f6aef6214ab6","title":"SP - JANDIRA","name":"SP - JANDIRA","tipo":"Munic\u00edpio","url":"\/dashboard\/details-assets\/fd564087-a22c-4a57-9b20-f6aef6214ab6"},"geometry":{"type":"Point","coordinates":[-46.905221141741,-23.529938999309]}},{"type":"Feature","properties":{"municipio":"cb91e8aa-8b3c-4733-9e89-5386efb5ac3c","title":"SP - JACAREI","name":"SP - JACAREI","tipo":"Munic\u00edpio","url":"\/dashboard\/details-assets\/cb91e8aa-8b3c-4733-9e89-5386efb5ac3c"},"geometry":{"type":"Point","coordinates":[-45.969593204409,-23.304880498628]}},{"type":"Feature","properties":{"municipio":"82380d2e-a356-4922-9ca0-6ddb719bc81d","title":"SP - ITU","name":"SP - ITU","tipo":"Munic\u00edpio","url":"\/dashboard\/details-assets\/82380d2e-a356-4922-9ca0-6ddb719bc81d"},"geometry":{"type":"Point","coordinates":[-47.299749835961,-23.265442499315]}},{"type":"Feature","properties":{"municipio":"99cd46d2-38fa-4b20-928a-addd4a02138a","title":"SP - ITATIBA","name":"SP - ITATIBA","tipo":"Munic\u00edpio","url":"\/dashboard\/details-assets\/99cd46d2-38fa-4b20-928a-addd4a02138a"},"geometry":{"type":"Point","coordinates":[-46.837557852941,-23.004852998641]}},{"type":"Feature","properties":{"municipio":"48b67061-be78-468d-8c5d-2ccb2e1bf74c","title":"SP - ITAQUAQUECETUBA","name":"SP - ITAQUAQUECETUBA","tipo":"Munic\u00edpio","url":"\/dashboard\/details-assets\/48b67061-be78-468d-8c5d-2ccb2e1bf74c"},"geometry":{"type":"Point","coordinates":[-46.351603140965,-23.47689749931]}},{"type":"Feature","properties":{"municipio":"be23ce66-8f3a-4124-8edc-0e3fd4da6af6","title":"SP - ITAPEVI","name":"SP - ITAPEVI","tipo":"Munic\u00edpio","url":"\/dashboard\/details-assets\/be23ce66-8f3a-4124-8edc-0e3fd4da6af6"},"geometry":{"type":"Point","coordinates":[-46.933372863488,-23.546933999308]}},{"type":"Feature","properties":{"municipio":"208a321f-1a3f-4a32-be30-f56fda889517","title":"SP - ITAPEVA","name":"SP - ITAPEVA","tipo":"Munic\u00edpio","url":"\/dashboard\/details-assets\/208a321f-1a3f-4a32-be30-f56fda889517"},"geometry":{"type":"Point","coordinates":[-48.877389159065,-23.983437998597]}},{"type":"Feature","properties":{"municipio":"49e6ee61-b425-40c0-a932-2cb2cb5600bf","title":"SP - ITAPETININGA","name":"SP - ITAPETININGA","tipo":"Munic\u00edpio","url":"\/dashboard\/details-assets\/49e6ee61-b425-40c0-a932-2cb2cb5600bf"},"geometry":{"type":"Point","coordinates":[-48.046142895455,-23.587872499308]}},{"type":"Feature","properties":{"municipio":"2bd89ddc-4e15-47db-9f6d-c6813c25e82a","title":"SP - ITAPECERICA DA SERRA","name":"SP - ITAPECERICA DA SERRA","tipo":"Munic\u00edpio","url":"\/dashboard\/details-assets\/2bd89ddc-4e15-47db-9f6d-c6813c25e82a"},"geometry":{"type":"Point","coordinates":[-46.850551966852,-23.715356999305]}},{"type":"Feature","properties":{"municipio":"55e96095-5fa8-425e-8c96-979109d19b01","title":"SP - ITANHAEM","name":"SP - ITANHAEM","tipo":"Munic\u00edpio","url":"\/dashboard\/details-assets\/55e96095-5fa8-425e-8c96-979109d19b01"},"geometry":{"type":"Point","coordinates":[-46.790991482879,-24.186120666127]}},{"type":"Feature","properties":{"municipio":"e82daa80-0f86-4ea4-8df9-6dc68da58abb","title":"SP - INDAIATUBA","name":"SP - INDAIATUBA","tipo":"Munic\u00edpio","url":"\/dashboard\/details-assets\/e82daa80-0f86-4ea4-8df9-6dc68da58abb"},"geometry":{"type":"Point","coordinates":[-47.212308940251,-23.081645999319]}},{"type":"Feature","properties":{"municipio":"1ec652e9-d29f-4ce2-8e3e-ecf090932ff1","title":"SP - HORTOLANDIA","name":"SP - HORTOLANDIA","tipo":"Munic\u00edpio","url":"\/dashboard\/details-assets\/1ec652e9-d29f-4ce2-8e3e-ecf090932ff1"},"geometry":{"type":"Point","coordinates":[-47.221096609758,-22.858394999324]}},{"type":"Feature","properties":{"municipio":"3c01c5c2-6a48-426d-a6f0-308b8b2fd395","title":"SP - GUARULHOS","name":"SP - GUARULHOS","tipo":"Munic\u00edpio","url":"\/dashboard\/details-assets\/3c01c5c2-6a48-426d-a6f0-308b8b2fd395"},"geometry":{"type":"Point","coordinates":[-46.531084085661,-23.46850599931]}},{"type":"Feature","properties":{"municipio":"326557ea-c0cc-4c44-8185-9db0622d2dc5","title":"SP - GUARUJA","name":"SP - GUARUJA","tipo":"Munic\u00edpio","url":"\/dashboard\/details-assets\/326557ea-c0cc-4c44-8185-9db0622d2dc5"},"geometry":{"type":"Point","coordinates":[-46.249034279442,-23.995148999298]}},{"type":"Feature","properties":{"municipio":"97900ce2-f7a6-40c2-a480-760a5a49542c","title":"SP - GUARATINGUETA","name":"SP - GUARATINGUETA","tipo":"Munic\u00edpio","url":"\/dashboard\/details-assets\/97900ce2-f7a6-40c2-a480-760a5a49542c"},"geometry":{"type":"Point","coordinates":[-45.19160012842,-22.817425088657]}},{"type":"Feature","properties":{"municipio":"78947d80-2a7e-4b33-9a7d-1ffd5c0aee5a","title":"SP - FRANCO DA ROCHA","name":"SP - FRANCO DA ROCHA","tipo":"Munic\u00edpio","url":"\/dashboard\/details-assets\/78947d80-2a7e-4b33-9a7d-1ffd5c0aee5a"},"geometry":{"type":"Point","coordinates":[-46.727874668553,-23.320302499313]}},{"type":"Feature","properties":{"municipio":"0dff8903-59dc-4dd4-8e06-b48fdebd38d2","title":"SP - FRANCISCO MORATO","name":"SP - FRANCISCO MORATO","tipo":"Munic\u00edpio","url":"\/dashboard\/details-assets\/0dff8903-59dc-4dd4-8e06-b48fdebd38d2"},"geometry":{"type":"Point","coordinates":[-46.732526704705,-23.275825499315]}},{"type":"Feature","properties":{"municipio":"967cc823-7de9-47e6-9136-29f61b44d331","title":"SP - FRANCA","name":"SP - FRANCA","tipo":"Munic\u00edpio","url":"\/dashboard\/details-assets\/967cc823-7de9-47e6-9136-29f61b44d331"},"geometry":{"type":"Point","coordinates":[-47.402331625677,-20.53609699938]}},{"type":"Feature","properties":{"municipio":"2d3b1652-abf7-43f8-9696-60cd1107c03f","title":"SP - FERRAZ DE VASCONCELOS","name":"SP - FERRAZ DE VASCONCELOS","tipo":"Munic\u00edpio","url":"\/dashboard\/details-assets\/2d3b1652-abf7-43f8-9696-60cd1107c03f"},"geometry":{"type":"Point","coordinates":[-46.366552671574,-23.541544499309]}},{"type":"Feature","properties":{"municipio":"bf7c4574-1941-4a3d-9682-62c1918512ac","title":"SP - EMBU DAS ARTES","name":"SP - EMBU DAS ARTES","tipo":"Munic\u00edpio","url":"\/dashboard\/details-assets\/bf7c4574-1941-4a3d-9682-62c1918512ac"},"geometry":{"type":"Point","coordinates":[-46.850859993674,-23.647312499306]}},{"type":"Feature","properties":{"municipio":"2165b6d2-5047-45b4-855e-62a1ad71df6b","title":"SP - DIADEMA","name":"SP - DIADEMA","tipo":"Munic\u00edpio","url":"\/dashboard\/details-assets\/2165b6d2-5047-45b4-855e-62a1ad71df6b"},"geometry":{"type":"Point","coordinates":[-46.623381393203,-23.689294999305]}},{"type":"Feature","properties":{"municipio":"76590305-80df-49f1-9267-215b5958b66b","title":"SP - COTIA","name":"SP - COTIA","tipo":"Munic\u00edpio","url":"\/dashboard\/details-assets\/76590305-80df-49f1-9267-215b5958b66b"},"geometry":{"type":"Point","coordinates":[-46.931846327889,-23.603513999307]}},{"type":"Feature","properties":{"municipio":"d4107548-0307-4c98-9bdd-4a54cce3b616","title":"SP - CATANDUVA","name":"SP - CATANDUVA","tipo":"Munic\u00edpio","url":"\/dashboard\/details-assets\/d4107548-0307-4c98-9bdd-4a54cce3b616"},"geometry":{"type":"Point","coordinates":[-48.975870939043,-21.139538499365]}},{"type":"Feature","properties":{"municipio":"d9abe842-5a22-4cf8-9923-a0d571d81d73","title":"SP - CARAPICUIBA","name":"SP - CARAPICUIBA","tipo":"Munic\u00edpio","url":"\/dashboard\/details-assets\/d9abe842-5a22-4cf8-9923-a0d571d81d73"},"geometry":{"type":"Point","coordinates":[-46.84144543191,-23.535249499309]}},{"type":"Feature","properties":{"municipio":"b69146c3-0f87-4c20-92df-e70bd11b60d2","title":"SP - CARAGUATATUBA","name":"SP - CARAGUATATUBA","tipo":"Munic\u00edpio","url":"\/dashboard\/details-assets\/b69146c3-0f87-4c20-92df-e70bd11b60d2"},"geometry":{"type":"Point","coordinates":[-45.41081838225,-23.622006499307]}},{"type":"Feature","properties":{"municipio":"47252536-a3dc-485d-a12d-f2f681822605","title":"SP - CAMPINAS","name":"SP - CAMPINAS","tipo":"Munic\u00edpio","url":"\/dashboard\/details-assets\/47252536-a3dc-485d-a12d-f2f681822605"},"geometry":{"type":"Point","coordinates":[-47.060156272973,-22.907342499323]}},{"type":"Feature","properties":{"municipio":"f4b982db-42b3-43aa-a087-9b941bcf13b8","title":"SP - CXXX","name":"SP - CXXX","tipo":"Munic\u00edpio","url":"\/dashboard\/details-assets\/f4b982db-42b3-43aa-a087-9b941bcf13b8"},"geometry":{"type":"Point","coordinates":[-46.744101417665,-23.362116054054]}},{"type":"Feature","properties":{"municipio":"1a08c933-2eea-415b-b150-5a4269979020","title":"SP - CACAPAVA","name":"SP - CACAPAVA","tipo":"Munic\u00edpio","url":"\/dashboard\/details-assets\/1a08c933-2eea-415b-b150-5a4269979020"},"geometry":{"type":"Point","coordinates":[-45.707730365087,-23.100663752027]}},{"type":"Feature","properties":{"municipio":"6f27c9b3-2819-43c6-9946-fa8c4948459c","title":"SP - BRAGANCA PAULISTA","name":"SP - BRAGANCA PAULISTA","tipo":"Munic\u00edpio","url":"\/dashboard\/details-assets\/6f27c9b3-2819-43c6-9946-fa8c4948459c"},"geometry":{"type":"Point","coordinates":[-46.54233337398,-22.956895499322]}},{"type":"Feature","properties":{"municipio":"4556df9d-c541-4b31-83da-f2bd06f16475","title":"SP - BOTUCATU","name":"SP - BOTUCATU","tipo":"Munic\u00edpio","url":"\/dashboard\/details-assets\/4556df9d-c541-4b31-83da-f2bd06f16475"},"geometry":{"type":"Point","coordinates":[-48.44128938435,-22.888381499323]}},{"type":"Feature","properties":{"municipio":"05005eb5-1979-4be8-9369-f4c0bdd848ba","title":"SP - BIRIGUI","name":"SP - BIRIGUI","tipo":"Munic\u00edpio","url":"\/dashboard\/details-assets\/05005eb5-1979-4be8-9369-f4c0bdd848ba"},"geometry":{"type":"Point","coordinates":[-50.339328516987,-21.29239228761]}},{"type":"Feature","properties":{"municipio":"e84d85c8-ffd3-4924-b252-b52e4392ac12","title":"SP - BAURU","name":"SP - BAURU","tipo":"Munic\u00edpio","url":"\/dashboard\/details-assets\/e84d85c8-ffd3-4924-b252-b52e4392ac12"},"geometry":{"type":"Point","coordinates":[-49.08300086709,-22.325122499336]}},{"type":"Feature","properties":{"municipio":"2ff3caaf-fe7c-434e-948a-f44a99a72bfe","title":"SP - BARUERI","name":"SP - BARUERI","tipo":"Munic\u00edpio","url":"\/dashboard\/details-assets\/2ff3caaf-fe7c-434e-948a-f44a99a72bfe"},"geometry":{"type":"Point","coordinates":[-46.87465288653,-23.508901999309]}},{"type":"Feature","properties":{"municipio":"17e18e55-17bd-4927-bb91-de9c502cc3a9","title":"SP - BARRETOS","name":"SP - BARRETOS","tipo":"Munic\u00edpio","url":"\/dashboard\/details-assets\/17e18e55-17bd-4927-bb91-de9c502cc3a9"},"geometry":{"type":"Point","coordinates":[-48.567377839455,-20.558455514379]}},{"type":"Feature","properties":{"municipio":"fbe02e37-99bd-4d35-b615-4eb735db070a","title":"SP - ATIBAIA","name":"SP - ATIBAIA","tipo":"Munic\u00edpio","url":"\/dashboard\/details-assets\/fbe02e37-99bd-4d35-b615-4eb735db070a"},"geometry":{"type":"Point","coordinates":[-46.5938414,-23.1229739]}},{"type":"Feature","properties":{"municipio":"cb7f7ca4-a224-4a4a-a395-79aa3af3e793","title":"SP - ASSIS","name":"SP - ASSIS","tipo":"Munic\u00edpio","url":"\/dashboard\/details-assets\/cb7f7ca4-a224-4a4a-a395-79aa3af3e793"},"geometry":{"type":"Point","coordinates":[-50.41751004,-22.662835019329]}},{"type":"Feature","properties":{"municipio":"820c100d-abe7-49bb-9af6-13deed435fcb","title":"SP - ARARAS","name":"SP - ARARAS","tipo":"Munic\u00edpio","url":"\/dashboard\/details-assets\/820c100d-abe7-49bb-9af6-13deed435fcb"},"geometry":{"type":"Point","coordinates":[-47.385829527469,-22.357086518994]}},{"type":"Feature","properties":{"municipio":"c5f5cc4a-3d55-409b-9326-eab371fc0fa9","title":"SP - ARARAQUARA","name":"SP - ARARAQUARA","tipo":"Munic\u00edpio","url":"\/dashboard\/details-assets\/c5f5cc4a-3d55-409b-9326-eab371fc0fa9"},"geometry":{"type":"Point","coordinates":[-48.174439937544,-21.790359499349]}},{"type":"Feature","properties":{"municipio":"2ec08ca8-17fe-4752-9b4a-b1014cab5440","title":"SP - ARACATUBA","name":"SP - ARACATUBA","tipo":"Munic\u00edpio","url":"\/dashboard\/details-assets\/2ec08ca8-17fe-4752-9b4a-b1014cab5440"},"geometry":{"type":"Point","coordinates":[-50.439226072753,-21.205475999363]}},{"type":"Feature","properties":{"municipio":"8773e894-6d62-42de-a20a-217a4fe12050","title":"SP - ANDRADINA","name":"SP - ANDRADINA","tipo":"Munic\u00edpio","url":"\/dashboard\/details-assets\/8773e894-6d62-42de-a20a-217a4fe12050"},"geometry":{"type":"Point","coordinates":[-51.378847794764,-20.901463514371]}},{"type":"Feature","properties":{"municipio":"6464b04c-dd72-46d8-94e5-54da04d61030","title":"SP - AMERICANA","name":"SP - AMERICANA","tipo":"Munic\u00edpio","url":"\/dashboard\/details-assets\/6464b04c-dd72-46d8-94e5-54da04d61030"},"geometry":{"type":"Point","coordinates":[-47.330362926381,-22.740883499327]}},{"type":"Feature","properties":{"municipio":"f887fd81-d6c1-46e1-8697-16cc7262c6fc","title":"SE - PROPRIA","name":"SE - PROPRIA","tipo":"Munic\u00edpio","url":"\/dashboard\/details-assets\/f887fd81-d6c1-46e1-8697-16cc7262c6fc"},"geometry":{"type":"Point","coordinates":[-36.842099359099,-10.208207314984]}},{"type":"Feature","properties":{"municipio":"3aabdc44-4bf5-41c2-907a-769327744788","title":"SP - ADAMANTINA","name":"SP - ADAMANTINA","tipo":"Munic\u00edpio","url":"\/dashboard\/details-assets\/3aabdc44-4bf5-41c2-907a-769327744788"},"geometry":{"type":"Point","coordinates":[-51.073364749582,-21.688311479352]}},{"type":"Feature","properties":{"municipio":"7a1c8892-5bcf-4ee4-a550-fca838cc3b21","title":"SE - NOSSA SENHORA DO SOCORRO","name":"SE - NOSSA SENHORA DO SOCORRO","tipo":"Munic\u00edpio","url":"\/dashboard\/details-assets\/7a1c8892-5bcf-4ee4-a550-fca838cc3b21"},"geometry":{"type":"Point","coordinates":[-37.050472883447,-10.078616036382]}},{"type":"Feature","properties":{"municipio":"11cd6036-9219-4538-914d-e5bd5f412ba8","title":"SE - NOSSA SENHORA DA GLORIA","name":"SE - NOSSA SENHORA DA GLORIA","tipo":"Munic\u00edpio","url":"\/dashboard\/details-assets\/11cd6036-9219-4538-914d-e5bd5f412ba8"},"geometry":{"type":"Point","coordinates":[-37.419921459268,-10.215686848776]}},{"type":"Feature","properties":{"municipio":"a4e6f5a4-c869-4a71-85b9-d8346d339183","title":"SE - LAGARTO","name":"SE - LAGARTO","tipo":"Munic\u00edpio","url":"\/dashboard\/details-assets\/a4e6f5a4-c869-4a71-85b9-d8346d339183"},"geometry":{"type":"Point","coordinates":[-37.666353409722,-10.915300969511]}},{"type":"Feature","properties":{"municipio":"c9985f5d-6065-4ad1-b953-d6cb0b024fc5","title":"SE - ITABAIANA","name":"SE - ITABAIANA","tipo":"Munic\u00edpio","url":"\/dashboard\/details-assets\/c9985f5d-6065-4ad1-b953-d6cb0b024fc5"},"geometry":{"type":"Point","coordinates":[-37.426860940332,-10.685716037974]}},{"type":"Feature","properties":{"municipio":"e94bf619-5b25-46e6-b37e-a4d14833535c","title":"SE - ESTANCIA","name":"SE - ESTANCIA","tipo":"Munic\u00edpio","url":"\/dashboard\/details-assets\/e94bf619-5b25-46e6-b37e-a4d14833535c"},"geometry":{"type":"Point","coordinates":[-37.440010853729,-11.267948648941]}},{"type":"Feature","properties":{"municipio":"0fdd504e-8ae2-4c67-9937-4ac04668078e","title":"SE - ARACAJU","name":"SE - ARACAJU","tipo":"Munic\u00edpio","url":"\/dashboard\/details-assets\/0fdd504e-8ae2-4c67-9937-4ac04668078e"},"geometry":{"type":"Point","coordinates":[-37.048212639512,-10.907215797532]}},{"type":"Feature","properties":{"municipio":"811e4d27-7638-427d-9f50-b37ab898fe9c","title":"SC - XANXERE","name":"SC - XANXERE","tipo":"Munic\u00edpio","url":"\/dashboard\/details-assets\/811e4d27-7638-427d-9f50-b37ab898fe9c"},"geometry":{"type":"Point","coordinates":[-52.404667138975,-26.874584498477]}},{"type":"Feature","properties":{"municipio":"de94ee7b-03ae-4d46-9646-d2cf980e4838","title":"SC - TUBARAO","name":"SC - TUBARAO","tipo":"Munic\u00edpio","url":"\/dashboard\/details-assets\/de94ee7b-03ae-4d46-9646-d2cf980e4838"},"geometry":{"type":"Point","coordinates":[-49.005268077025,-28.480033947059]}},{"type":"Feature","properties":{"municipio":"254c4f19-ca3e-434d-91b0-f07086e2284e","title":"SC - TIMBO","name":"SC - TIMBO","tipo":"Munic\u00edpio","url":"\/dashboard\/details-assets\/254c4f19-ca3e-434d-91b0-f07086e2284e"},"geometry":{"type":"Point","coordinates":[-49.277712289797,-26.822902574227]}},{"type":"Feature","properties":{"municipio":"1bb238f4-2777-42b9-9ea7-714e2ab9207d","title":"SC - SAO MIGUEL DO OESTE","name":"SC - SAO MIGUEL DO OESTE","tipo":"Munic\u00edpio","url":"\/dashboard\/details-assets\/1bb238f4-2777-42b9-9ea7-714e2ab9207d"},"geometry":{"type":"Point","coordinates":[-53.518839406156,-26.726427175902]}},{"type":"Feature","properties":{"municipio":"98635836-d95c-4652-aa2a-bbc1ca206f4d","title":"SC - SAO LOURENCO DO OESTE","name":"SC - SAO LOURENCO DO OESTE","tipo":"Munic\u00edpio","url":"\/dashboard\/details-assets\/98635836-d95c-4652-aa2a-bbc1ca206f4d"},"geometry":{"type":"Point","coordinates":[-52.85133366695,-26.355190163799]}},{"type":"Feature","properties":{"municipio":"f1880d5d-dee1-438d-94ea-8d5115e20be6","title":"SC - SAO JOAQUIM","name":"SC - SAO JOAQUIM","tipo":"Munic\u00edpio","url":"\/dashboard\/details-assets\/f1880d5d-dee1-438d-94ea-8d5115e20be6"},"geometry":{"type":"Point","coordinates":[-49.936741760544,-28.294712498424]}},{"type":"Feature","properties":{"municipio":"c264891c-fef3-4fa7-8d5f-7e92a28a39f2","title":"SC - RIO DO SUL","name":"SC - RIO DO SUL","tipo":"Munic\u00edpio","url":"\/dashboard\/details-assets\/c264891c-fef3-4fa7-8d5f-7e92a28a39f2"},"geometry":{"type":"Point","coordinates":[-49.643237529098,-27.217903224671]}},{"type":"Feature","properties":{"municipio":"02d942a6-15b0-4640-a0a6-8e1ca169a975","title":"SC - PALHOCA","name":"SC - PALHOCA","tipo":"Munic\u00edpio","url":"\/dashboard\/details-assets\/02d942a6-15b0-4640-a0a6-8e1ca169a975"},"geometry":{"type":"Point","coordinates":[-48.670287918712,-27.647043682915]}},{"type":"Feature","properties":{"municipio":"5da5a033-7e7b-4af7-9d9d-df09c6cba1d3","title":"SC - MAFRA","name":"SC - MAFRA","tipo":"Munic\u00edpio","url":"\/dashboard\/details-assets\/5da5a033-7e7b-4af7-9d9d-df09c6cba1d3"},"geometry":{"type":"Point","coordinates":[-49.801037528269,-26.115228493507]}},{"type":"Feature","properties":{"municipio":"166c7f0e-1457-495c-ab04-a71f1cd276ce","title":"SC - LAGES","name":"SC - LAGES","tipo":"Munic\u00edpio","url":"\/dashboard\/details-assets\/166c7f0e-1457-495c-ab04-a71f1cd276ce"},"geometry":{"type":"Point","coordinates":[-50.33022242419,-27.817259462335]}},{"type":"Feature","properties":{"municipio":"ed5155ae-a960-4e1e-9964-0f44b5e321e0","title":"SC - JOINVILLE","name":"SC - JOINVILLE","tipo":"Munic\u00edpio","url":"\/dashboard\/details-assets\/ed5155ae-a960-4e1e-9964-0f44b5e321e0"},"geometry":{"type":"Point","coordinates":[-48.849409143238,-26.304517647904]}},{"type":"Feature","properties":{"municipio":"2e281a09-5432-45a4-a33d-7511e840f651","title":"SC - JOACABA","name":"SC - JOACABA","tipo":"Munic\u00edpio","url":"\/dashboard\/details-assets\/2e281a09-5432-45a4-a33d-7511e840f651"},"geometry":{"type":"Point","coordinates":[-51.506689733338,-27.173944528466]}},{"type":"Feature","properties":{"municipio":"02bb0712-f66a-405f-8227-88a6d65ba135","title":"SC - JARAGUA DO SUL","name":"SC - JARAGUA DO SUL","tipo":"Munic\u00edpio","url":"\/dashboard\/details-assets\/02bb0712-f66a-405f-8227-88a6d65ba135"},"geometry":{"type":"Point","coordinates":[-49.076298822802,-26.49048434866]}},{"type":"Feature","properties":{"municipio":"7cb43aad-ba2a-45f2-b92f-8ad923d7bc2b","title":"SC - ITAJAI","name":"SC - ITAJAI","tipo":"Munic\u00edpio","url":"\/dashboard\/details-assets\/7cb43aad-ba2a-45f2-b92f-8ad923d7bc2b"},"geometry":{"type":"Point","coordinates":[-48.657023208349,-26.907426239037]}},{"type":"Feature","properties":{"municipio":"2caf15a1-cbf0-42c8-bcf3-8642658ad069","title":"SC - FLORIANOPOLIS","name":"SC - FLORIANOPOLIS","tipo":"Munic\u00edpio","url":"\/dashboard\/details-assets\/2caf15a1-cbf0-42c8-bcf3-8642658ad069"},"geometry":{"type":"Point","coordinates":[-48.547637378193,-27.587795547775]}},{"type":"Feature","properties":{"municipio":"8f5385e0-c734-49f2-b356-6ac7c3ad6c39","title":"SC - CURITIBANOS","name":"SC - CURITIBANOS","tipo":"Munic\u00edpio","url":"\/dashboard\/details-assets\/8f5385e0-c734-49f2-b356-6ac7c3ad6c39"},"geometry":{"type":"Point","coordinates":[-50.582601035262,-27.282982505697]}},{"type":"Feature","properties":{"municipio":"d6cb10a1-673f-4f30-95b0-7101ea6aaca1","title":"SC - CRICIUMA","name":"SC - CRICIUMA","tipo":"Munic\u00edpio","url":"\/dashboard\/details-assets\/d6cb10a1-673f-4f30-95b0-7101ea6aaca1"},"geometry":{"type":"Point","coordinates":[-49.365939558822,-28.67357225188]}},{"type":"Feature","properties":{"municipio":"46a968f9-e95a-4a50-aa2f-eb5f0ebc2208","title":"SC - CONCORDIA","name":"SC - CONCORDIA","tipo":"Munic\u00edpio","url":"\/dashboard\/details-assets\/46a968f9-e95a-4a50-aa2f-eb5f0ebc2208"},"geometry":{"type":"Point","coordinates":[-52.023971069748,-27.233658779286]}},{"type":"Feature","properties":{"municipio":"e9d14a5d-0538-4c57-9de2-a65c070351c7","title":"SC - CHAPECO","name":"SC - CHAPECO","tipo":"Munic\u00edpio","url":"\/dashboard\/details-assets\/e9d14a5d-0538-4c57-9de2-a65c070351c7"},"geometry":{"type":"Point","coordinates":[-52.617031113414,-27.106837020767]}},{"type":"Feature","properties":{"municipio":"8e8bf267-b013-42c6-8fdd-1cd5c808a781","title":"SC - CANOINHAS","name":"SC - CANOINHAS","tipo":"Munic\u00edpio","url":"\/dashboard\/details-assets\/8e8bf267-b013-42c6-8fdd-1cd5c808a781"},"geometry":{"type":"Point","coordinates":[-50.397848711893,-26.178807013505]}},{"type":"Feature","properties":{"municipio":"e74f9a0d-895a-4ebd-b267-ac7c4f179dcb","title":"SC - CACADOR","name":"SC - CACADOR","tipo":"Munic\u00edpio","url":"\/dashboard\/details-assets\/e74f9a0d-895a-4ebd-b267-ac7c4f179dcb"},"geometry":{"type":"Point","coordinates":[-51.019034758998,-26.775347671959]}},{"type":"Feature","properties":{"municipio":"61564311-1701-46be-9d38-4e48f744db80","title":"SC - BLUMENAU","name":"SC - BLUMENAU","tipo":"Munic\u00edpio","url":"\/dashboard\/details-assets\/61564311-1701-46be-9d38-4e48f744db80"},"geometry":{"type":"Point","coordinates":[-49.057630884361,-26.916107704544]}},{"type":"Feature","properties":{"municipio":"c8535392-8d4e-4d77-991d-077de8ec3dbd","title":"SC - BIGUACU","name":"SC - BIGUACU","tipo":"Munic\u00edpio","url":"\/dashboard\/details-assets\/c8535392-8d4e-4d77-991d-077de8ec3dbd"},"geometry":{"type":"Point","coordinates":[-48.654488928951,-27.494322742697]}},{"type":"Feature","properties":{"municipio":"5b19ccd9-b237-4679-a66c-4f839c83300b","title":"SC - ARARANGUA","name":"SC - ARARANGUA","tipo":"Munic\u00edpio","url":"\/dashboard\/details-assets\/5b19ccd9-b237-4679-a66c-4f839c83300b"},"geometry":{"type":"Point","coordinates":[-49.480966523633,-28.935752013401]}},{"type":"Feature","properties":{"municipio":"190b4ec4-090e-4bb0-a0ae-365337bde47f","title":"RS - VIAMAO","name":"RS - VIAMAO","tipo":"Munic\u00edpio","url":"\/dashboard\/details-assets\/190b4ec4-090e-4bb0-a0ae-365337bde47f"},"geometry":{"type":"Point","coordinates":[-51.024820489573,-30.081896840121]}},{"type":"Feature","properties":{"municipio":"343a2a8c-ba31-4d46-9cae-13fa657ff642","title":"RS - XXX","name":"RS - XXX","tipo":"Munic\u00edpio","url":"\/dashboard\/details-assets\/343a2a8c-ba31-4d46-9cae-13fa657ff642"},"geometry":{"type":"Point","coordinates":[-52.7104298,-30.0788944]}},{"type":"Feature","properties":{"municipio":"289bee28-6381-4ba2-8e62-cd7f719ed63f","title":"RS - VENANCIO AIRES","name":"RS - VENANCIO AIRES","tipo":"Munic\u00edpio","url":"\/dashboard\/details-assets\/289bee28-6381-4ba2-8e62-cd7f719ed63f"},"geometry":{"type":"Point","coordinates":[-52.19188024049,-29.611652891844]}},{"type":"Feature","properties":{"municipio":"7765afa6-cdd1-4bbb-adaa-002faf35b290","title":"RS - UXX","name":"RS - UXX","tipo":"Munic\u00edpio","url":"\/dashboard\/details-assets\/7765afa6-cdd1-4bbb-adaa-002faf35b290"},"geometry":{"type":"Point","coordinates":[-50.936599164121,-28.502354394395]}},{"type":"Feature","properties":{"municipio":"bc6146f7-5586-46c7-8221-def9ed03ff12","title":"RS - URUGUAIANA","name":"RS - URUGUAIANA","tipo":"Munic\u00edpio","url":"\/dashboard\/details-assets\/bc6146f7-5586-46c7-8221-def9ed03ff12"},"geometry":{"type":"Point","coordinates":[-57.081824909023,-29.759823171201]}},{"type":"Feature","properties":{"municipio":"256f5b18-c5e4-4db3-908a-ace93393c304","title":"RS - TRAMANDAI","name":"RS - TRAMANDAI","tipo":"Munic\u00edpio","url":"\/dashboard\/details-assets\/256f5b18-c5e4-4db3-908a-ace93393c304"},"geometry":{"type":"Point","coordinates":[-50.13037650068,-29.987301946365]}},{"type":"Feature","properties":{"municipio":"ab47c008-33d1-4ea5-ae71-ff36fbc8e25a","title":"RS - TORRES","name":"RS - TORRES","tipo":"Munic\u00edpio","url":"\/dashboard\/details-assets\/ab47c008-33d1-4ea5-ae71-ff36fbc8e25a"},"geometry":{"type":"Point","coordinates":[-49.730404494503,-29.335930613529]}},{"type":"Feature","properties":{"municipio":"f62fbca6-5e03-4840-af00-4aab833f7fb4","title":"RS - TAQUARA","name":"RS - TAQUARA","tipo":"Munic\u00edpio","url":"\/dashboard\/details-assets\/f62fbca6-5e03-4840-af00-4aab833f7fb4"},"geometry":{"type":"Point","coordinates":[-50.781168619256,-29.650513103464]}},{"type":"Feature","properties":{"municipio":"8e679a45-c073-4b6d-96b6-8fd358065c01","title":"RS - SOLEDADE","name":"RS - SOLEDADE","tipo":"Munic\u00edpio","url":"\/dashboard\/details-assets\/8e679a45-c073-4b6d-96b6-8fd358065c01"},"geometry":{"type":"Point","coordinates":[-52.509866171166,-28.827737952872]}},{"type":"Feature","properties":{"municipio":"92d15ca0-ffef-415c-b2ff-2d5fb5df0cef","title":"RS - SAPUCAIA DO SUL","name":"RS - SAPUCAIA DO SUL","tipo":"Munic\u00edpio","url":"\/dashboard\/details-assets\/92d15ca0-ffef-415c-b2ff-2d5fb5df0cef"},"geometry":{"type":"Point","coordinates":[-51.15187471552,-29.824868031771]}},{"type":"Feature","properties":{"municipio":"b5185572-c5bf-48d5-b8b0-de9c45dd311c","title":"RS - SAPIRANGA","name":"RS - SAPIRANGA","tipo":"Munic\u00edpio","url":"\/dashboard\/details-assets\/b5185572-c5bf-48d5-b8b0-de9c45dd311c"},"geometry":{"type":"Point","coordinates":[-51.003622987824,-29.638554116803]}},{"type":"Feature","properties":{"municipio":"6f598392-769b-43f1-a262-5dfb2eeb88ab","title":"RS - SAO LUIZ GONZAGA","name":"RS - SAO LUIZ GONZAGA","tipo":"Munic\u00edpio","url":"\/dashboard\/details-assets\/6f598392-769b-43f1-a262-5dfb2eeb88ab"},"geometry":{"type":"Point","coordinates":[-54.959659549364,-28.406646952219]}},{"type":"Feature","properties":{"municipio":"f3e32a16-3718-4dbf-816f-a7af41d6d015","title":"RS - SAO LOURENCO DO SUL","name":"RS - SAO LOURENCO DO SUL","tipo":"Munic\u00edpio","url":"\/dashboard\/details-assets\/f3e32a16-3718-4dbf-816f-a7af41d6d015"},"geometry":{"type":"Point","coordinates":[-51.976915235762,-31.364023720312]}},{"type":"Feature","properties":{"municipio":"f0c18640-da32-4cfe-87ff-712f317e1660","title":"RS - SAO LEOPOLDO","name":"RS - SAO LEOPOLDO","tipo":"Munic\u00edpio","url":"\/dashboard\/details-assets\/f0c18640-da32-4cfe-87ff-712f317e1660"},"geometry":{"type":"Point","coordinates":[-51.146234561572,-29.765866541571]}},{"type":"Feature","properties":{"municipio":"4483f70f-e3d5-4b49-bab7-2668e7f6c7a8","title":"RS - SAO JOSE DO NORTE","name":"RS - SAO JOSE DO NORTE","tipo":"Munic\u00edpio","url":"\/dashboard\/details-assets\/4483f70f-e3d5-4b49-bab7-2668e7f6c7a8"},"geometry":{"type":"Point","coordinates":[-52.034202271984,-32.020609111889]}},{"type":"Feature","properties":{"municipio":"d8b0b2ce-f4a2-4f33-8229-8e2c345e1f02","title":"RS - SAO JERONIMO","name":"RS - SAO JERONIMO","tipo":"Munic\u00edpio","url":"\/dashboard\/details-assets\/d8b0b2ce-f4a2-4f33-8229-8e2c345e1f02"},"geometry":{"type":"Point","coordinates":[-51.72817750324,-29.959438663988]}},{"type":"Feature","properties":{"municipio":"ce30fd1d-afe1-4a4b-bfc5-90fe1dfb06d6","title":"RS - SAO GABRIEL","name":"RS - SAO GABRIEL","tipo":"Munic\u00edpio","url":"\/dashboard\/details-assets\/ce30fd1d-afe1-4a4b-bfc5-90fe1dfb06d6"},"geometry":{"type":"Point","coordinates":[-54.320477858108,-30.336760054028]}},{"type":"Feature","properties":{"municipio":"576b3f84-8117-4528-bae3-7ab41343525e","title":"RS - SAO BORJA","name":"RS - SAO BORJA","tipo":"Munic\u00edpio","url":"\/dashboard\/details-assets\/576b3f84-8117-4528-bae3-7ab41343525e"},"geometry":{"type":"Point","coordinates":[-56.001029153618,-28.6628375259]}},{"type":"Feature","properties":{"municipio":"9d18aac3-4b41-42d3-ac4e-7cfaa9577089","title":"RS - SANTO ANGELO","name":"RS - SANTO ANGELO","tipo":"Munic\u00edpio","url":"\/dashboard\/details-assets\/9d18aac3-4b41-42d3-ac4e-7cfaa9577089"},"geometry":{"type":"Point","coordinates":[-54.264142798427,-28.301937872559]}},{"type":"Feature","properties":{"municipio":"80da4fa7-c979-4b36-af1e-1ebc981d8b83","title":"RS - SANTIAGO","name":"RS - SANTIAGO","tipo":"Munic\u00edpio","url":"\/dashboard\/details-assets\/80da4fa7-c979-4b36-af1e-1ebc981d8b83"},"geometry":{"type":"Point","coordinates":[-54.869075853789,-29.191460170091]}},{"type":"Feature","properties":{"municipio":"7e5d9755-fd17-4609-b83a-87ae35573426","title":"RS - SANTA VITORIA DO PALMAR","name":"RS - SANTA VITORIA DO PALMAR","tipo":"Munic\u00edpio","url":"\/dashboard\/details-assets\/7e5d9755-fd17-4609-b83a-87ae35573426"},"geometry":{"type":"Point","coordinates":[-54.478224098761,-27.866749798143]}},{"type":"Feature","properties":{"municipio":"e602d40a-7815-4bf2-9285-fda248bcf71f","title":"RS - SANTA ROSA","name":"RS - SANTA ROSA","tipo":"Munic\u00edpio","url":"\/dashboard\/details-assets\/e602d40a-7815-4bf2-9285-fda248bcf71f"},"geometry":{"type":"Point","coordinates":[-53.808675394663,-29.685581802733]}},{"type":"Feature","properties":{"municipio":"3b49b1e0-25eb-4107-91b5-2ed68a023a7c","title":"RS - SANT ANA DO LIVRAMENTO","name":"RS - SANT ANA DO LIVRAMENTO","tipo":"Munic\u00edpio","url":"\/dashboard\/details-assets\/3b49b1e0-25eb-4107-91b5-2ed68a023a7c"},"geometry":{"type":"Point","coordinates":[-53.367006380733,-33.519860029826]}},{"type":"Feature","properties":{"municipio":"332a33d6-7db5-410d-9de0-3f1910c1d566","title":"RS - SANTA MARIA","name":"RS - SANTA MARIA","tipo":"Munic\u00edpio","url":"\/dashboard\/details-assets\/332a33d6-7db5-410d-9de0-3f1910c1d566"},"geometry":{"type":"Point","coordinates":[-53.809876,-29.690439]}},{"type":"Feature","properties":{"municipio":"29c18be2-c8c6-4653-ba65-1e03e09eeeef","title":"RS - SANTA CRUZ DO SUL","name":"RS - SANTA CRUZ DO SUL","tipo":"Munic\u00edpio","url":"\/dashboard\/details-assets\/29c18be2-c8c6-4653-ba65-1e03e09eeeef"},"geometry":{"type":"Point","coordinates":[-55.53481426796,-30.889384010381]}},{"type":"Feature","properties":{"municipio":"4623dbfa-92ed-49da-b792-bcb94d731d08","title":"RS - RIO PARDO","name":"RS - RIO PARDO","tipo":"Munic\u00edpio","url":"\/dashboard\/details-assets\/4623dbfa-92ed-49da-b792-bcb94d731d08"},"geometry":{"type":"Point","coordinates":[-52.7104298,-30.0788944]}},{"type":"Feature","properties":{"municipio":"7b38b2dd-8d94-4936-8899-3364ac9ac597","title":"RS - RIO GRANDE","name":"RS - RIO GRANDE","tipo":"Munic\u00edpio","url":"\/dashboard\/details-assets\/7b38b2dd-8d94-4936-8899-3364ac9ac597"},"geometry":{"type":"Point","coordinates":[-52.086769699114,-32.050445791803]}},{"type":"Feature","properties":{"municipio":"f6ca051f-3c2c-4b14-a565-6907e9952018","title":"RS - PORTO ALEGRE","name":"RS - PORTO ALEGRE","tipo":"Munic\u00edpio","url":"\/dashboard\/details-assets\/f6ca051f-3c2c-4b14-a565-6907e9952018"},"geometry":{"type":"Point","coordinates":[-51.228660463702,-30.030036773948]}},{"type":"Feature","properties":{"municipio":"7e02cc4d-e81e-4068-a429-3fa689c11242","title":"RS - PORTAO","name":"RS - PORTAO","tipo":"Munic\u00edpio","url":"\/dashboard\/details-assets\/7e02cc4d-e81e-4068-a429-3fa689c11242"},"geometry":{"type":"Point","coordinates":[-51.2434055,-29.7020325]}},{"type":"Feature","properties":{"municipio":"5c26191c-b54b-486d-b1d9-d3bff75133c0","title":"RS - PIRATINI","name":"RS - PIRATINI","tipo":"Munic\u00edpio","url":"\/dashboard\/details-assets\/5c26191c-b54b-486d-b1d9-d3bff75133c0"},"geometry":{"type":"Point","coordinates":[-53.104734453972,-31.444112472513]}},{"type":"Feature","properties":{"municipio":"7f712879-eb1e-4aca-b89a-7e86cb4c52be","title":"RS - PINHEIRO MACHADO","name":"RS - PINHEIRO MACHADO","tipo":"Munic\u00edpio","url":"\/dashboard\/details-assets\/7f712879-eb1e-4aca-b89a-7e86cb4c52be"},"geometry":{"type":"Point","coordinates":[-53.3806553,-31.575874]}},{"type":"Feature","properties":{"municipio":"f5f342b6-7674-4ad4-9fe1-45069f337ea2","title":"RS - PELOTAS","name":"RS - PELOTAS","tipo":"Munic\u00edpio","url":"\/dashboard\/details-assets\/f5f342b6-7674-4ad4-9fe1-45069f337ea2"},"geometry":{"type":"Point","coordinates":[-52.344320062991,-31.719597879985]}},{"type":"Feature","properties":{"municipio":"adb68735-dda2-47ce-b0c0-2ea76a2bccbf","title":"RS - PASSO FUNDO","name":"RS - PASSO FUNDO","tipo":"Munic\u00edpio","url":"\/dashboard\/details-assets\/adb68735-dda2-47ce-b0c0-2ea76a2bccbf"},"geometry":{"type":"Point","coordinates":[-52.407095092617,-28.261767127117]}},{"type":"Feature","properties":{"municipio":"902ede61-449d-430f-b5af-96845bf1edd1","title":"RS - PAROBE","name":"RS - PAROBE","tipo":"Munic\u00edpio","url":"\/dashboard\/details-assets\/902ede61-449d-430f-b5af-96845bf1edd1"},"geometry":{"type":"Point","coordinates":[-50.834865902327,-29.631749276821]}},{"type":"Feature","properties":{"municipio":"1904e2d8-34aa-454b-8c87-6b8038d04829","title":"RS - PANAMBI","name":"RS - PANAMBI","tipo":"Munic\u00edpio","url":"\/dashboard\/details-assets\/1904e2d8-34aa-454b-8c87-6b8038d04829"},"geometry":{"type":"Point","coordinates":[-53.500265167445,-28.292730536137]}},{"type":"Feature","properties":{"municipio":"f2362d77-61cd-42d6-bebf-e45da1797fb0","title":"RS - PALMEIRA DAS MISSOES","name":"RS - PALMEIRA DAS MISSOES","tipo":"Munic\u00edpio","url":"\/dashboard\/details-assets\/f2362d77-61cd-42d6-bebf-e45da1797fb0"},"geometry":{"type":"Point","coordinates":[-53.314953910551,-27.900620874651]}},{"type":"Feature","properties":{"municipio":"9f431190-c02d-4803-9b67-0d079eeeafa2","title":"RS - OSORIO","name":"RS - OSORIO","tipo":"Munic\u00edpio","url":"\/dashboard\/details-assets\/9f431190-c02d-4803-9b67-0d079eeeafa2"},"geometry":{"type":"Point","coordinates":[-50.266797812616,-29.892697076702]}},{"type":"Feature","properties":{"municipio":"4c35596b-2234-489f-b284-b1c5a80fbae6","title":"RS - NOVO HAMBURGO","name":"RS - NOVO HAMBURGO","tipo":"Munic\u00edpio","url":"\/dashboard\/details-assets\/4c35596b-2234-489f-b284-b1c5a80fbae6"},"geometry":{"type":"Point","coordinates":[-51.128605277632,-29.686326024365]}},{"type":"Feature","properties":{"municipio":"e68adad6-1a9f-48aa-b99f-14bb9f22bc06","title":"RS - NOVA SANTA RITA","name":"RS - NOVA SANTA RITA","tipo":"Munic\u00edpio","url":"\/dashboard\/details-assets\/e68adad6-1a9f-48aa-b99f-14bb9f22bc06"},"geometry":{"type":"Point","coordinates":[-51.3459299,-29.847014]}},{"type":"Feature","properties":{"municipio":"cc178a0a-f95b-440c-9be2-bac8ea31733d","title":"RS - NOVA PRATA","name":"RS - NOVA PRATA","tipo":"Munic\u00edpio","url":"\/dashboard\/details-assets\/cc178a0a-f95b-440c-9be2-bac8ea31733d"},"geometry":{"type":"Point","coordinates":[-51.608995692018,-28.783944712393]}},{"type":"Feature","properties":{"municipio":"a8d93291-53ea-46e4-8c32-7c32a73c7f11","title":"RS - MONTENEGRO","name":"RS - MONTENEGRO","tipo":"Munic\u00edpio","url":"\/dashboard\/details-assets\/a8d93291-53ea-46e4-8c32-7c32a73c7f11"},"geometry":{"type":"Point","coordinates":[-51.461299375682,-29.688118609051]}},{"type":"Feature","properties":{"municipio":"c5fc9354-a8ae-4750-9533-41be5e216f12","title":"RS - MARAU","name":"RS - MARAU","tipo":"Munic\u00edpio","url":"\/dashboard\/details-assets\/c5fc9354-a8ae-4750-9533-41be5e216f12"},"geometry":{"type":"Point","coordinates":[-52.196776934,-28.448453926486]}},{"type":"Feature","properties":{"municipio":"60fe2b1b-7d4c-4732-a904-cc81358513e0","title":"RS - LAJEADO","name":"RS - LAJEADO","tipo":"Munic\u00edpio","url":"\/dashboard\/details-assets\/60fe2b1b-7d4c-4732-a904-cc81358513e0"},"geometry":{"type":"Point","coordinates":[-51.9678277005,-29.465454401662]}},{"type":"Feature","properties":{"municipio":"59b93080-34cf-4986-be3f-0549a05e03e1","title":"RS - JAGUARAO","name":"RS - JAGUARAO","tipo":"Munic\u00edpio","url":"\/dashboard\/details-assets\/59b93080-34cf-4986-be3f-0549a05e03e1"},"geometry":{"type":"Point","coordinates":[-53.377522915313,-32.563568667659]}},{"type":"Feature","properties":{"municipio":"4d312d91-79a3-4224-b9db-d2d3c260551c","title":"RS - ITAQUI","name":"RS - ITAQUI","tipo":"Munic\u00edpio","url":"\/dashboard\/details-assets\/4d312d91-79a3-4224-b9db-d2d3c260551c"},"geometry":{"type":"Point","coordinates":[-56.55713349703,-29.128636898258]}},{"type":"Feature","properties":{"municipio":"0d33a88f-8b3d-4d4c-b243-a6a0b316c210","title":"RS - IMBE","name":"RS - IMBE","tipo":"Munic\u00edpio","url":"\/dashboard\/details-assets\/0d33a88f-8b3d-4d4c-b243-a6a0b316c210"},"geometry":{"type":"Point","coordinates":[-50.130579940718,-29.974777819853]}},{"type":"Feature","properties":{"municipio":"3174c6b9-5ac4-4e6e-bae0-3c546805009a","title":"RS - IJUI","name":"RS - IJUI","tipo":"Munic\u00edpio","url":"\/dashboard\/details-assets\/3174c6b9-5ac4-4e6e-bae0-3c546805009a"},"geometry":{"type":"Point","coordinates":[-53.918066835708,-28.388536540195]}},{"type":"Feature","properties":{"municipio":"9720b9cd-1b65-41df-a8da-02c66ecad1b4","title":"RS - IGREJINHA","name":"RS - IGREJINHA","tipo":"Munic\u00edpio","url":"\/dashboard\/details-assets\/9720b9cd-1b65-41df-a8da-02c66ecad1b4"},"geometry":{"type":"Point","coordinates":[-50.798710733322,-29.572220454945]}},{"type":"Feature","properties":{"municipio":"9adaf38e-e9f4-4b22-9e26-1039570a495a","title":"RS - GUAIBA","name":"RS - GUAIBA","tipo":"Munic\u00edpio","url":"\/dashboard\/details-assets\/9adaf38e-e9f4-4b22-9e26-1039570a495a"},"geometry":{"type":"Point","coordinates":[-51.314683663725,-30.108601921554]}},{"type":"Feature","properties":{"municipio":"000efba0-5bb1-4894-8b06-e5504527ed15","title":"RS - GRAVATAI","name":"RS - GRAVATAI","tipo":"Munic\u00edpio","url":"\/dashboard\/details-assets\/000efba0-5bb1-4894-8b06-e5504527ed15"},"geometry":{"type":"Point","coordinates":[-50.990792974774,-29.94551891252]}},{"type":"Feature","properties":{"municipio":"d7ef813b-e9cf-4802-99ac-0ab584836985","title":"RS - GRAMADO","name":"RS - GRAMADO","tipo":"Munic\u00edpio","url":"\/dashboard\/details-assets\/d7ef813b-e9cf-4802-99ac-0ab584836985"},"geometry":{"type":"Point","coordinates":[-50.9365088,-29.3795583]}},{"type":"Feature","properties":{"municipio":"c0cc71e0-dcdb-4dba-9363-9242b889b728","title":"RS - FARROUPILHA","name":"RS - FARROUPILHA","tipo":"Munic\u00edpio","url":"\/dashboard\/details-assets\/c0cc71e0-dcdb-4dba-9363-9242b889b728"},"geometry":{"type":"Point","coordinates":[-51.34834957377,-29.223679186031]}},{"type":"Feature","properties":{"municipio":"cd4bd481-b779-4938-a842-7769519659b2","title":"RS - ESTRELA","name":"RS - ESTRELA","tipo":"Munic\u00edpio","url":"\/dashboard\/details-assets\/cd4bd481-b779-4938-a842-7769519659b2"},"geometry":{"type":"Point","coordinates":[-51.970260294176,-29.503471876013]}},{"type":"Feature","properties":{"municipio":"0cd21b52-e917-4f9c-91f1-8ac684303b03","title":"RS - ESTEIO","name":"RS - ESTEIO","tipo":"Munic\u00edpio","url":"\/dashboard\/details-assets\/0cd21b52-e917-4f9c-91f1-8ac684303b03"},"geometry":{"type":"Point","coordinates":[-51.143837339432,-29.852186294643]}},{"type":"Feature","properties":{"municipio":"5d3d3fb9-8662-4194-b57f-65045fce36f6","title":"RS - ERECHIM","name":"RS - ERECHIM","tipo":"Munic\u00edpio","url":"\/dashboard\/details-assets\/5d3d3fb9-8662-4194-b57f-65045fce36f6"},"geometry":{"type":"Point","coordinates":[-52.275876897887,-27.633405810025]}},{"type":"Feature","properties":{"municipio":"0b11cf6d-0b73-40ed-b8d6-18ce86b3193d","title":"RS - ENCRUZILHADA DO SUL","name":"RS - ENCRUZILHADA DO SUL","tipo":"Munic\u00edpio","url":"\/dashboard\/details-assets\/0b11cf6d-0b73-40ed-b8d6-18ce86b3193d"},"geometry":{"type":"Point","coordinates":[-52.522045389856,-30.543657323943]}},{"type":"Feature","properties":{"municipio":"3f9f3970-7561-4d53-aa61-9b6e724eee2d","title":"RS - ELDORADO DO SUL","name":"RS - ELDORADO DO SUL","tipo":"Munic\u00edpio","url":"\/dashboard\/details-assets\/3f9f3970-7561-4d53-aa61-9b6e724eee2d"},"geometry":{"type":"Point","coordinates":[-51.310418926013,-29.999292593769]}},{"type":"Feature","properties":{"municipio":"79cc9fd3-26df-4cc3-b421-b567c86842dd","title":"RS - DOM PEDRITO","name":"RS - DOM PEDRITO","tipo":"Munic\u00edpio","url":"\/dashboard\/details-assets\/79cc9fd3-26df-4cc3-b421-b567c86842dd"},"geometry":{"type":"Point","coordinates":[-54.674130183824,-30.981267055918]}},{"type":"Feature","properties":{"municipio":"020598f1-d030-4962-8bab-5644547e019d","title":"RS - DOIS IRMAOS","name":"RS - DOIS IRMAOS","tipo":"Munic\u00edpio","url":"\/dashboard\/details-assets\/020598f1-d030-4962-8bab-5644547e019d"},"geometry":{"type":"Point","coordinates":[-51.087619313021,-29.584158778094]}},{"type":"Feature","properties":{"municipio":"5d5f6f47-2609-4a34-bde0-93101d2406eb","title":"RS - CRUZ ALTA","name":"RS - CRUZ ALTA","tipo":"Munic\u00edpio","url":"\/dashboard\/details-assets\/5d5f6f47-2609-4a34-bde0-93101d2406eb"},"geometry":{"type":"Point","coordinates":[-53.60524076212,-28.642446607695]}},{"type":"Feature","properties":{"municipio":"f464c2cb-2c52-407e-862b-5353b6ad9200","title":"RS - CHARQUEADAS","name":"RS - CHARQUEADAS","tipo":"Munic\u00edpio","url":"\/dashboard\/details-assets\/f464c2cb-2c52-407e-862b-5353b6ad9200"},"geometry":{"type":"Point","coordinates":[-51.625006052185,-29.956800362228]}},{"type":"Feature","properties":{"municipio":"1cfa4dc6-607c-4289-8b96-671a655a2551","title":"RS - CAXIAS DO SUL","name":"RS - CAXIAS DO SUL","tipo":"Munic\u00edpio","url":"\/dashboard\/details-assets\/1cfa4dc6-607c-4289-8b96-671a655a2551"},"geometry":{"type":"Point","coordinates":[-51.178860205883,-29.166899010259]}},{"type":"Feature","properties":{"municipio":"d47e1a32-3c23-4301-a231-f33fce8ba8a0","title":"RS - CARAZINHO","name":"RS - CARAZINHO","tipo":"Munic\u00edpio","url":"\/dashboard\/details-assets\/d47e1a32-3c23-4301-a231-f33fce8ba8a0"},"geometry":{"type":"Point","coordinates":[-52.791897388104,-28.286510590107]}},{"type":"Feature","properties":{"municipio":"d40bcffc-5836-45cd-b0cd-a2e4b41dd4f7","title":"RS - CAPAO DO LEAO","name":"RS - CAPAO DO LEAO","tipo":"Munic\u00edpio","url":"\/dashboard\/details-assets\/d40bcffc-5836-45cd-b0cd-a2e4b41dd4f7"},"geometry":{"type":"Point","coordinates":[-52.487007572063,-31.766838655804]}},{"type":"Feature","properties":{"municipio":"6523b39f-c7cc-4593-b095-a79b12079809","title":"RS - CAPAO DA CANOA","name":"RS - CAPAO DA CANOA","tipo":"Munic\u00edpio","url":"\/dashboard\/details-assets\/6523b39f-c7cc-4593-b095-a79b12079809"},"geometry":{"type":"Point","coordinates":[-50.020022444273,-29.761466639306]}},{"type":"Feature","properties":{"municipio":"53e1a736-4bcf-400e-abb8-ed390ff52406","title":"RS - CANOAS","name":"RS - CANOAS","tipo":"Munic\u00edpio","url":"\/dashboard\/details-assets\/53e1a736-4bcf-400e-abb8-ed390ff52406"},"geometry":{"type":"Point","coordinates":[-51.181029780688,-29.918696705674]}},{"type":"Feature","properties":{"municipio":"ad174df7-e6c8-4394-b26f-a6999f1a2ec2","title":"RS - CANGUCU","name":"RS - CANGUCU","tipo":"Munic\u00edpio","url":"\/dashboard\/details-assets\/ad174df7-e6c8-4394-b26f-a6999f1a2ec2"},"geometry":{"type":"Point","coordinates":[-52.676285832072,-31.393859523477]}},{"type":"Feature","properties":{"municipio":"828ac1dd-5355-472b-a059-a96134885c62","title":"RS - CANDIOTA","name":"RS - CANDIOTA","tipo":"Munic\u00edpio","url":"\/dashboard\/details-assets\/828ac1dd-5355-472b-a059-a96134885c62"},"geometry":{"type":"Point","coordinates":[-54.0243624,-31.586056]}},{"type":"Feature","properties":{"municipio":"1ca78f9b-9790-42ef-959d-e574b5179764","title":"RS - CAMPO BOM","name":"RS - CAMPO BOM","tipo":"Munic\u00edpio","url":"\/dashboard\/details-assets\/1ca78f9b-9790-42ef-959d-e574b5179764"},"geometry":{"type":"Point","coordinates":[-51.058869924278,-29.675685096311]}},{"type":"Feature","properties":{"municipio":"f2bf4038-8f09-483f-95c6-7388f630f76d","title":"RS - CAMAQUA","name":"RS - CAMAQUA","tipo":"Munic\u00edpio","url":"\/dashboard\/details-assets\/f2bf4038-8f09-483f-95c6-7388f630f76d"},"geometry":{"type":"Point","coordinates":[-51.814600906221,-30.850704388425]}},{"type":"Feature","properties":{"municipio":"5c8c93d9-5828-49f3-833f-4332868e266a","title":"RS - CACHOEIRA DO SUL","name":"RS - CACHOEIRA DO SUL","tipo":"Munic\u00edpio","url":"\/dashboard\/details-assets\/5c8c93d9-5828-49f3-833f-4332868e266a"},"geometry":{"type":"Point","coordinates":[-52.893412558482,-30.045819978909]}},{"type":"Feature","properties":{"municipio":"a882dbc9-147b-47bf-aff4-7dad83d2c3b6","title":"RS - CACAPAVA DO SUL","name":"RS - CACAPAVA DO SUL","tipo":"Munic\u00edpio","url":"\/dashboard\/details-assets\/a882dbc9-147b-47bf-aff4-7dad83d2c3b6"},"geometry":{"type":"Point","coordinates":[-53.487568920041,-30.514743233254]}},{"type":"Feature","properties":{"municipio":"c380e178-9866-4146-86cf-c378031a079e","title":"RS - BENTO GONCALVES","name":"RS - BENTO GONCALVES","tipo":"Munic\u00edpio","url":"\/dashboard\/details-assets\/c380e178-9866-4146-86cf-c378031a079e"},"geometry":{"type":"Point","coordinates":[-51.515560306324,-29.167401932388]}},{"type":"Feature","properties":{"municipio":"843255dd-2cf6-4394-be6c-867588499afc","title":"RS - BAGE","name":"RS - BAGE","tipo":"Munic\u00edpio","url":"\/dashboard\/details-assets\/843255dd-2cf6-4394-be6c-867588499afc"},"geometry":{"type":"Point","coordinates":[-54.10708328517,-31.330501840709]}},{"type":"Feature","properties":{"municipio":"63f1f71f-85e0-4112-a68f-09fdbeea6747","title":"RS - ALVORADA","name":"RS - ALVORADA","tipo":"Munic\u00edpio","url":"\/dashboard\/details-assets\/63f1f71f-85e0-4112-a68f-09fdbeea6747"},"geometry":{"type":"Point","coordinates":[-51.0777294542,-29.997493063925]}},{"type":"Feature","properties":{"municipio":"517f912b-3517-4081-9d2b-44c164171242","title":"RS - ALEGRETE","name":"RS - ALEGRETE","tipo":"Munic\u00edpio","url":"\/dashboard\/details-assets\/517f912b-3517-4081-9d2b-44c164171242"},"geometry":{"type":"Point","coordinates":[-55.795870145333,-29.782043208311]}},{"type":"Feature","properties":{"municipio":"fc6b37ad-d3ed-4444-8fd3-787da0e9bd63","title":"RR - BOA VISTA","name":"RR - BOA VISTA","tipo":"Munic\u00edpio","url":"\/dashboard\/details-assets\/fc6b37ad-d3ed-4444-8fd3-787da0e9bd63"},"geometry":{"type":"Point","coordinates":[-60.670532672965,2.8166819190116]}},{"type":"Feature","properties":{"municipio":"fd8a7a9e-7d00-467b-8615-89749c7eeaae","title":"RO - SAO FRANCISCO DO GUAPORE","name":"RO - SAO FRANCISCO DO GUAPORE","tipo":"Munic\u00edpio","url":"\/dashboard\/details-assets\/fd8a7a9e-7d00-467b-8615-89749c7eeaae"},"geometry":{"type":"Point","coordinates":[-63.570864710765,-12.063798411847]}},{"type":"Feature","properties":{"municipio":"2a3efab4-a298-4713-bdef-a702a05327fe","title":"RO - VILHENA","name":"RO - VILHENA","tipo":"Munic\u00edpio","url":"\/dashboard\/details-assets\/2a3efab4-a298-4713-bdef-a702a05327fe"},"geometry":{"type":"Point","coordinates":[-60.138583866099,-12.741373471396]}},{"type":"Feature","properties":{"municipio":"cb58782f-e9a5-4cd6-b7e4-0b053def866f","title":"RO - ROLIM DE MOURA","name":"RO - ROLIM DE MOURA","tipo":"Munic\u00edpio","url":"\/dashboard\/details-assets\/cb58782f-e9a5-4cd6-b7e4-0b053def866f"},"geometry":{"type":"Point","coordinates":[-61.785780935185,-11.722258913005]}},{"type":"Feature","properties":{"municipio":"dbbed14f-a8ca-4ee2-a996-aa0eacba1527","title":"RO - PORTO VELHO","name":"RO - PORTO VELHO","tipo":"Munic\u00edpio","url":"\/dashboard\/details-assets\/dbbed14f-a8ca-4ee2-a996-aa0eacba1527"},"geometry":{"type":"Point","coordinates":[-63.831445654361,-8.7688917897153]}},{"type":"Feature","properties":{"municipio":"c85e3136-70a1-4c7d-bf88-23e3574f31ec","title":"RO - OURO PRETO DO OESTE","name":"RO - OURO PRETO DO OESTE","tipo":"Munic\u00edpio","url":"\/dashboard\/details-assets\/c85e3136-70a1-4c7d-bf88-23e3574f31ec"},"geometry":{"type":"Point","coordinates":[-62.261055190436,-10.723573900468]}},{"type":"Feature","properties":{"municipio":"f6975057-c4d5-494c-8a9f-94684d94c518","title":"RO - MACHADINHO D OESTE","name":"RO - MACHADINHO D OESTE","tipo":"Munic\u00edpio","url":"\/dashboard\/details-assets\/f6975057-c4d5-494c-8a9f-94684d94c518"},"geometry":{"type":"Point","coordinates":[-61.999592572447,-9.4255624796948]}},{"type":"Feature","properties":{"municipio":"879a274c-47a3-4a5d-907d-bf8861eb99d6","title":"RO - JI-PARANA","name":"RO - JI-PARANA","tipo":"Munic\u00edpio","url":"\/dashboard\/details-assets\/879a274c-47a3-4a5d-907d-bf8861eb99d6"},"geometry":{"type":"Point","coordinates":[-61.945094582684,-10.882051317999]}},{"type":"Feature","properties":{"municipio":"0214dbfc-996e-4620-aff4-c1b87563f22c","title":"RO - GUAJARA-MIRIM","name":"RO - GUAJARA-MIRIM","tipo":"Munic\u00edpio","url":"\/dashboard\/details-assets\/0214dbfc-996e-4620-aff4-c1b87563f22c"},"geometry":{"type":"Point","coordinates":[-65.323951819692,-10.773883740323]}},{"type":"Feature","properties":{"municipio":"dcfdb3ee-9586-4aee-871a-57e4e6fcf17a","title":"RO - ESPIGAO D OESTE","name":"RO - ESPIGAO D OESTE","tipo":"Munic\u00edpio","url":"\/dashboard\/details-assets\/dcfdb3ee-9586-4aee-871a-57e4e6fcf17a"},"geometry":{"type":"Point","coordinates":[-61.020173113285,-11.528554632977]}},{"type":"Feature","properties":{"municipio":"f427a79e-2eeb-44e1-bc5f-7b4d76eab500","title":"RO - CEREJEIRAS","name":"RO - CEREJEIRAS","tipo":"Munic\u00edpio","url":"\/dashboard\/details-assets\/f427a79e-2eeb-44e1-bc5f-7b4d76eab500"},"geometry":{"type":"Point","coordinates":[-60.818426164681,-13.19503303162]}},{"type":"Feature","properties":{"municipio":"9acd79f7-b050-41be-a3f3-80a7577e68a8","title":"RO - CACOAL","name":"RO - CACOAL","tipo":"Munic\u00edpio","url":"\/dashboard\/details-assets\/9acd79f7-b050-41be-a3f3-80a7577e68a8"},"geometry":{"type":"Point","coordinates":[-61.442944211822,-11.433865028318]}},{"type":"Feature","properties":{"municipio":"b3acf1a2-4fac-4882-928c-551ac9a6e304","title":"RO - ARIQUEMES","name":"RO - ARIQUEMES","tipo":"Munic\u00edpio","url":"\/dashboard\/details-assets\/b3acf1a2-4fac-4882-928c-551ac9a6e304"},"geometry":{"type":"Point","coordinates":[-63.033269278048,-9.9084628662469]}},{"type":"Feature","properties":{"municipio":"041ab2f2-2dcf-4236-8ecf-f0f5afe35ab1","title":"RN - PAU DOS FERROS","name":"RN - PAU DOS FERROS","tipo":"Munic\u00edpio","url":"\/dashboard\/details-assets\/041ab2f2-2dcf-4236-8ecf-f0f5afe35ab1"},"geometry":{"type":"Point","coordinates":[-38.203261520084,-6.11473183845]}},{"type":"Feature","properties":{"municipio":"c2d8ae1c-ef2b-429e-8780-ea2957c1dbbd","title":"RN - NATAL","name":"RN - NATAL","tipo":"Munic\u00edpio","url":"\/dashboard\/details-assets\/c2d8ae1c-ef2b-429e-8780-ea2957c1dbbd"},"geometry":{"type":"Point","coordinates":[-35.215862788086,-5.7987202553601]}},{"type":"Feature","properties":{"municipio":"129eed57-33bb-44f9-823e-438787c04449","title":"RN - MOSSORO","name":"RN - MOSSORO","tipo":"Munic\u00edpio","url":"\/dashboard\/details-assets\/129eed57-33bb-44f9-823e-438787c04449"},"geometry":{"type":"Point","coordinates":[-37.356874136704,-5.1938012345383]}},{"type":"Feature","properties":{"municipio":"0eeba0a5-2f11-4e7f-b7e4-6d15710fc72e","title":"RN - JOAO CAMARA","name":"RN - JOAO CAMARA","tipo":"Munic\u00edpio","url":"\/dashboard\/details-assets\/0eeba0a5-2f11-4e7f-b7e4-6d15710fc72e"},"geometry":{"type":"Point","coordinates":[-35.816787873855,-5.5384233831818]}},{"type":"Feature","properties":{"municipio":"5d52229f-f619-4233-bae8-67c0097bd809","title":"RN - CAICO","name":"RN - CAICO","tipo":"Munic\u00edpio","url":"\/dashboard\/details-assets\/5d52229f-f619-4233-bae8-67c0097bd809"},"geometry":{"type":"Point","coordinates":[-37.096488771192,-6.4591388311821]}},{"type":"Feature","properties":{"municipio":"1b36fac9-461b-4970-b972-9d156b395522","title":"RN - ACU","name":"RN - ACU","tipo":"Munic\u00edpio","url":"\/dashboard\/details-assets\/1b36fac9-461b-4970-b972-9d156b395522"},"geometry":{"type":"Point","coordinates":[-36.917923219959,-5.5719459990641]}},{"type":"Feature","properties":{"municipio":"247d609d-7afb-45b2-8d1f-7775e2c64248","title":"RJ - VOLTA REDONDA","name":"RJ - VOLTA REDONDA","tipo":"Munic\u00edpio","url":"\/dashboard\/details-assets\/247d609d-7afb-45b2-8d1f-7775e2c64248"},"geometry":{"type":"Point","coordinates":[-43.663874024513,-22.50996760013]}},{"type":"Feature","properties":{"municipio":"17ceced1-45da-45f4-aea8-dd7a4bcfff4f","title":"RJ - VASSOURAS","name":"RJ - VASSOURAS","tipo":"Munic\u00edpio","url":"\/dashboard\/details-assets\/17ceced1-45da-45f4-aea8-dd7a4bcfff4f"},"geometry":{"type":"Point","coordinates":[-43.704843678327,-22.409007572361]}},{"type":"Feature","properties":{"municipio":"632a63ea-80a8-4678-b569-52b86a3339a5","title":"RJ - SAQUAREMA","name":"RJ - SAQUAREMA","tipo":"Munic\u00edpio","url":"\/dashboard\/details-assets\/632a63ea-80a8-4678-b569-52b86a3339a5"},"geometry":{"type":"Point","coordinates":[-42.103528670154,-22.931127415318]}},{"type":"Feature","properties":{"municipio":"a0ab137c-32c4-433c-8663-f5803d14bd29","title":"RJ - SAO JOAO DE MERITI","name":"RJ - SAO JOAO DE MERITI","tipo":"Munic\u00edpio","url":"\/dashboard\/details-assets\/a0ab137c-32c4-433c-8663-f5803d14bd29"},"geometry":{"type":"Point","coordinates":[-43.032335061965,-22.802330807959]}},{"type":"Feature","properties":{"municipio":"2cf643a6-29ce-42d5-9ccc-4f4e4ae43cef","title":"RJ - SAO GONCALO","name":"RJ - SAO GONCALO","tipo":"Munic\u00edpio","url":"\/dashboard\/details-assets\/2cf643a6-29ce-42d5-9ccc-4f4e4ae43cef"},"geometry":{"type":"Point","coordinates":[-41.11771972858,-22.829547312351]}},{"type":"Feature","properties":{"municipio":"a5099ed6-1f5a-42b1-bc27-6708eb53e4ea","title":"RJ - RIO DE JANEIRO","name":"RJ - RIO DE JANEIRO","tipo":"Munic\u00edpio","url":"\/dashboard\/details-assets\/a5099ed6-1f5a-42b1-bc27-6708eb53e4ea"},"geometry":{"type":"Point","coordinates":[-41.936967127161,-22.87665211751]}},{"type":"Feature","properties":{"municipio":"31e79594-9924-41ac-b5ff-718b1435b4a1","title":"RJ - RIO DAS OSTRAS","name":"RJ - RIO DAS OSTRAS","tipo":"Munic\u00edpio","url":"\/dashboard\/details-assets\/31e79594-9924-41ac-b5ff-718b1435b4a1"},"geometry":{"type":"Point","coordinates":[-42.625997841163,-22.523941185137]}},{"type":"Feature","properties":{"municipio":"7818258f-d238-446c-b773-119549f8625b","title":"RJ - RESENDE","name":"RJ - RESENDE","tipo":"Munic\u00edpio","url":"\/dashboard\/details-assets\/7818258f-d238-446c-b773-119549f8625b"},"geometry":{"type":"Point","coordinates":[-41.4725094001,-22.471183585456]}},{"type":"Feature","properties":{"municipio":"8d1dcc13-d9b0-40cb-a2f7-944d5ee79d69","title":"RJ - PETROPOLIS","name":"RJ - PETROPOLIS","tipo":"Munic\u00edpio","url":"\/dashboard\/details-assets\/8d1dcc13-d9b0-40cb-a2f7-944d5ee79d69"},"geometry":{"type":"Point","coordinates":[-44.710858502017,-22.510598611294]}},{"type":"Feature","properties":{"municipio":"deb2a93e-50ab-416a-a5cf-4b8a0707b697","title":"RJ - NOVA IGUACU","name":"RJ - NOVA IGUACU","tipo":"Munic\u00edpio","url":"\/dashboard\/details-assets\/deb2a93e-50ab-416a-a5cf-4b8a0707b697"},"geometry":{"type":"Point","coordinates":[-42.532771262963,-22.759834825591]}},{"type":"Feature","properties":{"municipio":"f5870715-4a98-4e82-8289-46cc2c1fd334","title":"RJ - NOVA FRIBURGO","name":"RJ - NOVA FRIBURGO","tipo":"Munic\u00edpio","url":"\/dashboard\/details-assets\/f5870715-4a98-4e82-8289-46cc2c1fd334"},"geometry":{"type":"Point","coordinates":[-43.075823167273,-22.286461458533]}},{"type":"Feature","properties":{"municipio":"e54efd7d-c77c-4ed7-a28f-8590244f22b3","title":"RJ - ITAPERUNA","name":"RJ - ITAPERUNA","tipo":"Munic\u00edpio","url":"\/dashboard\/details-assets\/e54efd7d-c77c-4ed7-a28f-8590244f22b3"},"geometry":{"type":"Point","coordinates":[-42.077729524571,-21.210591084117]}},{"type":"Feature","properties":{"municipio":"dd6be189-c38b-4df7-bcdf-ddaab0f74dcf","title":"RJ - ITABORAI","name":"RJ - ITABORAI","tipo":"Munic\u00edpio","url":"\/dashboard\/details-assets\/dd6be189-c38b-4df7-bcdf-ddaab0f74dcf"},"geometry":{"type":"Point","coordinates":[-42.222124542324,-22.745863016753]}},{"type":"Feature","properties":{"municipio":"fe73c985-c68b-49a6-a5dc-5cd64498c3b3","title":"RJ - DUQUE DE CAXIAS","name":"RJ - DUQUE DE CAXIAS","tipo":"Munic\u00edpio","url":"\/dashboard\/details-assets\/fe73c985-c68b-49a6-a5dc-5cd64498c3b3"},"geometry":{"type":"Point","coordinates":[-42.204210544431,-22.78525324898]}},{"type":"Feature","properties":{"municipio":"c1d48327-9c8f-495b-8ccc-f1d2250466ec","title":"RJ - CAMPOS DOS GOYTACAZES","name":"RJ - CAMPOS DOS GOYTACAZES","tipo":"Munic\u00edpio","url":"\/dashboard\/details-assets\/c1d48327-9c8f-495b-8ccc-f1d2250466ec"},"geometry":{"type":"Point","coordinates":[-42.663164357263,-21.751898631414]}},{"type":"Feature","properties":{"municipio":"94e8046b-0821-4452-a58d-c686ce8b7998","title":"RJ - CABO FRIO","name":"RJ - CABO FRIO","tipo":"Munic\u00edpio","url":"\/dashboard\/details-assets\/94e8046b-0821-4452-a58d-c686ce8b7998"},"geometry":{"type":"Point","coordinates":[-41.677679794982,-22.880764666456]}},{"type":"Feature","properties":{"municipio":"ce9ce3de-1a9d-47f5-88e3-3532b983a199","title":"RJ - BELFORD ROXO","name":"RJ - BELFORD ROXO","tipo":"Munic\u00edpio","url":"\/dashboard\/details-assets\/ce9ce3de-1a9d-47f5-88e3-3532b983a199"},"geometry":{"type":"Point","coordinates":[-44.172431373687,-22.764555966872]}},{"type":"Feature","properties":{"municipio":"93b328fc-c456-4130-b79d-b129b7d69b19","title":"PR - UNIAO DA VITORIA","name":"PR - UNIAO DA VITORIA","tipo":"Munic\u00edpio","url":"\/dashboard\/details-assets\/93b328fc-c456-4130-b79d-b129b7d69b19"},"geometry":{"type":"Point","coordinates":[-51.090609522987,-26.228434499251]}},{"type":"Feature","properties":{"municipio":"a0677b47-72b2-4364-b27b-a8caa2669207","title":"PR - UMUARAMA","name":"PR - UMUARAMA","tipo":"Munic\u00edpio","url":"\/dashboard\/details-assets\/a0677b47-72b2-4364-b27b-a8caa2669207"},"geometry":{"type":"Point","coordinates":[-53.308459804796,-23.763949999303]}},{"type":"Feature","properties":{"municipio":"427c7b7b-dca3-470b-b622-97a0333127ce","title":"PR - TOLEDO","name":"PR - TOLEDO","tipo":"Munic\u00edpio","url":"\/dashboard\/details-assets\/427c7b7b-dca3-470b-b622-97a0333127ce"},"geometry":{"type":"Point","coordinates":[-53.741411491157,-24.732076999282]}},{"type":"Feature","properties":{"municipio":"f9442b6e-1da1-438b-abaf-fec7c03bd6a5","title":"PR - TELEMACO BORBA","name":"PR - TELEMACO BORBA","tipo":"Munic\u00edpio","url":"\/dashboard\/details-assets\/f9442b6e-1da1-438b-abaf-fec7c03bd6a5"},"geometry":{"type":"Point","coordinates":[-50.623122723131,-24.328685969291]}},{"type":"Feature","properties":{"municipio":"1d45ed5f-7b2d-4dcb-a58e-f2e79b130446","title":"PR - SARANDI","name":"PR - SARANDI","tipo":"Munic\u00edpio","url":"\/dashboard\/details-assets\/1d45ed5f-7b2d-4dcb-a58e-f2e79b130446"},"geometry":{"type":"Point","coordinates":[-51.852143,-23.441199]}},{"type":"Feature","properties":{"municipio":"97418c22-747b-4882-b4f2-a05d533b591f","title":"PR - SAO JOSE DOS PINHAIS","name":"PR - SAO JOSE DOS PINHAIS","tipo":"Munic\u00edpio","url":"\/dashboard\/details-assets\/97418c22-747b-4882-b4f2-a05d533b591f"},"geometry":{"type":"Point","coordinates":[-49.200082465667,-25.537701999266]}},{"type":"Feature","properties":{"municipio":"7d5626da-c4df-4876-91d3-fa35b8f8db08","title":"PR - SANTO ANTONIO DO SUDOESTE","name":"PR - SANTO ANTONIO DO SUDOESTE","tipo":"Munic\u00edpio","url":"\/dashboard\/details-assets\/7d5626da-c4df-4876-91d3-fa35b8f8db08"},"geometry":{"type":"Point","coordinates":[-53.7256129,-26.074187]}},{"type":"Feature","properties":{"municipio":"c7726b8f-78ea-41b8-879c-dcb101060ee3","title":"PR - ROLANDIA","name":"PR - ROLANDIA","tipo":"Munic\u00edpio","url":"\/dashboard\/details-assets\/c7726b8f-78ea-41b8-879c-dcb101060ee3"},"geometry":{"type":"Point","coordinates":[-51.4023558,-23.3145627]}},{"type":"Feature","properties":{"municipio":"7a5ce3d0-4fb8-4457-8089-0ee6206b832c","title":"PR - QUATRO BARRAS","name":"PR - QUATRO BARRAS","tipo":"Munic\u00edpio","url":"\/dashboard\/details-assets\/7a5ce3d0-4fb8-4457-8089-0ee6206b832c"},"geometry":{"type":"Point","coordinates":[-49.1051152,-25.3739061]}},{"type":"Feature","properties":{"municipio":"964b0ef6-27c1-4d03-89cd-886df3dd746b","title":"PR - PONTAL DO PARANA","name":"PR - PONTAL DO PARANA","tipo":"Munic\u00edpio","url":"\/dashboard\/details-assets\/964b0ef6-27c1-4d03-89cd-886df3dd746b"},"geometry":{"type":"Point","coordinates":[-48.6092863,-25.6474394]}},{"type":"Feature","properties":{"municipio":"5d4e770a-c551-49f5-b94d-cde834baf5c5","title":"PR - PONTA GROSSA","name":"PR - PONTA GROSSA","tipo":"Munic\u00edpio","url":"\/dashboard\/details-assets\/5d4e770a-c551-49f5-b94d-cde834baf5c5"},"geometry":{"type":"Point","coordinates":[-50.3492857,-25.1469571]}},{"type":"Feature","properties":{"municipio":"43813b95-3cac-49ec-a076-76444d92bbf5","title":"PR - PIRAQUARA","name":"PR - PIRAQUARA","tipo":"Munic\u00edpio","url":"\/dashboard\/details-assets\/43813b95-3cac-49ec-a076-76444d92bbf5"},"geometry":{"type":"Point","coordinates":[-49.065305613923,-25.446550355722]}},{"type":"Feature","properties":{"municipio":"5431d590-03c1-4858-9dea-ac734b3731fb","title":"PR - PINHAIS","name":"PR - PINHAIS","tipo":"Munic\u00edpio","url":"\/dashboard\/details-assets\/5431d590-03c1-4858-9dea-ac734b3731fb"},"geometry":{"type":"Point","coordinates":[-49.19919741961,-25.442197887173]}},{"type":"Feature","properties":{"municipio":"86717f92-8d98-4d8f-83a6-0b351d9461c1","title":"PR - PATO BRANCO","name":"PR - PATO BRANCO","tipo":"Munic\u00edpio","url":"\/dashboard\/details-assets\/86717f92-8d98-4d8f-83a6-0b351d9461c1"},"geometry":{"type":"Point","coordinates":[-52.677361997672,-26.229958514251]}},{"type":"Feature","properties":{"municipio":"ba0c9493-ee03-4e8e-82de-5f681ec6d336","title":"PR - PARANAVAI","name":"PR - PARANAVAI","tipo":"Munic\u00edpio","url":"\/dashboard\/details-assets\/ba0c9493-ee03-4e8e-82de-5f681ec6d336"},"geometry":{"type":"Point","coordinates":[-52.462401669956,-23.081879474319]}},{"type":"Feature","properties":{"municipio":"2e5a2c0b-2d79-4b1e-b66f-695b32b2cf90","title":"PR - PARANAGUA","name":"PR - PARANAGUA","tipo":"Munic\u00edpio","url":"\/dashboard\/details-assets\/2e5a2c0b-2d79-4b1e-b66f-695b32b2cf90"},"geometry":{"type":"Point","coordinates":[-48.524732836657,-25.506841499266]}},{"type":"Feature","properties":{"municipio":"a92fcf04-61ce-4b34-a8af-28c514bba73c","title":"PR - PALMEIRA","name":"PR - PALMEIRA","tipo":"Munic\u00edpio","url":"\/dashboard\/details-assets\/a92fcf04-61ce-4b34-a8af-28c514bba73c"},"geometry":{"type":"Point","coordinates":[-50.159001405593,-27.582262069678]}},{"type":"Feature","properties":{"municipio":"ef431454-295d-4a94-9ff2-41e58f4b896e","title":"PR - PALMAS","name":"PR - PALMAS","tipo":"Munic\u00edpio","url":"\/dashboard\/details-assets\/ef431454-295d-4a94-9ff2-41e58f4b896e"},"geometry":{"type":"Point","coordinates":[-51.988773887713,-26.481472514246]}},{"type":"Feature","properties":{"municipio":"dc37882d-bb43-4f41-8acd-26d64181fc4d","title":"PR - PAICANDU","name":"PR - PAICANDU","tipo":"Munic\u00edpio","url":"\/dashboard\/details-assets\/dc37882d-bb43-4f41-8acd-26d64181fc4d"},"geometry":{"type":"Point","coordinates":[-52.052411831567,-23.457698756805]}},{"type":"Feature","properties":{"municipio":"7010c07d-7b41-4323-9712-44641c20273d","title":"PR - MEDIANEIRA","name":"PR - MEDIANEIRA","tipo":"Munic\u00edpio","url":"\/dashboard\/details-assets\/7010c07d-7b41-4323-9712-44641c20273d"},"geometry":{"type":"Point","coordinates":[-54.091782126922,-25.292497499271]}},{"type":"Feature","properties":{"municipio":"bba74832-2841-452e-8716-2fe289843278","title":"PR - MATINHOS","name":"PR - MATINHOS","tipo":"Munic\u00edpio","url":"\/dashboard\/details-assets\/bba74832-2841-452e-8716-2fe289843278"},"geometry":{"type":"Point","coordinates":[-48.533771187765,-25.816409702165]}},{"type":"Feature","properties":{"municipio":"cebf2e1e-2955-45f3-89d0-710c9dd40fe8","title":"PR - MARINGA","name":"PR - MARINGA","tipo":"Munic\u00edpio","url":"\/dashboard\/details-assets\/cebf2e1e-2955-45f3-89d0-710c9dd40fe8"},"geometry":{"type":"Point","coordinates":[-51.939881870252,-23.422279999311]}},{"type":"Feature","properties":{"municipio":"19a99fd7-be74-44ad-a241-4c9194b1645b","title":"PR - MARIALVA","name":"PR - MARIALVA","tipo":"Munic\u00edpio","url":"\/dashboard\/details-assets\/19a99fd7-be74-44ad-a241-4c9194b1645b"},"geometry":{"type":"Point","coordinates":[-51.79805691391,-23.48475853431]}},{"type":"Feature","properties":{"municipio":"2e07529f-0372-4465-9038-48e0b4fc3f03","title":"PR - MARECHAL CANDIDO RONDON","name":"PR - MARECHAL CANDIDO RONDON","tipo":"Munic\u00edpio","url":"\/dashboard\/details-assets\/2e07529f-0372-4465-9038-48e0b4fc3f03"},"geometry":{"type":"Point","coordinates":[-54.060007816453,-24.559254494286]}},{"type":"Feature","properties":{"municipio":"c1aaeb6c-730d-4eae-91c1-6c38b3ee7fe8","title":"PR - MANDAGUARI","name":"PR - MANDAGUARI","tipo":"Munic\u00edpio","url":"\/dashboard\/details-assets\/c1aaeb6c-730d-4eae-91c1-6c38b3ee7fe8"},"geometry":{"type":"Point","coordinates":[-51.687206,-23.5169863]}},{"type":"Feature","properties":{"municipio":"a474417c-c92a-4f10-94a6-74cbccf47768","title":"PR - LONDRINA","name":"PR - LONDRINA","tipo":"Munic\u00edpio","url":"\/dashboard\/details-assets\/a474417c-c92a-4f10-94a6-74cbccf47768"},"geometry":{"type":"Point","coordinates":[-51.162773423878,-23.312155999314]}},{"type":"Feature","properties":{"municipio":"dfc1d660-f554-4c50-9f97-466abf9a0317","title":"PR - LARANJEIRAS DO SUL","name":"PR - LARANJEIRAS DO SUL","tipo":"Munic\u00edpio","url":"\/dashboard\/details-assets\/dfc1d660-f554-4c50-9f97-466abf9a0317"},"geometry":{"type":"Point","coordinates":[-52.408847423264,-25.401681509435]}},{"type":"Feature","properties":{"municipio":"e55ee89d-4984-4846-86a3-84d67589f860","title":"PR - LAPA","name":"PR - LAPA","tipo":"Munic\u00edpio","url":"\/dashboard\/details-assets\/e55ee89d-4984-4846-86a3-84d67589f860"},"geometry":{"type":"Point","coordinates":[-49.718595808425,-25.765102484261]}},{"type":"Feature","properties":{"municipio":"73ca015c-9407-43d0-a46a-79920537567e","title":"PR - IBIPORA","name":"PR - IBIPORA","tipo":"Munic\u00edpio","url":"\/dashboard\/details-assets\/73ca015c-9407-43d0-a46a-79920537567e"},"geometry":{"type":"Point","coordinates":[-51.05803367397,-23.269331474315]}},{"type":"Feature","properties":{"municipio":"0f2b4923-0598-4ffe-bd02-e50489fbda96","title":"PR - GUARAPUAVA","name":"PR - GUARAPUAVA","tipo":"Munic\u00edpio","url":"\/dashboard\/details-assets\/0f2b4923-0598-4ffe-bd02-e50489fbda96"},"geometry":{"type":"Point","coordinates":[-51.463431077675,-25.393591979268]}},{"type":"Feature","properties":{"municipio":"bf54829d-94ad-43d3-b2cd-1090d9de45d0","title":"PR - FRANCISCO BELTRAO","name":"PR - FRANCISCO BELTRAO","tipo":"Munic\u00edpio","url":"\/dashboard\/details-assets\/bf54829d-94ad-43d3-b2cd-1090d9de45d0"},"geometry":{"type":"Point","coordinates":[-53.056135721489,-26.078449999254]}},{"type":"Feature","properties":{"municipio":"c3193fec-0d78-4708-9888-6e8c7fea6560","title":"PR - FOZ DO IGUACU","name":"PR - FOZ DO IGUACU","tipo":"Munic\u00edpio","url":"\/dashboard\/details-assets\/c3193fec-0d78-4708-9888-6e8c7fea6560"},"geometry":{"type":"Point","coordinates":[-54.587102488605,-25.542493278795]}},{"type":"Feature","properties":{"municipio":"35ba76fe-ce3d-43af-bba8-f7668f6e8283","title":"PR - FAZENDA RIO GRANDE","name":"PR - FAZENDA RIO GRANDE","tipo":"Munic\u00edpio","url":"\/dashboard\/details-assets\/35ba76fe-ce3d-43af-bba8-f7668f6e8283"},"geometry":{"type":"Point","coordinates":[-49.323293194712,-25.641400217957]}},{"type":"Feature","properties":{"municipio":"d02298c0-3b90-493e-863d-d872f3751928","title":"PR - DOIS VIZINHOS","name":"PR - DOIS VIZINHOS","tipo":"Munic\u00edpio","url":"\/dashboard\/details-assets\/d02298c0-3b90-493e-863d-d872f3751928"},"geometry":{"type":"Point","coordinates":[-53.054835992435,-25.746010019261]}},{"type":"Feature","properties":{"municipio":"278baaf1-1f9c-4bcb-94e3-3f21726b18ef","title":"PR - CURITIBA","name":"PR - CURITIBA","tipo":"Munic\u00edpio","url":"\/dashboard\/details-assets\/278baaf1-1f9c-4bcb-94e3-3f21726b18ef"},"geometry":{"type":"Point","coordinates":[-49.271847885077,-25.432955999268]}},{"type":"Feature","properties":{"municipio":"fec27b32-eb5e-4201-9382-c6b8d21c81c3","title":"PR - CORNELIO PROCOPIO","name":"PR - CORNELIO PROCOPIO","tipo":"Munic\u00edpio","url":"\/dashboard\/details-assets\/fec27b32-eb5e-4201-9382-c6b8d21c81c3"},"geometry":{"type":"Point","coordinates":[-50.651484478336,-23.183257499317]}},{"type":"Feature","properties":{"municipio":"54c76927-2217-4fe1-82cd-1925bff8bcd0","title":"PR - COLOMBO","name":"PR - COLOMBO","tipo":"Munic\u00edpio","url":"\/dashboard\/details-assets\/54c76927-2217-4fe1-82cd-1925bff8bcd0"},"geometry":{"type":"Point","coordinates":[-49.227437977273,-25.294340293807]}},{"type":"Feature","properties":{"municipio":"f0a5e499-b42e-4f8c-9bcf-a6f15e48ea83","title":"PR - CIANORTE","name":"PR - CIANORTE","tipo":"Munic\u00edpio","url":"\/dashboard\/details-assets\/f0a5e499-b42e-4f8c-9bcf-a6f15e48ea83"},"geometry":{"type":"Point","coordinates":[-52.609150890556,-23.653813152134]}},{"type":"Feature","properties":{"municipio":"5f42a099-95ae-4474-bf45-c6dc80e317eb","title":"PR - CASTRO","name":"PR - CASTRO","tipo":"Munic\u00edpio","url":"\/dashboard\/details-assets\/5f42a099-95ae-4474-bf45-c6dc80e317eb"},"geometry":{"type":"Point","coordinates":[-50.002811127761,-24.795417499281]}},{"type":"Feature","properties":{"municipio":"b2ff5b73-4653-4b83-ac6c-ac7a69fb404e","title":"PR - CASCAVEL","name":"PR - CASCAVEL","tipo":"Munic\u00edpio","url":"\/dashboard\/details-assets\/b2ff5b73-4653-4b83-ac6c-ac7a69fb404e"},"geometry":{"type":"Point","coordinates":[-53.459722181986,-24.953797499278]}},{"type":"Feature","properties":{"municipio":"3cdb45ed-caa2-4866-a656-f80f6671c0f5","title":"PR - CAMPO MOURAO","name":"PR - CAMPO MOURAO","tipo":"Munic\u00edpio","url":"\/dashboard\/details-assets\/3cdb45ed-caa2-4866-a656-f80f6671c0f5"},"geometry":{"type":"Point","coordinates":[-52.381115085565,-24.041223196017]}},{"type":"Feature","properties":{"municipio":"f5d8c13b-44dd-4386-a460-e3a1b83e09bc","title":"PR - CAMPO MAGRO","name":"PR - CAMPO MAGRO","tipo":"Munic\u00edpio","url":"\/dashboard\/details-assets\/f5d8c13b-44dd-4386-a460-e3a1b83e09bc"},"geometry":{"type":"Point","coordinates":[-49.42766496799,-25.367956499269]}},{"type":"Feature","properties":{"municipio":"bd7370b6-e3df-4337-bd86-20d16389ecf1","title":"PR - CAMPO LARGO","name":"PR - CAMPO LARGO","tipo":"Munic\u00edpio","url":"\/dashboard\/details-assets\/bd7370b6-e3df-4337-bd86-20d16389ecf1"},"geometry":{"type":"Point","coordinates":[-49.528841450336,-25.459490499267]}},{"type":"Feature","properties":{"municipio":"d3992352-7ae4-452b-9158-687bfa89563d","title":"PR - CAMPINA GRANDE DO SUL","name":"PR - CAMPINA GRANDE DO SUL","tipo":"Munic\u00edpio","url":"\/dashboard\/details-assets\/d3992352-7ae4-452b-9158-687bfa89563d"},"geometry":{"type":"Point","coordinates":[-49.053465872357,-25.30324750427]}},{"type":"Feature","properties":{"municipio":"ef182c2f-58ec-4d98-b0e7-7205457061ac","title":"PR - CAMBE","name":"PR - CAMBE","tipo":"Munic\u00edpio","url":"\/dashboard\/details-assets\/ef182c2f-58ec-4d98-b0e7-7205457061ac"},"geometry":{"type":"Point","coordinates":[-51.277728442331,-23.281631999314]}},{"type":"Feature","properties":{"municipio":"3c3d1dd9-dfc8-4fcd-ae92-8bf051b59759","title":"PR - ARAUCARIA","name":"PR - ARAUCARIA","tipo":"Munic\u00edpio","url":"\/dashboard\/details-assets\/3c3d1dd9-dfc8-4fcd-ae92-8bf051b59759"},"geometry":{"type":"Point","coordinates":[-49.401939696709,-25.591644999264]}},{"type":"Feature","properties":{"municipio":"d07c4fb8-b26c-49df-8028-b82e5c0262dd","title":"PR - ARAPONGAS","name":"PR - ARAPONGAS","tipo":"Munic\u00edpio","url":"\/dashboard\/details-assets\/d07c4fb8-b26c-49df-8028-b82e5c0262dd"},"geometry":{"type":"Point","coordinates":[-51.438279734668,-23.413516531303]}},{"type":"Feature","properties":{"municipio":"7e30dfc2-0162-4f52-9115-9d407169c30f","title":"PR - APUCARANA","name":"PR - APUCARANA","tipo":"Munic\u00edpio","url":"\/dashboard\/details-assets\/7e30dfc2-0162-4f52-9115-9d407169c30f"},"geometry":{"type":"Point","coordinates":[-51.459985142359,-23.551592984308]}},{"type":"Feature","properties":{"municipio":"01925eea-1f55-47c9-9410-9aed51c68115","title":"PR - ALMIRANTE TAMANDARE","name":"PR - ALMIRANTE TAMANDARE","tipo":"Munic\u00edpio","url":"\/dashboard\/details-assets\/01925eea-1f55-47c9-9410-9aed51c68115"},"geometry":{"type":"Point","coordinates":[-49.300319818404,-25.313377601546]}},{"type":"Feature","properties":{"municipio":"f8d9ceea-95f7-4f6d-b032-b1c7c885b283","title":"PI - TERESINA","name":"PI - TERESINA","tipo":"Munic\u00edpio","url":"\/dashboard\/details-assets\/f8d9ceea-95f7-4f6d-b032-b1c7c885b283"},"geometry":{"type":"Point","coordinates":[-42.805270458223,-5.0863419521548]}},{"type":"Feature","properties":{"municipio":"1eca4808-ae90-4f16-a788-1b09dcd24162","title":"PI - PICOS","name":"PI - PICOS","tipo":"Munic\u00edpio","url":"\/dashboard\/details-assets\/1eca4808-ae90-4f16-a788-1b09dcd24162"},"geometry":{"type":"Point","coordinates":[-41.468826714668,-7.0813739119682]}},{"type":"Feature","properties":{"municipio":"e0598d22-d227-4036-9a4f-98c699820465","title":"PI - PARNAIBA","name":"PI - PARNAIBA","tipo":"Munic\u00edpio","url":"\/dashboard\/details-assets\/e0598d22-d227-4036-9a4f-98c699820465"},"geometry":{"type":"Point","coordinates":[-41.778170592025,-2.9033601444133]}},{"type":"Feature","properties":{"municipio":"9201d257-7929-4797-983d-e0be28c71b3e","title":"PI - FLORIANO","name":"PI - FLORIANO","tipo":"Munic\u00edpio","url":"\/dashboard\/details-assets\/9201d257-7929-4797-983d-e0be28c71b3e"},"geometry":{"type":"Point","coordinates":[-43.020644738326,-6.7696724335652]}},{"type":"Feature","properties":{"municipio":"964ea80e-6dc3-47e6-ada5-07610d022212","title":"PE - SAO LOURENCO DA MATA","name":"PE - SAO LOURENCO DA MATA","tipo":"Munic\u00edpio","url":"\/dashboard\/details-assets\/964ea80e-6dc3-47e6-ada5-07610d022212"},"geometry":{"type":"Point","coordinates":[-35.041277539321,-7.9959379997397]}},{"type":"Feature","properties":{"municipio":"f868c282-60b6-46cf-96d9-5202610b6631","title":"PE - RECIFE","name":"PE - RECIFE","tipo":"Munic\u00edpio","url":"\/dashboard\/details-assets\/f868c282-60b6-46cf-96d9-5202610b6631"},"geometry":{"type":"Point","coordinates":[-34.888941944578,-8.06276248279]}},{"type":"Feature","properties":{"municipio":"4492c347-540b-403f-b8d3-00f34155afdd","title":"PE - PETROLINA","name":"PE - PETROLINA","tipo":"Munic\u00edpio","url":"\/dashboard\/details-assets\/4492c347-540b-403f-b8d3-00f34155afdd"},"geometry":{"type":"Point","coordinates":[-40.499999334652,-9.3973755146956]}},{"type":"Feature","properties":{"municipio":"7f8e6538-81d7-4c2d-b303-67abe59596b9","title":"PE - PAULISTA","name":"PE - PAULISTA","tipo":"Munic\u00edpio","url":"\/dashboard\/details-assets\/7f8e6538-81d7-4c2d-b303-67abe59596b9"},"geometry":{"type":"Point","coordinates":[-37.621055673987,-6.5940615795466]}},{"type":"Feature","properties":{"municipio":"0d939130-02e2-44f7-b860-cad70d24bf8d","title":"PE - OURICURI","name":"PE - OURICURI","tipo":"Munic\u00edpio","url":"\/dashboard\/details-assets\/0d939130-02e2-44f7-b860-cad70d24bf8d"},"geometry":{"type":"Point","coordinates":[-40.081462576737,-7.8831519747433]}},{"type":"Feature","properties":{"municipio":"ff6b3e29-d4cd-4259-9da8-eeadde7b70aa","title":"PE - OLINDA","name":"PE - OLINDA","tipo":"Munic\u00edpio","url":"\/dashboard\/details-assets\/ff6b3e29-d4cd-4259-9da8-eeadde7b70aa"},"geometry":{"type":"Point","coordinates":[-34.861310389824,-7.9926600750627]}},{"type":"Feature","properties":{"municipio":"414d0e17-a779-4a9e-9bfd-8d1c6cee1425","title":"PE - JABOATAO DOS GUARARAPES","name":"PE - JABOATAO DOS GUARARAPES","tipo":"Munic\u00edpio","url":"\/dashboard\/details-assets\/414d0e17-a779-4a9e-9bfd-8d1c6cee1425"},"geometry":{"type":"Point","coordinates":[-34.92117346726,-8.1653914670918]}},{"type":"Feature","properties":{"municipio":"9f0925ee-6da0-47de-966d-882da4bec3c3","title":"PE - GARANHUNS","name":"PE - GARANHUNS","tipo":"Munic\u00edpio","url":"\/dashboard\/details-assets\/9f0925ee-6da0-47de-966d-882da4bec3c3"},"geometry":{"type":"Point","coordinates":[-36.4930502821,-8.8889055297116]}},{"type":"Feature","properties":{"municipio":"9aa46040-038e-4a0c-83ac-3e1ad91ee08e","title":"PE - CARUARU","name":"PE - CARUARU","tipo":"Munic\u00edpio","url":"\/dashboard\/details-assets\/9aa46040-038e-4a0c-83ac-3e1ad91ee08e"},"geometry":{"type":"Point","coordinates":[-35.967073360053,-8.2858979997306]}},{"type":"Feature","properties":{"municipio":"e2b516b4-bc5d-447f-ae8b-6e694c75d231","title":"PE - ABREU E LIMA","name":"PE - ABREU E LIMA","tipo":"Munic\u00edpio","url":"\/dashboard\/details-assets\/e2b516b4-bc5d-447f-ae8b-6e694c75d231"},"geometry":{"type":"Point","coordinates":[-34.89913058473,-7.9044489897426]}},{"type":"Feature","properties":{"municipio":"539a9888-2697-4c1d-a6da-7c88e8e73410","title":"PB - SOUSA","name":"PB - SOUSA","tipo":"Munic\u00edpio","url":"\/dashboard\/details-assets\/539a9888-2697-4c1d-a6da-7c88e8e73410"},"geometry":{"type":"Point","coordinates":[-38.229605080601,-6.763378004779]}},{"type":"Feature","properties":{"municipio":"636caaea-0915-4970-a1cc-2d97f196d851","title":"PB - PATOS","name":"PB - PATOS","tipo":"Munic\u00edpio","url":"\/dashboard\/details-assets\/636caaea-0915-4970-a1cc-2d97f196d851"},"geometry":{"type":"Point","coordinates":[-37.276913337293,-7.0244916679899]}},{"type":"Feature","properties":{"municipio":"fe60f65d-83cc-46a6-ad05-4e61d90e9694","title":"PB - JOAO PESSOA","name":"PB - JOAO PESSOA","tipo":"Munic\u00edpio","url":"\/dashboard\/details-assets\/fe60f65d-83cc-46a6-ad05-4e61d90e9694"},"geometry":{"type":"Point","coordinates":[-34.873384813539,-7.1493820197667]}},{"type":"Feature","properties":{"municipio":"e5305361-c2bf-4709-ac8c-d86b58f30506","title":"PB - CAMPINA GRANDE","name":"PB - CAMPINA GRANDE","tipo":"Munic\u00edpio","url":"\/dashboard\/details-assets\/e5305361-c2bf-4709-ac8c-d86b58f30506"},"geometry":{"type":"Point","coordinates":[-35.883859114782,-7.2214970397644]}},{"type":"Feature","properties":{"municipio":"a1bc3285-9b8a-43d5-9e57-4fb4d12f5bd9","title":"PB - CAJAZEIRAS","name":"PB - CAJAZEIRAS","tipo":"Munic\u00edpio","url":"\/dashboard\/details-assets\/a1bc3285-9b8a-43d5-9e57-4fb4d12f5bd9"},"geometry":{"type":"Point","coordinates":[-38.560530371841,-6.890464499775]}},{"type":"Feature","properties":{"municipio":"01f206f6-6f81-4e6c-9b47-ff7545dd9715","title":"PA - XINGUARA","name":"PA - XINGUARA","tipo":"Munic\u00edpio","url":"\/dashboard\/details-assets\/01f206f6-6f81-4e6c-9b47-ff7545dd9715"},"geometry":{"type":"Point","coordinates":[-49.942700584375,-7.1015128269142]}},{"type":"Feature","properties":{"municipio":"8d7fbcdb-e2bf-42a5-9e54-4717d963ff84","title":"PA - TOME-ACU","name":"PA - TOME-ACU","tipo":"Munic\u00edpio","url":"\/dashboard\/details-assets\/8d7fbcdb-e2bf-42a5-9e54-4717d963ff84"},"geometry":{"type":"Point","coordinates":[-48.146896586572,-2.4193668551876]}},{"type":"Feature","properties":{"municipio":"2d96fa9e-d7ce-4d5b-9982-5925c8505b66","title":"PA - TUCURUI","name":"PA - TUCURUI","tipo":"Munic\u00edpio","url":"\/dashboard\/details-assets\/2d96fa9e-d7ce-4d5b-9982-5925c8505b66"},"geometry":{"type":"Point","coordinates":[-49.667184367225,-3.7668890841878]}},{"type":"Feature","properties":{"municipio":"0b71619a-c017-4110-a3d8-45eee6fa9971","title":"PA - SAO MIGUEL DO GUAMA","name":"PA - SAO MIGUEL DO GUAMA","tipo":"Munic\u00edpio","url":"\/dashboard\/details-assets\/0b71619a-c017-4110-a3d8-45eee6fa9971"},"geometry":{"type":"Point","coordinates":[-47.482408944489,-1.6171359144372]}},{"type":"Feature","properties":{"municipio":"859366fc-d5ea-4fd9-a5be-7037b256c213","title":"PA - SANTAREM","name":"PA - SANTAREM","tipo":"Munic\u00edpio","url":"\/dashboard\/details-assets\/859366fc-d5ea-4fd9-a5be-7037b256c213"},"geometry":{"type":"Point","coordinates":[-54.718570167271,-2.4362133299197]}},{"type":"Feature","properties":{"municipio":"671f5db2-a3f3-4d22-8973-5ee32e5ba66b","title":"PA - SANTA ISABEL DO PARA","name":"PA - SANTA ISABEL DO PARA","tipo":"Munic\u00edpio","url":"\/dashboard\/details-assets\/671f5db2-a3f3-4d22-8973-5ee32e5ba66b"},"geometry":{"type":"Point","coordinates":[-48.163059940953,-1.2973959012487]}},{"type":"Feature","properties":{"municipio":"94d21bf4-25c7-4b16-9c02-c053d51075f2","title":"PA - SALINOPOLIS","name":"PA - SALINOPOLIS","tipo":"Munic\u00edpio","url":"\/dashboard\/details-assets\/94d21bf4-25c7-4b16-9c02-c053d51075f2"},"geometry":{"type":"Point","coordinates":[-47.353120263154,-0.62363799997943]}},{"type":"Feature","properties":{"municipio":"dbe55974-bbb0-4ba9-af58-00eff711490a","title":"PA - REDENCAO","name":"PA - REDENCAO","tipo":"Munic\u00edpio","url":"\/dashboard\/details-assets\/dbe55974-bbb0-4ba9-af58-00eff711490a"},"geometry":{"type":"Point","coordinates":[-50.029641825509,-8.0276044997387]}},{"type":"Feature","properties":{"municipio":"e9987314-94d6-4110-b9c3-440bec5b3b8b","title":"PA - PRAINHA","name":"PA - PRAINHA","tipo":"Munic\u00edpio","url":"\/dashboard\/details-assets\/e9987314-94d6-4110-b9c3-440bec5b3b8b"},"geometry":{"type":"Point","coordinates":[-53.48181394079,-1.8056944999405]}},{"type":"Feature","properties":{"municipio":"dfca71d4-cb8f-4b3f-aa40-39bdc8bfc0f4","title":"PA - PICARRA","name":"PA - PICARRA","tipo":"Munic\u00edpio","url":"\/dashboard\/details-assets\/dfca71d4-cb8f-4b3f-aa40-39bdc8bfc0f4"},"geometry":{"type":"Point","coordinates":[-49.2988747,-6.5518908]}},{"type":"Feature","properties":{"municipio":"14806a34-bbb9-45b9-a2ba-c4b30d3c5ee8","title":"PA - PARAUAPEBAS","name":"PA - PARAUAPEBAS","tipo":"Munic\u00edpio","url":"\/dashboard\/details-assets\/14806a34-bbb9-45b9-a2ba-c4b30d3c5ee8"},"geometry":{"type":"Point","coordinates":[-49.900780634297,-6.0727298874331]}},