{"type":"FeatureCollection","features":[{"type":"Feature","properties":{"municipio":"8f75de01-c099-49b9-941e-8460e877e58d","title":"TO - PALMAS","name":"TO - PALMAS","tipo":"Munic\u00edpio","url":"\/dashboard\/details-assets\/8f75de01-c099-49b9-941e-8460e877e58d"},"geometry":{"type":"Point","coordinates":[-48.317035914063,-10.230299313278]}},{"type":"Feature","properties":{"municipio":"52fc8d5b-75ab-441b-905a-4ba6f3d04fb1","title":"TO - ARAGUAINA","name":"TO - ARAGUAINA","tipo":"Munic\u00edpio","url":"\/dashboard\/details-assets\/52fc8d5b-75ab-441b-905a-4ba6f3d04fb1"},"geometry":{"type":"Point","coordinates":[-48.2874074,-7.2109414]}},{"type":"Feature","properties":{"municipio":"99558f96-f385-49d8-ad2e-dba2b3cbfa37","title":"SE - ARACAJU","name":"SE - ARACAJU","tipo":"Munic\u00edpio","url":"\/dashboard\/details-assets\/99558f96-f385-49d8-ad2e-dba2b3cbfa37"},"geometry":{"type":"Point","coordinates":[-37.0730823,-10.9472468]}},{"type":"Feature","properties":{"municipio":"12667e6c-e308-4b7a-b53b-5593e82e31ac","title":"SE - SAO CRISTOVAO","name":"SE - SAO CRISTOVAO","tipo":"Munic\u00edpio","url":"\/dashboard\/details-assets\/12667e6c-e308-4b7a-b53b-5593e82e31ac"},"geometry":{"type":"Point","coordinates":[-37.2059339,-11.0122362]}},{"type":"Feature","properties":{"municipio":"26d31e77-3de3-4e95-979a-31c896da32ea","title":"SP - SAO PAULO","name":"SP - SAO PAULO","tipo":"Munic\u00edpio","url":"\/dashboard\/details-assets\/26d31e77-3de3-4e95-979a-31c896da32ea"},"geometry":{"type":"Point","coordinates":[-46.570383182113,-23.567386499308]}},{"type":"Feature","properties":{"municipio":"1b7af946-22e8-4e93-99de-bbafc3a12fb4","title":"SP - SAO CARLOS","name":"SP - SAO CARLOS","tipo":"Munic\u00edpio","url":"\/dashboard\/details-assets\/1b7af946-22e8-4e93-99de-bbafc3a12fb4"},"geometry":{"type":"Point","coordinates":[-53.017394273321,-27.078635077131]}},{"type":"Feature","properties":{"municipio":"a6df4798-5cbb-4100-81e6-d4a8a5ca7572","title":"SP - SANTO ANDRE","name":"SP - SANTO ANDRE","tipo":"Munic\u00edpio","url":"\/dashboard\/details-assets\/a6df4798-5cbb-4100-81e6-d4a8a5ca7572"},"geometry":{"type":"Point","coordinates":[-46.530874257629,-23.657509999306]}},{"type":"Feature","properties":{"municipio":"c247835d-9e8c-4f0d-80f7-8cd46542e0ee","title":"SP - GUARULHOS","name":"SP - GUARULHOS","tipo":"Munic\u00edpio","url":"\/dashboard\/details-assets\/c247835d-9e8c-4f0d-80f7-8cd46542e0ee"},"geometry":{"type":"Point","coordinates":[-46.531084085661,-23.46850599931]}},{"type":"Feature","properties":{"municipio":"2fc1e797-e770-49e6-9c37-aaea55bfb9a2","title":"SC - FLORIANOPOLIS","name":"SC - FLORIANOPOLIS","tipo":"Munic\u00edpio","url":"\/dashboard\/details-assets\/2fc1e797-e770-49e6-9c37-aaea55bfb9a2"},"geometry":{"type":"Point","coordinates":[-48.547637378193,-27.587795547775]}},{"type":"Feature","properties":{"municipio":"5b6c7883-22f8-462e-b77d-e5991884b2e6","title":"SC - CHAPECO","name":"SC - CHAPECO","tipo":"Munic\u00edpio","url":"\/dashboard\/details-assets\/5b6c7883-22f8-462e-b77d-e5991884b2e6"},"geometry":{"type":"Point","coordinates":[-52.615699,-27.1009343]}},{"type":"Feature","properties":{"municipio":"5792adbc-41ac-4f63-97e7-d9d9a32e4568","title":"RR - BOA VISTA","name":"RR - BOA VISTA","tipo":"Munic\u00edpio","url":"\/dashboard\/details-assets\/5792adbc-41ac-4f63-97e7-d9d9a32e4568"},"geometry":{"type":"Point","coordinates":[-60.670532672965,2.8166819190116]}},{"type":"Feature","properties":{"municipio":"a083f518-c822-42c8-91b8-8ac8ebb500af","title":"RO - PORTO VELHO","name":"RO - PORTO VELHO","tipo":"Munic\u00edpio","url":"\/dashboard\/details-assets\/a083f518-c822-42c8-91b8-8ac8ebb500af"},"geometry":{"type":"Point","coordinates":[-63.831445654361,-8.7688917897153]}},{"type":"Feature","properties":{"municipio":"92464b1f-d1a6-4882-95fc-5bf183fe3c7b","title":"RS - SANTA MARIA","name":"RS - SANTA MARIA","tipo":"Munic\u00edpio","url":"\/dashboard\/details-assets\/92464b1f-d1a6-4882-95fc-5bf183fe3c7b"},"geometry":{"type":"Point","coordinates":[-53.809876,-29.690439]}},{"type":"Feature","properties":{"municipio":"bdf6b4d4-1a46-4986-ac47-69fdba6b8ad1","title":"RS - RIO GRANDE","name":"RS - RIO GRANDE","tipo":"Munic\u00edpio","url":"\/dashboard\/details-assets\/bdf6b4d4-1a46-4986-ac47-69fdba6b8ad1"},"geometry":{"type":"Point","coordinates":[-52.086769699114,-32.050445791803]}},{"type":"Feature","properties":{"municipio":"5cb5e39b-60bb-43a6-b922-b720e2faf417","title":"RS - PORTO ALEGRE","name":"RS - PORTO ALEGRE","tipo":"Munic\u00edpio","url":"\/dashboard\/details-assets\/5cb5e39b-60bb-43a6-b922-b720e2faf417"},"geometry":{"type":"Point","coordinates":[-51.2176584,-30.0346471]}},{"type":"Feature","properties":{"municipio":"c5e18cf8-7288-47a4-ac8f-66403d5b02fe","title":"RS - PELOTAS","name":"RS - PELOTAS","tipo":"Munic\u00edpio","url":"\/dashboard\/details-assets\/c5e18cf8-7288-47a4-ac8f-66403d5b02fe"},"geometry":{"type":"Point","coordinates":[-52.34432,-31.74996529663]}},{"type":"Feature","properties":{"municipio":"c24af52e-efdd-4e50-8de1-8491c4463b28","title":"RN - NATAL","name":"RN - NATAL","tipo":"Munic\u00edpio","url":"\/dashboard\/details-assets\/c24af52e-efdd-4e50-8de1-8491c4463b28"},"geometry":{"type":"Point","coordinates":[-35.215862788086,-5.7987202553601]}},{"type":"Feature","properties":{"municipio":"11d157d9-e88b-4862-af71-84a12be27365","title":"RJ - SEROPEDICA","name":"RJ - SEROPEDICA","tipo":"Munic\u00edpio","url":"\/dashboard\/details-assets\/11d157d9-e88b-4862-af71-84a12be27365"},"geometry":{"type":"Point","coordinates":[-43.6950804,-22.7691646]}},{"type":"Feature","properties":{"municipio":"6951d92a-b891-4812-b49c-04251428159a","title":"RN - MOSSORO","name":"RN - MOSSORO","tipo":"Munic\u00edpio","url":"\/dashboard\/details-assets\/6951d92a-b891-4812-b49c-04251428159a"},"geometry":{"type":"Point","coordinates":[-37.356874136704,-5.1938012345383]}},{"type":"Feature","properties":{"municipio":"2074ca89-35a8-4573-be17-06198fd4792e","title":"RJ - RIO DE JANEIRO","name":"RJ - RIO DE JANEIRO","tipo":"Munic\u00edpio","url":"\/dashboard\/details-assets\/2074ca89-35a8-4573-be17-06198fd4792e"},"geometry":{"type":"Point","coordinates":[-43.16743575,-22.836157221111]}},{"type":"Feature","properties":{"municipio":"990eace6-37e5-4b76-bf33-c39d319b02a2","title":"RJ - NITEROI","name":"RJ - NITEROI","tipo":"Munic\u00edpio","url":"\/dashboard\/details-assets\/990eace6-37e5-4b76-bf33-c39d319b02a2"},"geometry":{"type":"Point","coordinates":[-43.1152211,-22.8858975]}},{"type":"Feature","properties":{"municipio":"00dd027f-ca9a-4d7e-a795-ab2b30e48424","title":"PI - TERESINA","name":"PI - TERESINA","tipo":"Munic\u00edpio","url":"\/dashboard\/details-assets\/00dd027f-ca9a-4d7e-a795-ab2b30e48424"},"geometry":{"type":"Point","coordinates":[-42.805270458223,-5.0863419521548]}},{"type":"Feature","properties":{"municipio":"a58b510f-7c38-4967-b77e-daaa0f0f6ab5","title":"PE - RECIFE","name":"PE - RECIFE","tipo":"Munic\u00edpio","url":"\/dashboard\/details-assets\/a58b510f-7c38-4967-b77e-daaa0f0f6ab5"},"geometry":{"type":"Point","coordinates":[-34.888941944578,-8.06276248279]}},{"type":"Feature","properties":{"municipio":"87fb1fd4-4d1c-42e3-bc1b-76a7593e34d4","title":"PE - PETROLINA","name":"PE - PETROLINA","tipo":"Munic\u00edpio","url":"\/dashboard\/details-assets\/87fb1fd4-4d1c-42e3-bc1b-76a7593e34d4"},"geometry":{"type":"Point","coordinates":[-40.499999334652,-9.3973755146956]}},{"type":"Feature","properties":{"municipio":"e25fd9da-8585-4ade-a06d-9d19ded6bce2","title":"PR - LONDRINA","name":"PR - LONDRINA","tipo":"Munic\u00edpio","url":"\/dashboard\/details-assets\/e25fd9da-8585-4ade-a06d-9d19ded6bce2"},"geometry":{"type":"Point","coordinates":[-51.162773423878,-23.312155999314]}},{"type":"Feature","properties":{"municipio":"4dd82c36-1861-414f-8b02-c658e4c6cc48","title":"PR - CURITIBA","name":"PR - CURITIBA","tipo":"Munic\u00edpio","url":"\/dashboard\/details-assets\/4dd82c36-1861-414f-8b02-c658e4c6cc48"},"geometry":{"type":"Point","coordinates":[-49.271847885077,-25.432955999268]}},{"type":"Feature","properties":{"municipio":"d5317b36-d86e-4ddf-b3bc-1660ae5d9794","title":"PB - JOAO PESSOA","name":"PB - JOAO PESSOA","tipo":"Munic\u00edpio","url":"\/dashboard\/details-assets\/d5317b36-d86e-4ddf-b3bc-1660ae5d9794"},"geometry":{"type":"Point","coordinates":[-34.873384813539,-7.1493820197667]}},{"type":"Feature","properties":{"municipio":"32ca609a-19e7-4638-a724-84b3aae778c5","title":"PB - CAMPINA GRANDE","name":"PB - CAMPINA GRANDE","tipo":"Munic\u00edpio","url":"\/dashboard\/details-assets\/32ca609a-19e7-4638-a724-84b3aae778c5"},"geometry":{"type":"Point","coordinates":[-35.883859114782,-7.2214970397644]}},{"type":"Feature","properties":{"municipio":"d096747d-603b-49eb-837e-ea0667facc23","title":"PA - MARABA","name":"PA - MARABA","tipo":"Munic\u00edpio","url":"\/dashboard\/details-assets\/d096747d-603b-49eb-837e-ea0667facc23"},"geometry":{"type":"Point","coordinates":[-49.142025333407,-5.3526057629547]}},{"type":"Feature","properties":{"municipio":"0aa60d70-5f38-4588-a51a-bc152e8ce43a","title":"PA - BELEM","name":"PA - BELEM","tipo":"Munic\u00edpio","url":"\/dashboard\/details-assets\/0aa60d70-5f38-4588-a51a-bc152e8ce43a"},"geometry":{"type":"Point","coordinates":[-48.487825687488,-1.4598449999519]}},{"type":"Feature","properties":{"municipio":"79f903ae-83bc-4a73-9dcd-8cbf6f5a0976","title":"MG - VICOSA","name":"MG - VICOSA","tipo":"Munic\u00edpio","url":"\/dashboard\/details-assets\/79f903ae-83bc-4a73-9dcd-8cbf6f5a0976"},"geometry":{"type":"Point","coordinates":[-42.879477375671,-20.752072006403]}},{"type":"Feature","properties":{"municipio":"283c2fe6-5f61-4964-9197-ede94279a20d","title":"MG - UBERABA","name":"MG - UBERABA","tipo":"Munic\u00edpio","url":"\/dashboard\/details-assets\/283c2fe6-5f61-4964-9197-ede94279a20d"},"geometry":{"type":"Point","coordinates":[-47.983624895574,-19.713534606502]}},{"type":"Feature","properties":{"municipio":"fc81c727-bea7-4ce6-bc7b-51356a71bbe7","title":"MG - UBERLANDIA","name":"MG - UBERLANDIA","tipo":"Munic\u00edpio","url":"\/dashboard\/details-assets\/fc81c727-bea7-4ce6-bc7b-51356a71bbe7"},"geometry":{"type":"Point","coordinates":[-48.277950184735,-18.918998608726]}},{"type":"Feature","properties":{"municipio":"0770fb88-b984-40f8-8cdc-aa727ad3f80a","title":"MG - OURO PRETO","name":"MG - OURO PRETO","tipo":"Munic\u00edpio","url":"\/dashboard\/details-assets\/0770fb88-b984-40f8-8cdc-aa727ad3f80a"},"geometry":{"type":"Point","coordinates":[-43.506447519714,-20.386776367249]}},{"type":"Feature","properties":{"municipio":"56b22f80-d946-4fb0-b1e0-6cc21d4ca83c","title":"MG - MONTES CLAROS","name":"MG - MONTES CLAROS","tipo":"Munic\u00edpio","url":"\/dashboard\/details-assets\/56b22f80-d946-4fb0-b1e0-6cc21d4ca83c"},"geometry":{"type":"Point","coordinates":[-43.865422434383,-16.722706639463]}},{"type":"Feature","properties":{"municipio":"e847892d-a5ed-4b13-98ce-4d73aa9be6a3","title":"MG - LAVRAS","name":"MG - LAVRAS","tipo":"Munic\u00edpio","url":"\/dashboard\/details-assets\/e847892d-a5ed-4b13-98ce-4d73aa9be6a3"},"geometry":{"type":"Point","coordinates":[-44.999931109115,-21.242870236663]}},{"type":"Feature","properties":{"municipio":"b5cd49be-dc59-4e56-9f3e-256963db2511","title":"MG - ITAJUBA","name":"MG - ITAJUBA","tipo":"Munic\u00edpio","url":"\/dashboard\/details-assets\/b5cd49be-dc59-4e56-9f3e-256963db2511"},"geometry":{"type":"Point","coordinates":[-45.464582504504,-22.430600573828]}},{"type":"Feature","properties":{"municipio":"ee2ff0e5-473c-4bc8-aa30-d4044c137e08","title":"MG - JUIZ DE FORA","name":"MG - JUIZ DE FORA","tipo":"Munic\u00edpio","url":"\/dashboard\/details-assets\/ee2ff0e5-473c-4bc8-aa30-d4044c137e08"},"geometry":{"type":"Point","coordinates":[-43.348817272475,-21.760924308024]}},{"type":"Feature","properties":{"municipio":"2280e43d-406f-468b-87a9-18c5d4941891","title":"MG - BELO HORIZONTE","name":"MG - BELO HORIZONTE","tipo":"Munic\u00edpio","url":"\/dashboard\/details-assets\/2280e43d-406f-468b-87a9-18c5d4941891"},"geometry":{"type":"Point","coordinates":[-43.92645317353,-19.93752429317]}},{"type":"Feature","properties":{"municipio":"dee8e464-4213-47c9-ba72-58186cde23b3","title":"MS - DOURADOS","name":"MS - DOURADOS","tipo":"Munic\u00edpio","url":"\/dashboard\/details-assets\/dee8e464-4213-47c9-ba72-58186cde23b3"},"geometry":{"type":"Point","coordinates":[-54.811289122893,-22.227235536238]}},{"type":"Feature","properties":{"municipio":"96cbd0a6-d917-415e-ad6b-227cf600b264","title":"MS - CAMPO GRANDE","name":"MS - CAMPO GRANDE","tipo":"Munic\u00edpio","url":"\/dashboard\/details-assets\/96cbd0a6-d917-415e-ad6b-227cf600b264"},"geometry":{"type":"Point","coordinates":[-54.615743566459,-20.458029987245]}},{"type":"Feature","properties":{"municipio":"5f42b422-2dac-458a-89b6-b489be626cc1","title":"MT - RONDONOPOLIS","name":"MT - RONDONOPOLIS","tipo":"Munic\u00edpio","url":"\/dashboard\/details-assets\/5f42b422-2dac-458a-89b6-b489be626cc1"},"geometry":{"type":"Point","coordinates":[-54.633587040178,-16.470162872986]}},{"type":"Feature","properties":{"municipio":"16f8f781-0211-4b80-8f5e-c0836bbd1aef","title":"MT - CUIABA","name":"MT - CUIABA","tipo":"Munic\u00edpio","url":"\/dashboard\/details-assets\/16f8f781-0211-4b80-8f5e-c0836bbd1aef"},"geometry":{"type":"Point","coordinates":[-56.073252038191,-15.569989012632]}},{"type":"Feature","properties":{"municipio":"e00ea8b3-7755-4187-b1f8-9e36bbfbfb2f","title":"MA - SAO LUIS","name":"MA - SAO LUIS","tipo":"Munic\u00edpio","url":"\/dashboard\/details-assets\/e00ea8b3-7755-4187-b1f8-9e36bbfbfb2f"},"geometry":{"type":"Point","coordinates":[-44.297918564244,-2.531885985]}},{"type":"Feature","properties":{"municipio":"972bcf8d-c0ee-40a7-9106-ce3b28b4de87","title":"GO - JATAI","name":"GO - JATAI","tipo":"Munic\u00edpio","url":"\/dashboard\/details-assets\/972bcf8d-c0ee-40a7-9106-ce3b28b4de87"},"geometry":{"type":"Point","coordinates":[-51.72081803756,-17.886232333288]}},{"type":"Feature","properties":{"municipio":"cae83594-36b6-4170-bb19-5eee429fc364","title":"GO - GOIANIA","name":"GO - GOIANIA","tipo":"Munic\u00edpio","url":"\/dashboard\/details-assets\/cae83594-36b6-4170-bb19-5eee429fc364"},"geometry":{"type":"Point","coordinates":[-49.255814275816,-16.67330977332]}},{"type":"Feature","properties":{"municipio":"ee4029d0-5cb4-4d6f-99af-6816277ca5fa","title":"GO - CATALAO","name":"GO - CATALAO","tipo":"Munic\u00edpio","url":"\/dashboard\/details-assets\/ee4029d0-5cb4-4d6f-99af-6816277ca5fa"},"geometry":{"type":"Point","coordinates":[-47.947703217216,-18.169573362858]}},{"type":"Feature","properties":{"municipio":"e72754db-031f-4217-9c56-532df9be374f","title":"ES - VITORIA","name":"ES - VITORIA","tipo":"Munic\u00edpio","url":"\/dashboard\/details-assets\/e72754db-031f-4217-9c56-532df9be374f"},"geometry":{"type":"Point","coordinates":[-40.322208726727,-20.320153792238]}},{"type":"Feature","properties":{"municipio":"02aa59ba-8ca3-41d4-a26d-1282f8454b18","title":"ES - SAO MATEUS","name":"ES - SAO MATEUS","tipo":"Munic\u00edpio","url":"\/dashboard\/details-assets\/02aa59ba-8ca3-41d4-a26d-1282f8454b18"},"geometry":{"type":"Point","coordinates":[-39.856734,-18.7190705]}},{"type":"Feature","properties":{"municipio":"01817f5e-0da9-4e4c-a859-c05052a00ff7","title":"CE - JUAZEIRO DO NORTE","name":"CE - JUAZEIRO DO NORTE","tipo":"Munic\u00edpio","url":"\/dashboard\/details-assets\/01817f5e-0da9-4e4c-a859-c05052a00ff7"},"geometry":{"type":"Point","coordinates":[-39.316993355614,-7.2107659997647]}},{"type":"Feature","properties":{"municipio":"98d79b58-ffc0-411b-a5b9-07642b468742","title":"DF - BRASILIA","name":"DF - BRASILIA","tipo":"Munic\u00edpio","url":"\/dashboard\/details-assets\/98d79b58-ffc0-411b-a5b9-07642b468742"},"geometry":{"type":"Point","coordinates":[-47.8821658,-15.7942287]}},{"type":"Feature","properties":{"municipio":"a720e806-01d8-4fa9-ab87-6ea74ebbf70d","title":"BA - SALVADOR","name":"BA - SALVADOR","tipo":"Munic\u00edpio","url":"\/dashboard\/details-assets\/a720e806-01d8-4fa9-ab87-6ea74ebbf70d"},"geometry":{"type":"Point","coordinates":[-38.489434291016,-12.990686579299]}},{"type":"Feature","properties":{"municipio":"d6f5165a-b0fa-4b16-a491-4c69b2bc7691","title":"CE - FORTALEZA","name":"CE - FORTALEZA","tipo":"Munic\u00edpio","url":"\/dashboard\/details-assets\/d6f5165a-b0fa-4b16-a491-4c69b2bc7691"},"geometry":{"type":"Point","coordinates":[-38.589927555043,-3.7238050348775]}},{"type":"Feature","properties":{"municipio":"fb327b11-5148-46c4-9f05-b7fde781554c","title":"BA - CRUZ DAS ALMAS","name":"BA - CRUZ DAS ALMAS","tipo":"Munic\u00edpio","url":"\/dashboard\/details-assets\/fb327b11-5148-46c4-9f05-b7fde781554c"},"geometry":{"type":"Point","coordinates":[-39.100736142831,-12.663786212372]}},{"type":"Feature","properties":{"municipio":"391f3919-46ad-45b1-846d-a68b5b7feacb","title":"BA - BARREIRAS","name":"BA - BARREIRAS","tipo":"Munic\u00edpio","url":"\/dashboard\/details-assets\/391f3919-46ad-45b1-846d-a68b5b7feacb"},"geometry":{"type":"Point","coordinates":[-45.004168437028,-12.144924888002]}},{"type":"Feature","properties":{"municipio":"9aa3eb86-3d55-43b8-8a92-183e3afd792f","title":"AM - MANAUS","name":"AM - MANAUS","tipo":"Munic\u00edpio","url":"\/dashboard\/details-assets\/9aa3eb86-3d55-43b8-8a92-183e3afd792f"},"geometry":{"type":"Point","coordinates":[-60.023335181061,-3.1346914910988]}},{"type":"Feature","properties":{"municipio":"bf3a3f20-4082-4b43-9ffc-7de2040d0680","title":"AP - MACAPA","name":"AP - MACAPA","tipo":"Munic\u00edpio","url":"\/dashboard\/details-assets\/bf3a3f20-4082-4b43-9ffc-7de2040d0680"},"geometry":{"type":"Point","coordinates":[-51.057405457036,0.038951009998716]}},{"type":"Feature","properties":{"municipio":"d050d59c-6f46-4563-896c-291a8460fd20","title":"AL - MACEIO","name":"AL - MACEIO","tipo":"Munic\u00edpio","url":"\/dashboard\/details-assets\/d050d59c-6f46-4563-896c-291a8460fd20"},"geometry":{"type":"Point","coordinates":[-35.701629913489,-9.6608221513186]}},{"type":"Feature","properties":{"municipio":"fca891bb-390c-4bac-b39e-a145d1a82770","title":"AL - ARAPIRACA","name":"AL - ARAPIRACA","tipo":"Munic\u00edpio","url":"\/dashboard\/details-assets\/fca891bb-390c-4bac-b39e-a145d1a82770"},"geometry":{"type":"Point","coordinates":[-36.657296506287,-9.7559070103892]}},{"type":"Feature","properties":{"municipio":"b3b36e8e-158e-4e8e-b8de-14463041e6e4","title":"AC - RIO BRANCO","name":"AC - RIO BRANCO","tipo":"Munic\u00edpio","url":"\/dashboard\/details-assets\/b3b36e8e-158e-4e8e-b8de-14463041e6e4"},"geometry":{"type":"Point","coordinates":[-67.8298530625,-9.9734371901641]}}]}