{"type":"FeatureCollection","features":[{"type":"Feature","properties":{"municipio":"3c093a79-f066-486c-9324-e243174cc535","title":"RJ - MACAE","name":"RJ - MACAE","tipo":"Munic\u00edpio","url":"\/dashboard\/details-assets\/3c093a79-f066-486c-9324-e243174cc535"},"geometry":{"type":"Point","coordinates":[-41.7848,-22.3768]}},{"type":"Feature","properties":{"municipio":"787723fd-36e2-4d3e-9ab7-85236941e04a","title":"TO - XAMBIOA","name":"TO - XAMBIOA","tipo":"Munic\u00edpio","url":"\/dashboard\/details-assets\/787723fd-36e2-4d3e-9ab7-85236941e04a"},"geometry":{"type":"Point","coordinates":[-48.532,-6.4141]}},{"type":"Feature","properties":{"municipio":"eabee481-a3e2-4615-8da4-7e412e9217c5","title":"TO - WANDERLANDIA","name":"TO - WANDERLANDIA","tipo":"Munic\u00edpio","url":"\/dashboard\/details-assets\/eabee481-a3e2-4615-8da4-7e412e9217c5"},"geometry":{"type":"Point","coordinates":[-47.9601,-6.85274]}},{"type":"Feature","properties":{"municipio":"4ba6c0b5-cb4d-4e91-a257-e78ea943a0ce","title":"TO - TOCANTINOPOLIS","name":"TO - TOCANTINOPOLIS","tipo":"Munic\u00edpio","url":"\/dashboard\/details-assets\/4ba6c0b5-cb4d-4e91-a257-e78ea943a0ce"},"geometry":{"type":"Point","coordinates":[-47.4224,-6.32447]}},{"type":"Feature","properties":{"municipio":"84ba0d17-5c7d-4101-aba9-05e5a968365b","title":"TO - TALISMA","name":"TO - TALISMA","tipo":"Munic\u00edpio","url":"\/dashboard\/details-assets\/84ba0d17-5c7d-4101-aba9-05e5a968365b"},"geometry":{"type":"Point","coordinates":[-49.0896,-12.7949]}},{"type":"Feature","properties":{"municipio":"febac0bc-1f7e-4fc1-ae77-a9ac4496c9eb","title":"TO - TAGUATINGA","name":"TO - TAGUATINGA","tipo":"Munic\u00edpio","url":"\/dashboard\/details-assets\/febac0bc-1f7e-4fc1-ae77-a9ac4496c9eb"},"geometry":{"type":"Point","coordinates":[-46.437,-12.4026]}},{"type":"Feature","properties":{"municipio":"9aa3b9c8-1e9f-40cc-82fc-fb5582a1f7ad","title":"TO - SITIO NOVO DO TOCANTINS","name":"TO - SITIO NOVO DO TOCANTINS","tipo":"Munic\u00edpio","url":"\/dashboard\/details-assets\/9aa3b9c8-1e9f-40cc-82fc-fb5582a1f7ad"},"geometry":{"type":"Point","coordinates":[-47.6381,-5.6012]}},{"type":"Feature","properties":{"municipio":"2da8a42b-dfeb-4d94-9ca0-cdaa4975c3ed","title":"TO - PORTO NACIONAL","name":"TO - PORTO NACIONAL","tipo":"Munic\u00edpio","url":"\/dashboard\/details-assets\/2da8a42b-dfeb-4d94-9ca0-cdaa4975c3ed"},"geometry":{"type":"Point","coordinates":[-48.408,-10.7027]}},{"type":"Feature","properties":{"municipio":"e7743370-900d-40be-9164-87cb10794653","title":"TO - SANTA FE DO ARAGUAIA","name":"TO - SANTA FE DO ARAGUAIA","tipo":"Munic\u00edpio","url":"\/dashboard\/details-assets\/e7743370-900d-40be-9164-87cb10794653"},"geometry":{"type":"Point","coordinates":[-48.7165,-7.15803]}},{"type":"Feature","properties":{"municipio":"dfbb5534-9473-468c-8f74-64441baebc1f","title":"TO - PIUM","name":"TO - PIUM","tipo":"Munic\u00edpio","url":"\/dashboard\/details-assets\/dfbb5534-9473-468c-8f74-64441baebc1f"},"geometry":{"type":"Point","coordinates":[-49.1876,-10.442]}},{"type":"Feature","properties":{"municipio":"cac03288-9204-4bfe-9140-545dc3ed9ebe","title":"TO - PEIXE","name":"TO - PEIXE","tipo":"Munic\u00edpio","url":"\/dashboard\/details-assets\/cac03288-9204-4bfe-9140-545dc3ed9ebe"},"geometry":{"type":"Point","coordinates":[-48.5395,-12.0254]}},{"type":"Feature","properties":{"municipio":"58ea10cc-d3ac-4d3c-adea-412e95489a63","title":"TO - PEDRO AFONSO","name":"TO - PEDRO AFONSO","tipo":"Munic\u00edpio","url":"\/dashboard\/details-assets\/58ea10cc-d3ac-4d3c-adea-412e95489a63"},"geometry":{"type":"Point","coordinates":[-48.1729,-8.97034]}},{"type":"Feature","properties":{"municipio":"ba656444-4b99-464b-b30a-437961e42311","title":"TO - PARANA","name":"TO - PARANA","tipo":"Munic\u00edpio","url":"\/dashboard\/details-assets\/ba656444-4b99-464b-b30a-437961e42311"},"geometry":{"type":"Point","coordinates":[-47.8734,-12.6167]}},{"type":"Feature","properties":{"municipio":"502246a7-e09f-430f-9ab4-e2fa75432c8c","title":"TO - PALMEIROPOLIS","name":"TO - PALMEIROPOLIS","tipo":"Munic\u00edpio","url":"\/dashboard\/details-assets\/502246a7-e09f-430f-9ab4-e2fa75432c8c"},"geometry":{"type":"Point","coordinates":[-48.4026,-13.0447]}},{"type":"Feature","properties":{"municipio":"b7553416-b4cc-4513-a1e9-a7e823a747ea","title":"TO - PARAISO DO TOCANTINS","name":"TO - PARAISO DO TOCANTINS","tipo":"Munic\u00edpio","url":"\/dashboard\/details-assets\/b7553416-b4cc-4513-a1e9-a7e823a747ea"},"geometry":{"type":"Point","coordinates":[-48.8823,-10.175]}},{"type":"Feature","properties":{"municipio":"f0a8184b-a17a-446c-8106-5ebc9da6d1ef","title":"TO - PALMAS","name":"TO - PALMAS","tipo":"Munic\u00edpio","url":"\/dashboard\/details-assets\/f0a8184b-a17a-446c-8106-5ebc9da6d1ef"},"geometry":{"type":"Point","coordinates":[-48.3558,-10.24]}},{"type":"Feature","properties":{"municipio":"1311e95d-cc08-47f4-ae78-87fc7ead7986","title":"TO - NOVO ACORDO","name":"TO - NOVO ACORDO","tipo":"Munic\u00edpio","url":"\/dashboard\/details-assets\/1311e95d-cc08-47f4-ae78-87fc7ead7986"},"geometry":{"type":"Point","coordinates":[-47.6785,-9.97063]}},{"type":"Feature","properties":{"municipio":"3f176079-f40e-4e05-81fb-3951842aeca2","title":"TO - NATIVIDADE","name":"TO - NATIVIDADE","tipo":"Munic\u00edpio","url":"\/dashboard\/details-assets\/3f176079-f40e-4e05-81fb-3951842aeca2"},"geometry":{"type":"Point","coordinates":[-47.7223,-11.7034]}},{"type":"Feature","properties":{"municipio":"ebe29437-0c49-4cdd-90d8-8e5952afa993","title":"TO - MIRACEMA DO TOCANTINS","name":"TO - MIRACEMA DO TOCANTINS","tipo":"Munic\u00edpio","url":"\/dashboard\/details-assets\/ebe29437-0c49-4cdd-90d8-8e5952afa993"},"geometry":{"type":"Point","coordinates":[-48.393,-9.56556]}},{"type":"Feature","properties":{"municipio":"34eca615-9cb0-4a7e-b7ea-e1bca5e6c2bd","title":"TO - LAJEADO","name":"TO - LAJEADO","tipo":"Munic\u00edpio","url":"\/dashboard\/details-assets\/34eca615-9cb0-4a7e-b7ea-e1bca5e6c2bd"},"geometry":{"type":"Point","coordinates":[-48.3565,-9.74996]}},{"type":"Feature","properties":{"municipio":"e80c2ef3-2aeb-4691-a86a-7721f564bc60","title":"TO - GUARAI","name":"TO - GUARAI","tipo":"Munic\u00edpio","url":"\/dashboard\/details-assets\/e80c2ef3-2aeb-4691-a86a-7721f564bc60"},"geometry":{"type":"Point","coordinates":[-48.5114,-8.83543]}},{"type":"Feature","properties":{"municipio":"029ef758-599d-4ad6-9e37-e3b6e98edeee","title":"TO - GURUPI","name":"TO - GURUPI","tipo":"Munic\u00edpio","url":"\/dashboard\/details-assets\/029ef758-599d-4ad6-9e37-e3b6e98edeee"},"geometry":{"type":"Point","coordinates":[-49.068,-11.7279]}},{"type":"Feature","properties":{"municipio":"4c3698fa-da6f-430b-a043-f806adf3734d","title":"TO - FORMOSO DO ARAGUAIA","name":"TO - FORMOSO DO ARAGUAIA","tipo":"Munic\u00edpio","url":"\/dashboard\/details-assets\/4c3698fa-da6f-430b-a043-f806adf3734d"},"geometry":{"type":"Point","coordinates":[-49.5316,-11.7976]}},{"type":"Feature","properties":{"municipio":"1ce9088c-5446-477a-a51e-0a4484ecfb12","title":"TO - DIANOPOLIS","name":"TO - DIANOPOLIS","tipo":"Munic\u00edpio","url":"\/dashboard\/details-assets\/1ce9088c-5446-477a-a51e-0a4484ecfb12"},"geometry":{"type":"Point","coordinates":[-46.8198,-11.624]}},{"type":"Feature","properties":{"municipio":"2e69bd47-344a-4d61-a210-1c28107e2609","title":"TO - CRISTALANDIA","name":"TO - CRISTALANDIA","tipo":"Munic\u00edpio","url":"\/dashboard\/details-assets\/2e69bd47-344a-4d61-a210-1c28107e2609"},"geometry":{"type":"Point","coordinates":[-49.1942,-10.5985]}},{"type":"Feature","properties":{"municipio":"b7f4933d-b88c-485c-b1c1-539dc08de0e8","title":"TO - COLMEIA","name":"TO - COLMEIA","tipo":"Munic\u00edpio","url":"\/dashboard\/details-assets\/b7f4933d-b88c-485c-b1c1-539dc08de0e8"},"geometry":{"type":"Point","coordinates":[-48.7638,-8.72463]}},{"type":"Feature","properties":{"municipio":"03e48eff-6886-40de-9077-e19b12a74c6b","title":"TO - COLINAS DO TOCANTINS","name":"TO - COLINAS DO TOCANTINS","tipo":"Munic\u00edpio","url":"\/dashboard\/details-assets\/03e48eff-6886-40de-9077-e19b12a74c6b"},"geometry":{"type":"Point","coordinates":[-48.4757,-8.05764]}},{"type":"Feature","properties":{"municipio":"7a372ad4-79ab-4d16-976e-a8b16a8832d6","title":"TO - CARIRI DO TOCANTINS","name":"TO - CARIRI DO TOCANTINS","tipo":"Munic\u00edpio","url":"\/dashboard\/details-assets\/7a372ad4-79ab-4d16-976e-a8b16a8832d6"},"geometry":{"type":"Point","coordinates":[-49.1609,-11.8881]}},{"type":"Feature","properties":{"municipio":"e3924ddc-9413-406d-a7de-b9378482087a","title":"TO - BARROLANDIA","name":"TO - BARROLANDIA","tipo":"Munic\u00edpio","url":"\/dashboard\/details-assets\/e3924ddc-9413-406d-a7de-b9378482087a"},"geometry":{"type":"Point","coordinates":[-48.7252,-9.83404]}},{"type":"Feature","properties":{"municipio":"9d32e451-353f-472c-84ea-3e33d4d74db3","title":"TO - BABACULANDIA","name":"TO - BABACULANDIA","tipo":"Munic\u00edpio","url":"\/dashboard\/details-assets\/9d32e451-353f-472c-84ea-3e33d4d74db3"},"geometry":{"type":"Point","coordinates":[-47.7613,-7.20923]}},{"type":"Feature","properties":{"municipio":"a0e0379f-131c-4e03-970d-3b4e767229ee","title":"TO - AUGUSTINOPOLIS","name":"TO - AUGUSTINOPOLIS","tipo":"Munic\u00edpio","url":"\/dashboard\/details-assets\/a0e0379f-131c-4e03-970d-3b4e767229ee"},"geometry":{"type":"Point","coordinates":[-47.8863,-5.46863]}},{"type":"Feature","properties":{"municipio":"373f0218-5257-40ac-b979-2ecd19d429c9","title":"TO - ARRAIAS","name":"TO - ARRAIAS","tipo":"Munic\u00edpio","url":"\/dashboard\/details-assets\/373f0218-5257-40ac-b979-2ecd19d429c9"},"geometry":{"type":"Point","coordinates":[-46.9359,-12.9287]}},{"type":"Feature","properties":{"municipio":"5fbf3212-4068-4623-ade4-3db32bfc4e93","title":"TO - ARAPOEMA","name":"TO - ARAPOEMA","tipo":"Munic\u00edpio","url":"\/dashboard\/details-assets\/5fbf3212-4068-4623-ade4-3db32bfc4e93"},"geometry":{"type":"Point","coordinates":[-49.0637,-7.65463]}},{"type":"Feature","properties":{"municipio":"bbda46aa-4228-4b1c-9cab-d2fc3f3aa4bb","title":"TO - ARAGUATINS","name":"TO - ARAGUATINS","tipo":"Munic\u00edpio","url":"\/dashboard\/details-assets\/bbda46aa-4228-4b1c-9cab-d2fc3f3aa4bb"},"geometry":{"type":"Point","coordinates":[-48.1232,-5.64659]}},{"type":"Feature","properties":{"municipio":"a3817a9d-dd1a-4fc5-aa95-8a5e268b7f0d","title":"TO - ARAGUAINA","name":"TO - ARAGUAINA","tipo":"Munic\u00edpio","url":"\/dashboard\/details-assets\/a3817a9d-dd1a-4fc5-aa95-8a5e268b7f0d"},"geometry":{"type":"Point","coordinates":[-48.2044,-7.19238]}},{"type":"Feature","properties":{"municipio":"36769302-3ef2-42dd-b425-920f6635163a","title":"TO - ARAGUACU","name":"TO - ARAGUACU","tipo":"Munic\u00edpio","url":"\/dashboard\/details-assets\/36769302-3ef2-42dd-b425-920f6635163a"},"geometry":{"type":"Point","coordinates":[-49.8231,-12.9289]}},{"type":"Feature","properties":{"municipio":"8250acd3-61d6-4c72-a2b6-5b523b53f101","title":"TO - ARAGUACEMA","name":"TO - ARAGUACEMA","tipo":"Munic\u00edpio","url":"\/dashboard\/details-assets\/8250acd3-61d6-4c72-a2b6-5b523b53f101"},"geometry":{"type":"Point","coordinates":[-49.5569,-8.80755]}},{"type":"Feature","properties":{"municipio":"ef54bd9c-d0b9-493b-8544-46c2aa19efd5","title":"TO - ANANAS","name":"TO - ANANAS","tipo":"Munic\u00edpio","url":"\/dashboard\/details-assets\/ef54bd9c-d0b9-493b-8544-46c2aa19efd5"},"geometry":{"type":"Point","coordinates":[-48.0735,-6.36437]}},{"type":"Feature","properties":{"municipio":"b1d8bf23-fed5-4636-9d8e-46f30ebad353","title":"SE - UMBAUBA","name":"SE - UMBAUBA","tipo":"Munic\u00edpio","url":"\/dashboard\/details-assets\/b1d8bf23-fed5-4636-9d8e-46f30ebad353"},"geometry":{"type":"Point","coordinates":[-37.6623,-11.3809]}},{"type":"Feature","properties":{"municipio":"bcccd81e-12bf-426b-8116-ec8ef88bbfb4","title":"SE - TOBIAS BARRETO","name":"SE - TOBIAS BARRETO","tipo":"Munic\u00edpio","url":"\/dashboard\/details-assets\/bcccd81e-12bf-426b-8116-ec8ef88bbfb4"},"geometry":{"type":"Point","coordinates":[-37.9995,-11.1798]}},{"type":"Feature","properties":{"municipio":"e04c8e5f-00a8-4e90-aa54-61747fc4de91","title":"SE - SIMAO DIAS","name":"SE - SIMAO DIAS","tipo":"Munic\u00edpio","url":"\/dashboard\/details-assets\/e04c8e5f-00a8-4e90-aa54-61747fc4de91"},"geometry":{"type":"Point","coordinates":[-37.8097,-10.7387]}},{"type":"Feature","properties":{"municipio":"356ab000-555c-4a79-923b-4f7e8450e730","title":"SE - SAO CRISTOVAO","name":"SE - SAO CRISTOVAO","tipo":"Munic\u00edpio","url":"\/dashboard\/details-assets\/356ab000-555c-4a79-923b-4f7e8450e730"},"geometry":{"type":"Point","coordinates":[-37.2044,-11.0084]}},{"type":"Feature","properties":{"municipio":"79371b95-0f5e-4e99-96bf-4bb5fd873f2d","title":"SE - SANTA ROSA DE LIMA","name":"SE - SANTA ROSA DE LIMA","tipo":"Munic\u00edpio","url":"\/dashboard\/details-assets\/79371b95-0f5e-4e99-96bf-4bb5fd873f2d"},"geometry":{"type":"Point","coordinates":[-37.1931,-10.6434]}},{"type":"Feature","properties":{"municipio":"47787cc5-7e10-4002-ae37-f362057f27c9","title":"SE - RIACHUELO","name":"SE - RIACHUELO","tipo":"Munic\u00edpio","url":"\/dashboard\/details-assets\/47787cc5-7e10-4002-ae37-f362057f27c9"},"geometry":{"type":"Point","coordinates":[-37.1966,-10.735]}},{"type":"Feature","properties":{"municipio":"c497717f-58b6-4757-a842-f7127142455f","title":"SE - PROPRIA","name":"SE - PROPRIA","tipo":"Munic\u00edpio","url":"\/dashboard\/details-assets\/c497717f-58b6-4757-a842-f7127142455f"},"geometry":{"type":"Point","coordinates":[-36.8442,-10.2138]}},{"type":"Feature","properties":{"municipio":"8a40738c-f32f-448d-b4d9-71e476111202","title":"SE - POCO VERDE","name":"SE - POCO VERDE","tipo":"Munic\u00edpio","url":"\/dashboard\/details-assets\/8a40738c-f32f-448d-b4d9-71e476111202"},"geometry":{"type":"Point","coordinates":[-38.1813,-10.7151]}},{"type":"Feature","properties":{"municipio":"72eb5c6b-842a-430b-ac9e-6d1cafa31dca","title":"SE - POCO REDONDO","name":"SE - POCO REDONDO","tipo":"Munic\u00edpio","url":"\/dashboard\/details-assets\/72eb5c6b-842a-430b-ac9e-6d1cafa31dca"},"geometry":{"type":"Point","coordinates":[-37.6833,-9.80616]}},{"type":"Feature","properties":{"municipio":"1c600270-79fc-445f-a9f8-7fc34300772e","title":"SE - NOSSA SENHORA DO SOCORRO","name":"SE - NOSSA SENHORA DO SOCORRO","tipo":"Munic\u00edpio","url":"\/dashboard\/details-assets\/1c600270-79fc-445f-a9f8-7fc34300772e"},"geometry":{"type":"Point","coordinates":[-37.1231,-10.8468]}},{"type":"Feature","properties":{"municipio":"35ee010a-3392-4cc2-9e2e-0f3da868ae18","title":"SE - NOSSA SENHORA DA GLORIA","name":"SE - NOSSA SENHORA DA GLORIA","tipo":"Munic\u00edpio","url":"\/dashboard\/details-assets\/35ee010a-3392-4cc2-9e2e-0f3da868ae18"},"geometry":{"type":"Point","coordinates":[-37.4211,-10.2158]}},{"type":"Feature","properties":{"municipio":"e674c7ad-7edd-40ef-b83d-86a52f4ce30a","title":"SE - LAGARTO","name":"SE - LAGARTO","tipo":"Munic\u00edpio","url":"\/dashboard\/details-assets\/e674c7ad-7edd-40ef-b83d-86a52f4ce30a"},"geometry":{"type":"Point","coordinates":[-37.6689,-10.9136]}},{"type":"Feature","properties":{"municipio":"2535451f-a73b-47fe-867d-6f3715271c32","title":"SE - JAPARATUBA","name":"SE - JAPARATUBA","tipo":"Munic\u00edpio","url":"\/dashboard\/details-assets\/2535451f-a73b-47fe-867d-6f3715271c32"},"geometry":{"type":"Point","coordinates":[-36.9418,-10.5849]}},{"type":"Feature","properties":{"municipio":"fcd3af31-9f06-438f-b3bf-b06394dccdca","title":"SE - ITAPORANGA D'AJUDA","name":"SE - ITAPORANGA D'AJUDA","tipo":"Munic\u00edpio","url":"\/dashboard\/details-assets\/fcd3af31-9f06-438f-b3bf-b06394dccdca"},"geometry":{"type":"Point","coordinates":[-37.3078,-10.99]}},{"type":"Feature","properties":{"municipio":"af5ddfff-fc6a-44f9-bd06-c52242a26daf","title":"SE - ITABAIANINHA","name":"SE - ITABAIANINHA","tipo":"Munic\u00edpio","url":"\/dashboard\/details-assets\/af5ddfff-fc6a-44f9-bd06-c52242a26daf"},"geometry":{"type":"Point","coordinates":[-37.7875,-11.2693]}},{"type":"Feature","properties":{"municipio":"04915ec8-a1a2-4b69-87e7-ca7c5c85e90d","title":"SE - ITABAIANA","name":"SE - ITABAIANA","tipo":"Munic\u00edpio","url":"\/dashboard\/details-assets\/04915ec8-a1a2-4b69-87e7-ca7c5c85e90d"},"geometry":{"type":"Point","coordinates":[-37.4273,-10.6826]}},{"type":"Feature","properties":{"municipio":"f6c410ce-1128-4036-b0ee-40f1b7a727dd","title":"SE - GARARU","name":"SE - GARARU","tipo":"Munic\u00edpio","url":"\/dashboard\/details-assets\/f6c410ce-1128-4036-b0ee-40f1b7a727dd"},"geometry":{"type":"Point","coordinates":[-37.0869,-9.9722]}},{"type":"Feature","properties":{"municipio":"1efebe36-254e-4389-8ec3-d84a7ffdd3c5","title":"SE - ESTANCIA","name":"SE - ESTANCIA","tipo":"Munic\u00edpio","url":"\/dashboard\/details-assets\/1efebe36-254e-4389-8ec3-d84a7ffdd3c5"},"geometry":{"type":"Point","coordinates":[-37.4484,-11.2659]}},{"type":"Feature","properties":{"municipio":"6e74c823-349c-46b3-9e79-4c75eb58be7a","title":"SE - CARMOPOLIS","name":"SE - CARMOPOLIS","tipo":"Munic\u00edpio","url":"\/dashboard\/details-assets\/6e74c823-349c-46b3-9e79-4c75eb58be7a"},"geometry":{"type":"Point","coordinates":[-36.9887,-10.6449]}},{"type":"Feature","properties":{"municipio":"999852be-0781-4c96-b251-79bc5fb0ee85","title":"SE - CARIRA","name":"SE - CARIRA","tipo":"Munic\u00edpio","url":"\/dashboard\/details-assets\/999852be-0781-4c96-b251-79bc5fb0ee85"},"geometry":{"type":"Point","coordinates":[-37.7002,-10.3524]}},{"type":"Feature","properties":{"municipio":"cbcbda28-6ac5-4a1e-8cc2-db9429cb8d5b","title":"SE - CAPELA","name":"SE - CAPELA","tipo":"Munic\u00edpio","url":"\/dashboard\/details-assets\/cbcbda28-6ac5-4a1e-8cc2-db9429cb8d5b"},"geometry":{"type":"Point","coordinates":[-37.0628,-10.5069]}},{"type":"Feature","properties":{"municipio":"283878d4-7b6d-428f-974e-e401ccbae6cf","title":"SE - CANINDE DE SAO FRANCISCO","name":"SE - CANINDE DE SAO FRANCISCO","tipo":"Munic\u00edpio","url":"\/dashboard\/details-assets\/283878d4-7b6d-428f-974e-e401ccbae6cf"},"geometry":{"type":"Point","coordinates":[-37.7923,-9.64882]}},{"type":"Feature","properties":{"municipio":"ec2880c1-ab42-4374-8334-d9e8a1093fb6","title":"SE - CAMPO DO BRITO","name":"SE - CAMPO DO BRITO","tipo":"Munic\u00edpio","url":"\/dashboard\/details-assets\/ec2880c1-ab42-4374-8334-d9e8a1093fb6"},"geometry":{"type":"Point","coordinates":[-37.4954,-10.7392]}},{"type":"Feature","properties":{"municipio":"83fb6d9e-b6fe-4c5f-939c-b4f1db8443b0","title":"SE - BOQUIM","name":"SE - BOQUIM","tipo":"Munic\u00edpio","url":"\/dashboard\/details-assets\/83fb6d9e-b6fe-4c5f-939c-b4f1db8443b0"},"geometry":{"type":"Point","coordinates":[-37.6195,-11.1397]}},{"type":"Feature","properties":{"municipio":"0f14a6ef-1ec3-4a1d-8c30-30d464759797","title":"SE - AREIA BRANCA","name":"SE - AREIA BRANCA","tipo":"Munic\u00edpio","url":"\/dashboard\/details-assets\/0f14a6ef-1ec3-4a1d-8c30-30d464759797"},"geometry":{"type":"Point","coordinates":[-37.3251,-10.758]}},{"type":"Feature","properties":{"municipio":"6a7f38fa-2d93-4876-a064-33d14b933891","title":"SE - ARACAJU","name":"SE - ARACAJU","tipo":"Munic\u00edpio","url":"\/dashboard\/details-assets\/6a7f38fa-2d93-4876-a064-33d14b933891"},"geometry":{"type":"Point","coordinates":[-37.0677,-10.9091]}},{"type":"Feature","properties":{"municipio":"45e7ab76-a855-4284-b73a-1480af42e359","title":"SP - VOTUPORANGA","name":"SP - VOTUPORANGA","tipo":"Munic\u00edpio","url":"\/dashboard\/details-assets\/45e7ab76-a855-4284-b73a-1480af42e359"},"geometry":{"type":"Point","coordinates":[-49.9781,-20.4237]}},{"type":"Feature","properties":{"municipio":"ccdd2963-2ffc-4cf2-9eb6-b9bf647619f5","title":"SP - VOTORANTIM","name":"SP - VOTORANTIM","tipo":"Munic\u00edpio","url":"\/dashboard\/details-assets\/ccdd2963-2ffc-4cf2-9eb6-b9bf647619f5"},"geometry":{"type":"Point","coordinates":[-47.4388,-23.5446]}},{"type":"Feature","properties":{"municipio":"ff2db28d-5e65-4193-8ba9-f3a8524c2d0d","title":"SP - VINHEDO","name":"SP - VINHEDO","tipo":"Munic\u00edpio","url":"\/dashboard\/details-assets\/ff2db28d-5e65-4193-8ba9-f3a8524c2d0d"},"geometry":{"type":"Point","coordinates":[-46.9833,-23.0302]}},{"type":"Feature","properties":{"municipio":"05fc1657-7a60-4fb7-baf2-2f311d04a64e","title":"SP - VARZEA PAULISTA","name":"SP - VARZEA PAULISTA","tipo":"Munic\u00edpio","url":"\/dashboard\/details-assets\/05fc1657-7a60-4fb7-baf2-2f311d04a64e"},"geometry":{"type":"Point","coordinates":[-46.8234,-23.2136]}},{"type":"Feature","properties":{"municipio":"36dc9490-107e-49b3-90fd-6f269b52a466","title":"SP - VARGEM GRANDE PAULISTA","name":"SP - VARGEM GRANDE PAULISTA","tipo":"Munic\u00edpio","url":"\/dashboard\/details-assets\/36dc9490-107e-49b3-90fd-6f269b52a466"},"geometry":{"type":"Point","coordinates":[-47.022,-23.5993]}},{"type":"Feature","properties":{"municipio":"3f130744-b05b-4670-a26b-ae5fb1c3911b","title":"SP - VALPARAISO","name":"SP - VALPARAISO","tipo":"Munic\u00edpio","url":"\/dashboard\/details-assets\/3f130744-b05b-4670-a26b-ae5fb1c3911b"},"geometry":{"type":"Point","coordinates":[-50.8699,-21.2229]}},{"type":"Feature","properties":{"municipio":"8641863b-2e41-40c3-ae9f-48bb8768011c","title":"SP - VARGEM GRANDE DO SUL","name":"SP - VARGEM GRANDE DO SUL","tipo":"Munic\u00edpio","url":"\/dashboard\/details-assets\/8641863b-2e41-40c3-ae9f-48bb8768011c"},"geometry":{"type":"Point","coordinates":[-46.8913,-21.8322]}},{"type":"Feature","properties":{"municipio":"f2367b28-2c95-4212-ac68-14c7156e9ad7","title":"SP - VALINHOS","name":"SP - VALINHOS","tipo":"Munic\u00edpio","url":"\/dashboard\/details-assets\/f2367b28-2c95-4212-ac68-14c7156e9ad7"},"geometry":{"type":"Point","coordinates":[-46.9974,-22.9698]}},{"type":"Feature","properties":{"municipio":"3af05b67-4867-4caa-ba6c-140e636f2b3f","title":"SP - UBATUBA","name":"SP - UBATUBA","tipo":"Munic\u00edpio","url":"\/dashboard\/details-assets\/3af05b67-4867-4caa-ba6c-140e636f2b3f"},"geometry":{"type":"Point","coordinates":[-45.0834,-23.4332]}},{"type":"Feature","properties":{"municipio":"5ec96d98-cc24-4284-a1af-49d30e2c48e6","title":"SP - TUPI PAULISTA","name":"SP - TUPI PAULISTA","tipo":"Munic\u00edpio","url":"\/dashboard\/details-assets\/5ec96d98-cc24-4284-a1af-49d30e2c48e6"},"geometry":{"type":"Point","coordinates":[-51.575,-21.3825]}},{"type":"Feature","properties":{"municipio":"457ba6e2-817d-41d7-8bb9-403a71497bb6","title":"SP - TUPA","name":"SP - TUPA","tipo":"Munic\u00edpio","url":"\/dashboard\/details-assets\/457ba6e2-817d-41d7-8bb9-403a71497bb6"},"geometry":{"type":"Point","coordinates":[-50.5191,-21.9335]}},{"type":"Feature","properties":{"municipio":"3d91e136-c94b-4fd1-a13b-3a7cf8a8ae24","title":"SP - TREMEMBE","name":"SP - TREMEMBE","tipo":"Munic\u00edpio","url":"\/dashboard\/details-assets\/3d91e136-c94b-4fd1-a13b-3a7cf8a8ae24"},"geometry":{"type":"Point","coordinates":[-45.5475,-22.9571]}},{"type":"Feature","properties":{"municipio":"84c6888b-1273-408f-9899-dfe222681197","title":"SP - TIETE","name":"SP - TIETE","tipo":"Munic\u00edpio","url":"\/dashboard\/details-assets\/84c6888b-1273-408f-9899-dfe222681197"},"geometry":{"type":"Point","coordinates":[-47.7164,-23.1101]}},{"type":"Feature","properties":{"municipio":"6d4a2474-ea05-4fa0-b84a-b5925d7fac06","title":"SP - TEODORO SAMPAIO","name":"SP - TEODORO SAMPAIO","tipo":"Munic\u00edpio","url":"\/dashboard\/details-assets\/6d4a2474-ea05-4fa0-b84a-b5925d7fac06"},"geometry":{"type":"Point","coordinates":[-52.1682,-22.5299]}},{"type":"Feature","properties":{"municipio":"ed2f6ae4-3890-4eb4-acfb-181d5c223e8d","title":"SP - TAUBATE","name":"SP - TAUBATE","tipo":"Munic\u00edpio","url":"\/dashboard\/details-assets\/ed2f6ae4-3890-4eb4-acfb-181d5c223e8d"},"geometry":{"type":"Point","coordinates":[-45.5593,-23.0104]}},{"type":"Feature","properties":{"municipio":"190c4c67-a824-4443-98f1-2b4e7aa48e87","title":"SP - TATUI","name":"SP - TATUI","tipo":"Munic\u00edpio","url":"\/dashboard\/details-assets\/190c4c67-a824-4443-98f1-2b4e7aa48e87"},"geometry":{"type":"Point","coordinates":[-47.8461,-23.3487]}},{"type":"Feature","properties":{"municipio":"687c9d74-bf1f-45e5-9827-99c6824458d4","title":"SP - TAQUARITUBA","name":"SP - TAQUARITUBA","tipo":"Munic\u00edpio","url":"\/dashboard\/details-assets\/687c9d74-bf1f-45e5-9827-99c6824458d4"},"geometry":{"type":"Point","coordinates":[-49.241,-23.5307]}},{"type":"Feature","properties":{"municipio":"59bb21e2-9d61-41c2-acc2-edf1361e0d4f","title":"SP - TAQUARITINGA","name":"SP - TAQUARITINGA","tipo":"Munic\u00edpio","url":"\/dashboard\/details-assets\/59bb21e2-9d61-41c2-acc2-edf1361e0d4f"},"geometry":{"type":"Point","coordinates":[-48.5103,-21.4049]}},{"type":"Feature","properties":{"municipio":"10a893b8-235f-41ef-ac3a-2ccfc9a641e4","title":"SP - TANABI","name":"SP - TANABI","tipo":"Munic\u00edpio","url":"\/dashboard\/details-assets\/10a893b8-235f-41ef-ac3a-2ccfc9a641e4"},"geometry":{"type":"Point","coordinates":[-49.6563,-20.6228]}},{"type":"Feature","properties":{"municipio":"ff343cab-44d8-4745-a889-9027a81d92ef","title":"SP - TABOAO DA SERRA","name":"SP - TABOAO DA SERRA","tipo":"Munic\u00edpio","url":"\/dashboard\/details-assets\/ff343cab-44d8-4745-a889-9027a81d92ef"},"geometry":{"type":"Point","coordinates":[-46.7526,-23.6019]}},{"type":"Feature","properties":{"municipio":"c9db49c7-391b-48f6-b964-2795b2001de4","title":"SP - TAIUVA","name":"SP - TAIUVA","tipo":"Munic\u00edpio","url":"\/dashboard\/details-assets\/c9db49c7-391b-48f6-b964-2795b2001de4"},"geometry":{"type":"Point","coordinates":[-48.4528,-21.1223]}},{"type":"Feature","properties":{"municipio":"2d862400-6d31-4c6c-86be-25408a6798df","title":"SP - SUZANO","name":"SP - SUZANO","tipo":"Munic\u00edpio","url":"\/dashboard\/details-assets\/2d862400-6d31-4c6c-86be-25408a6798df"},"geometry":{"type":"Point","coordinates":[-46.3112,-23.5448]}},{"type":"Feature","properties":{"municipio":"b25351fd-79b9-4f3f-9ebe-c9a25517c395","title":"SP - SUMARE","name":"SP - SUMARE","tipo":"Munic\u00edpio","url":"\/dashboard\/details-assets\/b25351fd-79b9-4f3f-9ebe-c9a25517c395"},"geometry":{"type":"Point","coordinates":[-47.2728,-22.8204]}},{"type":"Feature","properties":{"municipio":"d4e3001e-51b7-4f81-9f59-d275c43074f6","title":"SP - SOCORRO","name":"SP - SOCORRO","tipo":"Munic\u00edpio","url":"\/dashboard\/details-assets\/d4e3001e-51b7-4f81-9f59-d275c43074f6"},"geometry":{"type":"Point","coordinates":[-46.5251,-22.5903]}},{"type":"Feature","properties":{"municipio":"e58dbf2e-d23e-4701-91c0-9907cee02bfc","title":"SP - SOROCABA","name":"SP - SOROCABA","tipo":"Munic\u00edpio","url":"\/dashboard\/details-assets\/e58dbf2e-d23e-4701-91c0-9907cee02bfc"},"geometry":{"type":"Point","coordinates":[-47.4451,-23.4969]}},{"type":"Feature","properties":{"municipio":"cc76bb25-ffa8-4c20-a619-f1d074bf5098","title":"SP - SERTAOZINHO","name":"SP - SERTAOZINHO","tipo":"Munic\u00edpio","url":"\/dashboard\/details-assets\/cc76bb25-ffa8-4c20-a619-f1d074bf5098"},"geometry":{"type":"Point","coordinates":[-47.9875,-21.1316]}},{"type":"Feature","properties":{"municipio":"87a643bb-fdb7-454f-8e0a-82b982b6702d","title":"SP - SERRANA","name":"SP - SERRANA","tipo":"Munic\u00edpio","url":"\/dashboard\/details-assets\/87a643bb-fdb7-454f-8e0a-82b982b6702d"},"geometry":{"type":"Point","coordinates":[-47.5952,-21.2043]}},{"type":"Feature","properties":{"municipio":"a4305f5c-9de9-404c-910c-65a705990701","title":"SP - SERRA AZUL","name":"SP - SERRA AZUL","tipo":"Munic\u00edpio","url":"\/dashboard\/details-assets\/a4305f5c-9de9-404c-910c-65a705990701"},"geometry":{"type":"Point","coordinates":[-47.5602,-21.3074]}},{"type":"Feature","properties":{"municipio":"e16ed720-2b62-4da8-9150-e4ec4732ec28","title":"SP - SAO VICENTE","name":"SP - SAO VICENTE","tipo":"Munic\u00edpio","url":"\/dashboard\/details-assets\/e16ed720-2b62-4da8-9150-e4ec4732ec28"},"geometry":{"type":"Point","coordinates":[-46.3883,-23.9574]}},{"type":"Feature","properties":{"municipio":"7e0a89d9-77a8-4b86-9b71-ff5b75418adf","title":"SP - SAO SEBASTIAO","name":"SP - SAO SEBASTIAO","tipo":"Munic\u00edpio","url":"\/dashboard\/details-assets\/7e0a89d9-77a8-4b86-9b71-ff5b75418adf"},"geometry":{"type":"Point","coordinates":[-45.4143,-23.7951]}},{"type":"Feature","properties":{"municipio":"2ed153e4-c40d-47ae-93d7-86ed73524eb6","title":"SP - SAO ROQUE","name":"SP - SAO ROQUE","tipo":"Munic\u00edpio","url":"\/dashboard\/details-assets\/2ed153e4-c40d-47ae-93d7-86ed73524eb6"},"geometry":{"type":"Point","coordinates":[-47.1357,-23.5226]}},{"type":"Feature","properties":{"municipio":"b1fce43a-3006-4eaf-973c-d1b544b9975c","title":"SP - SAO PAULO","name":"SP - SAO PAULO","tipo":"Munic\u00edpio","url":"\/dashboard\/details-assets\/b1fce43a-3006-4eaf-973c-d1b544b9975c"},"geometry":{"type":"Point","coordinates":[-46.6395,-23.5329]}},{"type":"Feature","properties":{"municipio":"f9af21c3-9d85-40c1-ae1d-1f0735b319b6","title":"SP - SAO MIGUEL ARCANJO","name":"SP - SAO MIGUEL ARCANJO","tipo":"Munic\u00edpio","url":"\/dashboard\/details-assets\/f9af21c3-9d85-40c1-ae1d-1f0735b319b6"},"geometry":{"type":"Point","coordinates":[-47.9935,-23.8782]}},{"type":"Feature","properties":{"municipio":"0851575b-4f77-4497-8c79-c3ce6295ba01","title":"SP - SAO MANUEL","name":"SP - SAO MANUEL","tipo":"Munic\u00edpio","url":"\/dashboard\/details-assets\/0851575b-4f77-4497-8c79-c3ce6295ba01"},"geometry":{"type":"Point","coordinates":[-48.5723,-22.7321]}},{"type":"Feature","properties":{"municipio":"200e4b93-39f9-41ff-a150-6ad159df0ba9","title":"SP - SAO JOSE DOS CAMPOS","name":"SP - SAO JOSE DOS CAMPOS","tipo":"Munic\u00edpio","url":"\/dashboard\/details-assets\/200e4b93-39f9-41ff-a150-6ad159df0ba9"},"geometry":{"type":"Point","coordinates":[-45.8841,-23.1896]}},{"type":"Feature","properties":{"municipio":"1730d4bf-4982-41ee-902f-05e7cce8e71e","title":"SP - SAO JOSE DO RIO PRETO","name":"SP - SAO JOSE DO RIO PRETO","tipo":"Munic\u00edpio","url":"\/dashboard\/details-assets\/1730d4bf-4982-41ee-902f-05e7cce8e71e"},"geometry":{"type":"Point","coordinates":[-49.3758,-20.8113]}},{"type":"Feature","properties":{"municipio":"58db110f-783e-42cb-8fa0-3a9e3cefb3eb","title":"SP - SAO JOSE DO RIO PARDO","name":"SP - SAO JOSE DO RIO PARDO","tipo":"Munic\u00edpio","url":"\/dashboard\/details-assets\/58db110f-783e-42cb-8fa0-3a9e3cefb3eb"},"geometry":{"type":"Point","coordinates":[-46.8873,-21.5953]}},{"type":"Feature","properties":{"municipio":"2862b64d-af15-4170-80ca-aed9e3305eef","title":"SP - SAO JOAQUIM DA BARRA","name":"SP - SAO JOAQUIM DA BARRA","tipo":"Munic\u00edpio","url":"\/dashboard\/details-assets\/2862b64d-af15-4170-80ca-aed9e3305eef"},"geometry":{"type":"Point","coordinates":[-47.8593,-20.5812]}},{"type":"Feature","properties":{"municipio":"1373918f-18a3-4cc1-9a8b-e0869f9dcefe","title":"SP - SAO JOAO DA BOA VISTA","name":"SP - SAO JOAO DA BOA VISTA","tipo":"Munic\u00edpio","url":"\/dashboard\/details-assets\/1373918f-18a3-4cc1-9a8b-e0869f9dcefe"},"geometry":{"type":"Point","coordinates":[-46.7944,-21.9707]}},{"type":"Feature","properties":{"municipio":"5a6b99db-f619-4ceb-9f90-0c377e957d82","title":"SP - SAO CARLOS","name":"SP - SAO CARLOS","tipo":"Munic\u00edpio","url":"\/dashboard\/details-assets\/5a6b99db-f619-4ceb-9f90-0c377e957d82"},"geometry":{"type":"Point","coordinates":[-47.886,-22.0174]}},{"type":"Feature","properties":{"municipio":"7be5c763-8411-463e-9abb-e8fa4d1192d3","title":"SP - SAO CAETANO DO SUL","name":"SP - SAO CAETANO DO SUL","tipo":"Munic\u00edpio","url":"\/dashboard\/details-assets\/7be5c763-8411-463e-9abb-e8fa4d1192d3"},"geometry":{"type":"Point","coordinates":[-46.5548,-23.6229]}},{"type":"Feature","properties":{"municipio":"7b84a6c8-e778-46f8-8012-4858f1412ff0","title":"SP - SAO BERNARDO DO CAMPO","name":"SP - SAO BERNARDO DO CAMPO","tipo":"Munic\u00edpio","url":"\/dashboard\/details-assets\/7b84a6c8-e778-46f8-8012-4858f1412ff0"},"geometry":{"type":"Point","coordinates":[-46.5646,-23.6914]}},{"type":"Feature","properties":{"municipio":"dd8b8974-19bb-485d-a1d3-b8b1d84efc75","title":"SP - SANTOS","name":"SP - SANTOS","tipo":"Munic\u00edpio","url":"\/dashboard\/details-assets\/dd8b8974-19bb-485d-a1d3-b8b1d84efc75"},"geometry":{"type":"Point","coordinates":[-46.335,-23.9535]}},{"type":"Feature","properties":{"municipio":"7a6d8c07-7340-4bc8-917f-0d3fd3863b66","title":"SP - SANTO ANDRE","name":"SP - SANTO ANDRE","tipo":"Munic\u00edpio","url":"\/dashboard\/details-assets\/7a6d8c07-7340-4bc8-917f-0d3fd3863b66"},"geometry":{"type":"Point","coordinates":[-46.5432,-23.6737]}},{"type":"Feature","properties":{"municipio":"d48deaf5-377e-4806-a615-7100c95be763","title":"SP - SANTANA DE PARNAIBA","name":"SP - SANTANA DE PARNAIBA","tipo":"Munic\u00edpio","url":"\/dashboard\/details-assets\/d48deaf5-377e-4806-a615-7100c95be763"},"geometry":{"type":"Point","coordinates":[-46.9178,-23.4439]}},{"type":"Feature","properties":{"municipio":"43d20978-4f50-498c-887f-bbdf05403ff9","title":"SP - SANTA ROSA DE VITERBO","name":"SP - SANTA ROSA DE VITERBO","tipo":"Munic\u00edpio","url":"\/dashboard\/details-assets\/43d20978-4f50-498c-887f-bbdf05403ff9"},"geometry":{"type":"Point","coordinates":[-47.3622,-21.4776]}},{"type":"Feature","properties":{"municipio":"93dd3f88-2e93-4d1b-a478-7e2ebb5dc2b3","title":"SP - SANTA ISABEL","name":"SP - SANTA ISABEL","tipo":"Munic\u00edpio","url":"\/dashboard\/details-assets\/93dd3f88-2e93-4d1b-a478-7e2ebb5dc2b3"},"geometry":{"type":"Point","coordinates":[-46.2237,-23.3172]}},{"type":"Feature","properties":{"municipio":"6d2446de-2184-4141-91f6-bfc41fde9386","title":"SP - SANTA FE DO SUL","name":"SP - SANTA FE DO SUL","tipo":"Munic\u00edpio","url":"\/dashboard\/details-assets\/6d2446de-2184-4141-91f6-bfc41fde9386"},"geometry":{"type":"Point","coordinates":[-50.932,-20.2083]}},{"type":"Feature","properties":{"municipio":"2c0942a7-076d-4ca6-a8f2-547e2fb2d235","title":"SP - SANTA CRUZ DO RIO PARDO","name":"SP - SANTA CRUZ DO RIO PARDO","tipo":"Munic\u00edpio","url":"\/dashboard\/details-assets\/2c0942a7-076d-4ca6-a8f2-547e2fb2d235"},"geometry":{"type":"Point","coordinates":[-49.6354,-22.8988]}},{"type":"Feature","properties":{"municipio":"bdc3f6b2-5f16-4eae-a5d5-7630711e2122","title":"SP - SALTO DE PIRAPORA","name":"SP - SALTO DE PIRAPORA","tipo":"Munic\u00edpio","url":"\/dashboard\/details-assets\/bdc3f6b2-5f16-4eae-a5d5-7630711e2122"},"geometry":{"type":"Point","coordinates":[-47.5743,-23.6474]}},{"type":"Feature","properties":{"municipio":"3fcc2fb6-51d1-4022-b825-2812067443e9","title":"SP - SANTA BARBARA D'OESTE","name":"SP - SANTA BARBARA D'OESTE","tipo":"Munic\u00edpio","url":"\/dashboard\/details-assets\/3fcc2fb6-51d1-4022-b825-2812067443e9"},"geometry":{"type":"Point","coordinates":[-47.4143,-22.7553]}},{"type":"Feature","properties":{"municipio":"a86fab08-e394-497c-bc9a-6b9ea6cde77c","title":"SP - SALTO","name":"SP - SALTO","tipo":"Munic\u00edpio","url":"\/dashboard\/details-assets\/a86fab08-e394-497c-bc9a-6b9ea6cde77c"},"geometry":{"type":"Point","coordinates":[-47.2931,-23.1996]}},{"type":"Feature","properties":{"municipio":"0abbc489-f72c-4b30-9414-a832b56911bc","title":"SP - ROSANA","name":"SP - ROSANA","tipo":"Munic\u00edpio","url":"\/dashboard\/details-assets\/0abbc489-f72c-4b30-9414-a832b56911bc"},"geometry":{"type":"Point","coordinates":[-53.0603,-22.5782]}},{"type":"Feature","properties":{"municipio":"0ab947a0-c455-4a72-937e-e61b7e6aa454","title":"SP - RIOLANDIA","name":"SP - RIOLANDIA","tipo":"Munic\u00edpio","url":"\/dashboard\/details-assets\/0ab947a0-c455-4a72-937e-e61b7e6aa454"},"geometry":{"type":"Point","coordinates":[-49.6836,-19.9868]}},{"type":"Feature","properties":{"municipio":"07ee7a97-4584-426d-9e52-ee1d03dc6a55","title":"SP - RIO CLARO","name":"SP - RIO CLARO","tipo":"Munic\u00edpio","url":"\/dashboard\/details-assets\/07ee7a97-4584-426d-9e52-ee1d03dc6a55"},"geometry":{"type":"Point","coordinates":[-47.5546,-22.3984]}},{"type":"Feature","properties":{"municipio":"87bf0517-a049-4e33-a1e2-fc1367866dc5","title":"SP - RIO GRANDE DA SERRA","name":"SP - RIO GRANDE DA SERRA","tipo":"Munic\u00edpio","url":"\/dashboard\/details-assets\/87bf0517-a049-4e33-a1e2-fc1367866dc5"},"geometry":{"type":"Point","coordinates":[-46.3971,-23.7437]}},{"type":"Feature","properties":{"municipio":"ab3a3b1c-9453-49d6-818d-da01bcaf614c","title":"SP - RIBEIRAO PRETO","name":"SP - RIBEIRAO PRETO","tipo":"Munic\u00edpio","url":"\/dashboard\/details-assets\/ab3a3b1c-9453-49d6-818d-da01bcaf614c"},"geometry":{"type":"Point","coordinates":[-47.8099,-21.1699]}},{"type":"Feature","properties":{"municipio":"64387450-1653-43fe-950e-83952b1a4d1b","title":"SP - RIBEIRAO PIRES","name":"SP - RIBEIRAO PIRES","tipo":"Munic\u00edpio","url":"\/dashboard\/details-assets\/64387450-1653-43fe-950e-83952b1a4d1b"},"geometry":{"type":"Point","coordinates":[-46.4058,-23.7067]}},{"type":"Feature","properties":{"municipio":"a361a3e5-0b1f-4b10-b605-45b891337505","title":"SP - REGISTRO","name":"SP - REGISTRO","tipo":"Munic\u00edpio","url":"\/dashboard\/details-assets\/a361a3e5-0b1f-4b10-b605-45b891337505"},"geometry":{"type":"Point","coordinates":[-47.8449,-24.4979]}},{"type":"Feature","properties":{"municipio":"ea0ccaea-d1b7-4141-a122-49f31d01e4d4","title":"SP - REGINOPOLIS","name":"SP - REGINOPOLIS","tipo":"Munic\u00edpio","url":"\/dashboard\/details-assets\/ea0ccaea-d1b7-4141-a122-49f31d01e4d4"},"geometry":{"type":"Point","coordinates":[-49.2268,-21.8914]}},{"type":"Feature","properties":{"municipio":"b7bb43ff-7cc0-47af-8e6a-461abe219457","title":"SP - RANCHARIA","name":"SP - RANCHARIA","tipo":"Munic\u00edpio","url":"\/dashboard\/details-assets\/b7bb43ff-7cc0-47af-8e6a-461abe219457"},"geometry":{"type":"Point","coordinates":[-50.893,-22.2269]}},{"type":"Feature","properties":{"municipio":"f7bea1fd-560b-48e0-a075-ec6a9689c075","title":"SP - PRESIDENTE VENCESLAU","name":"SP - PRESIDENTE VENCESLAU","tipo":"Munic\u00edpio","url":"\/dashboard\/details-assets\/f7bea1fd-560b-48e0-a075-ec6a9689c075"},"geometry":{"type":"Point","coordinates":[-51.8447,-21.8732]}},{"type":"Feature","properties":{"municipio":"9ce98280-d478-4d44-96af-5eb948640081","title":"SP - PRESIDENTE EPITACIO","name":"SP - PRESIDENTE EPITACIO","tipo":"Munic\u00edpio","url":"\/dashboard\/details-assets\/9ce98280-d478-4d44-96af-5eb948640081"},"geometry":{"type":"Point","coordinates":[-52.1111,-21.7651]}},{"type":"Feature","properties":{"municipio":"875706da-ad13-4a84-b012-916cfe092b0f","title":"SP - PRESIDENTE PRUDENTE","name":"SP - PRESIDENTE PRUDENTE","tipo":"Munic\u00edpio","url":"\/dashboard\/details-assets\/875706da-ad13-4a84-b012-916cfe092b0f"},"geometry":{"type":"Point","coordinates":[-51.3925,-22.1207]}},{"type":"Feature","properties":{"municipio":"a1962df6-bb34-43b0-83ee-8f84b52a423c","title":"SP - PRESIDENTE BERNARDES","name":"SP - PRESIDENTE BERNARDES","tipo":"Munic\u00edpio","url":"\/dashboard\/details-assets\/a1962df6-bb34-43b0-83ee-8f84b52a423c"},"geometry":{"type":"Point","coordinates":[-51.5565,-22.0082]}},{"type":"Feature","properties":{"municipio":"2c508644-c3e8-4f48-b028-514078473a74","title":"SP - PRAIA GRANDE","name":"SP - PRAIA GRANDE","tipo":"Munic\u00edpio","url":"\/dashboard\/details-assets\/2c508644-c3e8-4f48-b028-514078473a74"},"geometry":{"type":"Point","coordinates":[-46.4121,-24.0084]}},{"type":"Feature","properties":{"municipio":"6d0c7586-11d9-4d30-affe-2dc7c7744449","title":"SP - PRACINHA","name":"SP - PRACINHA","tipo":"Munic\u00edpio","url":"\/dashboard\/details-assets\/6d0c7586-11d9-4d30-affe-2dc7c7744449"},"geometry":{"type":"Point","coordinates":[-51.0868,-21.8496]}},{"type":"Feature","properties":{"municipio":"c5cbf95c-50ff-4fb5-affd-ffb9841cb52e","title":"SP - POTIM","name":"SP - POTIM","tipo":"Munic\u00edpio","url":"\/dashboard\/details-assets\/c5cbf95c-50ff-4fb5-affd-ffb9841cb52e"},"geometry":{"type":"Point","coordinates":[-45.2552,-22.8343]}},{"type":"Feature","properties":{"municipio":"9b26b97d-500a-407d-8fec-556adf330651","title":"SP - PORTO FERREIRA","name":"SP - PORTO FERREIRA","tipo":"Munic\u00edpio","url":"\/dashboard\/details-assets\/9b26b97d-500a-407d-8fec-556adf330651"},"geometry":{"type":"Point","coordinates":[-47.487,-21.8498]}},{"type":"Feature","properties":{"municipio":"bb74822b-f97d-44e8-bd65-13262546a83f","title":"SP - PORTO FELIZ","name":"SP - PORTO FELIZ","tipo":"Munic\u00edpio","url":"\/dashboard\/details-assets\/bb74822b-f97d-44e8-bd65-13262546a83f"},"geometry":{"type":"Point","coordinates":[-47.5251,-23.2093]}},{"type":"Feature","properties":{"municipio":"19ee196f-bebc-4058-832d-a1026995675d","title":"SP - PONTAL","name":"SP - PONTAL","tipo":"Munic\u00edpio","url":"\/dashboard\/details-assets\/19ee196f-bebc-4058-832d-a1026995675d"},"geometry":{"type":"Point","coordinates":[-48.0423,-21.0216]}},{"type":"Feature","properties":{"municipio":"ced10b73-6607-4656-a139-7f9db58fbe9d","title":"SP - POA","name":"SP - POA","tipo":"Munic\u00edpio","url":"\/dashboard\/details-assets\/ced10b73-6607-4656-a139-7f9db58fbe9d"},"geometry":{"type":"Point","coordinates":[-46.3473,-23.5333]}},{"type":"Feature","properties":{"municipio":"1d39497e-3fbe-4221-95b9-940ccabe4d30","title":"SP - PIRASSUNUNGA","name":"SP - PIRASSUNUNGA","tipo":"Munic\u00edpio","url":"\/dashboard\/details-assets\/1d39497e-3fbe-4221-95b9-940ccabe4d30"},"geometry":{"type":"Point","coordinates":[-47.4257,-21.996]}},{"type":"Feature","properties":{"municipio":"74eb6ed2-056e-49bd-98b0-8ed69eab9765","title":"SP - PIRAJUI","name":"SP - PIRAJUI","tipo":"Munic\u00edpio","url":"\/dashboard\/details-assets\/74eb6ed2-056e-49bd-98b0-8ed69eab9765"},"geometry":{"type":"Point","coordinates":[-49.4608,-21.999]}},{"type":"Feature","properties":{"municipio":"aff919cd-1662-499e-8175-8111d4830eed","title":"SP - PIRAJU","name":"SP - PIRAJU","tipo":"Munic\u00edpio","url":"\/dashboard\/details-assets\/aff919cd-1662-499e-8175-8111d4830eed"},"geometry":{"type":"Point","coordinates":[-49.3803,-23.1981]}},{"type":"Feature","properties":{"municipio":"acb8b645-55f6-487e-86c8-97d0f009bce7","title":"SP - PIRACICABA","name":"SP - PIRACICABA","tipo":"Munic\u00edpio","url":"\/dashboard\/details-assets\/acb8b645-55f6-487e-86c8-97d0f009bce7"},"geometry":{"type":"Point","coordinates":[-47.6476,-22.7338]}},{"type":"Feature","properties":{"municipio":"7d12ee1e-6366-4aa3-a8dd-48f791534957","title":"SP - PINDAMONHANGABA","name":"SP - PINDAMONHANGABA","tipo":"Munic\u00edpio","url":"\/dashboard\/details-assets\/7d12ee1e-6366-4aa3-a8dd-48f791534957"},"geometry":{"type":"Point","coordinates":[-45.4613,-22.9246]}},{"type":"Feature","properties":{"municipio":"f6c7e1e9-aeff-4f33-9fe8-82520f90e568","title":"SP - PILAR DO SUL","name":"SP - PILAR DO SUL","tipo":"Munic\u00edpio","url":"\/dashboard\/details-assets\/f6c7e1e9-aeff-4f33-9fe8-82520f90e568"},"geometry":{"type":"Point","coordinates":[-47.7222,-23.8077]}},{"type":"Feature","properties":{"municipio":"709a8c83-7eef-464c-9947-942e47b0342c","title":"SP - PIEDADE","name":"SP - PIEDADE","tipo":"Munic\u00edpio","url":"\/dashboard\/details-assets\/709a8c83-7eef-464c-9947-942e47b0342c"},"geometry":{"type":"Point","coordinates":[-47.4256,-23.7139]}},{"type":"Feature","properties":{"municipio":"f6c5cb0e-9472-452b-88b7-05c0acd2c9a1","title":"SP - PERUIBE","name":"SP - PERUIBE","tipo":"Munic\u00edpio","url":"\/dashboard\/details-assets\/f6c5cb0e-9472-452b-88b7-05c0acd2c9a1"},"geometry":{"type":"Point","coordinates":[-47.0012,-24.312]}},{"type":"Feature","properties":{"municipio":"121a7874-e812-42c8-bce6-aae8d4bb1bba","title":"SP - PEREIRA BARRETO","name":"SP - PEREIRA BARRETO","tipo":"Munic\u00edpio","url":"\/dashboard\/details-assets\/121a7874-e812-42c8-bce6-aae8d4bb1bba"},"geometry":{"type":"Point","coordinates":[-51.1123,-20.6368]}},{"type":"Feature","properties":{"municipio":"948a235f-ab90-405c-be64-4950308ea573","title":"SP - PENAPOLIS","name":"SP - PENAPOLIS","tipo":"Munic\u00edpio","url":"\/dashboard\/details-assets\/948a235f-ab90-405c-be64-4950308ea573"},"geometry":{"type":"Point","coordinates":[-50.0769,-21.4148]}},{"type":"Feature","properties":{"municipio":"51052258-d998-48d3-be9d-cc10db136399","title":"SP - PEDREIRA","name":"SP - PEDREIRA","tipo":"Munic\u00edpio","url":"\/dashboard\/details-assets\/51052258-d998-48d3-be9d-cc10db136399"},"geometry":{"type":"Point","coordinates":[-46.8948,-22.7413]}},{"type":"Feature","properties":{"municipio":"13d3341e-1c83-4f6d-9d93-5fb0f1def6be","title":"SP - PEDERNEIRAS","name":"SP - PEDERNEIRAS","tipo":"Munic\u00edpio","url":"\/dashboard\/details-assets\/13d3341e-1c83-4f6d-9d93-5fb0f1def6be"},"geometry":{"type":"Point","coordinates":[-48.7781,-22.3511]}},{"type":"Feature","properties":{"municipio":"3fc7f43c-093e-4813-ba6c-ef8e233be8a9","title":"SP - PAULINIA","name":"SP - PAULINIA","tipo":"Munic\u00edpio","url":"\/dashboard\/details-assets\/3fc7f43c-093e-4813-ba6c-ef8e233be8a9"},"geometry":{"type":"Point","coordinates":[-47.1488,-22.7542]}},{"type":"Feature","properties":{"municipio":"5a297dcd-c52e-4757-9bd2-eb2b32508796","title":"SP - PARAGUACU PAULISTA","name":"SP - PARAGUACU PAULISTA","tipo":"Munic\u00edpio","url":"\/dashboard\/details-assets\/5a297dcd-c52e-4757-9bd2-eb2b32508796"},"geometry":{"type":"Point","coordinates":[-50.5732,-22.4114]}},{"type":"Feature","properties":{"municipio":"0e43b440-0fbf-4655-9b57-1a7d5581e0dd","title":"SP - PACAEMBU","name":"SP - PACAEMBU","tipo":"Munic\u00edpio","url":"\/dashboard\/details-assets\/0e43b440-0fbf-4655-9b57-1a7d5581e0dd"},"geometry":{"type":"Point","coordinates":[-51.2654,-21.5627]}},{"type":"Feature","properties":{"municipio":"90212b10-9182-475c-9bc8-5258785d639c","title":"SP - OURINHOS","name":"SP - OURINHOS","tipo":"Munic\u00edpio","url":"\/dashboard\/details-assets\/90212b10-9182-475c-9bc8-5258785d639c"},"geometry":{"type":"Point","coordinates":[-49.8697,-22.9797]}},{"type":"Feature","properties":{"municipio":"91f98091-1242-4cf0-ad9f-3aac3f458faa","title":"SP - OSVALDO CRUZ","name":"SP - OSVALDO CRUZ","tipo":"Munic\u00edpio","url":"\/dashboard\/details-assets\/91f98091-1242-4cf0-ad9f-3aac3f458faa"},"geometry":{"type":"Point","coordinates":[-50.8793,-21.7968]}},{"type":"Feature","properties":{"municipio":"5514a8a0-0547-4e1d-828d-130403e2aa23","title":"SP - OSASCO","name":"SP - OSASCO","tipo":"Munic\u00edpio","url":"\/dashboard\/details-assets\/5514a8a0-0547-4e1d-828d-130403e2aa23"},"geometry":{"type":"Point","coordinates":[-46.7916,-23.5324]}},{"type":"Feature","properties":{"municipio":"0493711e-2739-4370-a3ef-448ba7967f52","title":"SP - ORLANDIA","name":"SP - ORLANDIA","tipo":"Munic\u00edpio","url":"\/dashboard\/details-assets\/0493711e-2739-4370-a3ef-448ba7967f52"},"geometry":{"type":"Point","coordinates":[-47.8852,-20.7169]}},{"type":"Feature","properties":{"municipio":"950f29fa-b4fc-4fb2-a2cb-3496db27d9eb","title":"SP - OLIMPIA","name":"SP - OLIMPIA","tipo":"Munic\u00edpio","url":"\/dashboard\/details-assets\/950f29fa-b4fc-4fb2-a2cb-3496db27d9eb"},"geometry":{"type":"Point","coordinates":[-48.9106,-20.7366]}},{"type":"Feature","properties":{"municipio":"7b9405a2-1418-4fd0-97c1-c4d4ad34155d","title":"SP - NOVO HORIZONTE","name":"SP - NOVO HORIZONTE","tipo":"Munic\u00edpio","url":"\/dashboard\/details-assets\/7b9405a2-1418-4fd0-97c1-c4d4ad34155d"},"geometry":{"type":"Point","coordinates":[-49.2234,-21.4651]}},{"type":"Feature","properties":{"municipio":"a8397485-cec8-4457-b3d6-a258a9989a51","title":"SP - NOVA INDEPENDENCIA","name":"SP - NOVA INDEPENDENCIA","tipo":"Munic\u00edpio","url":"\/dashboard\/details-assets\/a8397485-cec8-4457-b3d6-a258a9989a51"},"geometry":{"type":"Point","coordinates":[-51.4905,-21.1026]}},{"type":"Feature","properties":{"municipio":"5dd7c2dd-423e-41fc-93ef-a3e44f7a084a","title":"SP - MONTE MOR","name":"SP - MONTE MOR","tipo":"Munic\u00edpio","url":"\/dashboard\/details-assets\/5dd7c2dd-423e-41fc-93ef-a3e44f7a084a"},"geometry":{"type":"Point","coordinates":[-47.3122,-22.945]}},{"type":"Feature","properties":{"municipio":"ba58fdc5-0d67-4ffc-bff4-e0217ce782ad","title":"SP - MONTE APRAZIVEL","name":"SP - MONTE APRAZIVEL","tipo":"Munic\u00edpio","url":"\/dashboard\/details-assets\/ba58fdc5-0d67-4ffc-bff4-e0217ce782ad"},"geometry":{"type":"Point","coordinates":[-49.7184,-20.768]}},{"type":"Feature","properties":{"municipio":"e8f3a2b9-6d71-4f55-a398-332db2826868","title":"SP - MONTE ALTO","name":"SP - MONTE ALTO","tipo":"Munic\u00edpio","url":"\/dashboard\/details-assets\/e8f3a2b9-6d71-4f55-a398-332db2826868"},"geometry":{"type":"Point","coordinates":[-48.4971,-21.2655]}},{"type":"Feature","properties":{"municipio":"e65b376d-112f-4c4c-936a-75e170798010","title":"SP - MONGAGUA","name":"SP - MONGAGUA","tipo":"Munic\u00edpio","url":"\/dashboard\/details-assets\/e65b376d-112f-4c4c-936a-75e170798010"},"geometry":{"type":"Point","coordinates":[-46.6265,-24.0809]}},{"type":"Feature","properties":{"municipio":"c241695d-271c-49f3-9265-45a2d86f0905","title":"SP - MOGI MIRIM","name":"SP - MOGI MIRIM","tipo":"Munic\u00edpio","url":"\/dashboard\/details-assets\/c241695d-271c-49f3-9265-45a2d86f0905"},"geometry":{"type":"Point","coordinates":[-46.9532,-22.4332]}},{"type":"Feature","properties":{"municipio":"02033eed-a3db-4642-a6b0-596f70f7f6ee","title":"SP - MOGI GUACU","name":"SP - MOGI GUACU","tipo":"Munic\u00edpio","url":"\/dashboard\/details-assets\/02033eed-a3db-4642-a6b0-596f70f7f6ee"},"geometry":{"type":"Point","coordinates":[-46.9428,-22.3675]}},{"type":"Feature","properties":{"municipio":"f4ff9915-0ea8-4ea2-9b1c-99e313fd6d11","title":"SP - MOCOCA","name":"SP - MOCOCA","tipo":"Munic\u00edpio","url":"\/dashboard\/details-assets\/f4ff9915-0ea8-4ea2-9b1c-99e313fd6d11"},"geometry":{"type":"Point","coordinates":[-47.0024,-21.4647]}},{"type":"Feature","properties":{"municipio":"4cead788-0719-49ce-aa24-de21816abc73","title":"SP - MOGI DAS CRUZES","name":"SP - MOGI DAS CRUZES","tipo":"Munic\u00edpio","url":"\/dashboard\/details-assets\/4cead788-0719-49ce-aa24-de21816abc73"},"geometry":{"type":"Point","coordinates":[-46.1854,-23.5208]}},{"type":"Feature","properties":{"municipio":"955862ce-37cc-4d5c-b583-7c428fb0c0a2","title":"SP - MIRANTE DO PARANAPANEMA","name":"SP - MIRANTE DO PARANAPANEMA","tipo":"Munic\u00edpio","url":"\/dashboard\/details-assets\/955862ce-37cc-4d5c-b583-7c428fb0c0a2"},"geometry":{"type":"Point","coordinates":[-51.9084,-22.2904]}},{"type":"Feature","properties":{"municipio":"82fd99a8-b3f3-493e-aeec-bb57f7ad785e","title":"SP - MIRASSOL","name":"SP - MIRASSOL","tipo":"Munic\u00edpio","url":"\/dashboard\/details-assets\/82fd99a8-b3f3-493e-aeec-bb57f7ad785e"},"geometry":{"type":"Point","coordinates":[-49.5206,-20.8169]}},{"type":"Feature","properties":{"municipio":"0268f55a-0b22-40a4-9c94-f263a884a172","title":"SP - MIRANDOPOLIS","name":"SP - MIRANDOPOLIS","tipo":"Munic\u00edpio","url":"\/dashboard\/details-assets\/0268f55a-0b22-40a4-9c94-f263a884a172"},"geometry":{"type":"Point","coordinates":[-51.1035,-21.1313]}},{"type":"Feature","properties":{"municipio":"53484708-41ba-4c54-9eba-f5a3307fbe7a","title":"SP - MIRACATU","name":"SP - MIRACATU","tipo":"Munic\u00edpio","url":"\/dashboard\/details-assets\/53484708-41ba-4c54-9eba-f5a3307fbe7a"},"geometry":{"type":"Point","coordinates":[-47.4625,-24.2766]}},{"type":"Feature","properties":{"municipio":"30706236-c13a-4930-955f-78b2fdff5bef","title":"SP - MAUA","name":"SP - MAUA","tipo":"Munic\u00edpio","url":"\/dashboard\/details-assets\/30706236-c13a-4930-955f-78b2fdff5bef"},"geometry":{"type":"Point","coordinates":[-46.4613,-23.6677]}},{"type":"Feature","properties":{"municipio":"82583313-0fc9-40f8-855b-499546e508a3","title":"SP - MATAO","name":"SP - MATAO","tipo":"Munic\u00edpio","url":"\/dashboard\/details-assets\/82583313-0fc9-40f8-855b-499546e508a3"},"geometry":{"type":"Point","coordinates":[-48.364,-21.6025]}},{"type":"Feature","properties":{"municipio":"7002c408-0435-4c74-9bb5-51f2518bf534","title":"SP - MARTINOPOLIS","name":"SP - MARTINOPOLIS","tipo":"Munic\u00edpio","url":"\/dashboard\/details-assets\/7002c408-0435-4c74-9bb5-51f2518bf534"},"geometry":{"type":"Point","coordinates":[-51.1709,-22.1462]}},{"type":"Feature","properties":{"municipio":"e20a7997-88df-4e13-ab6e-4366435d91a9","title":"SP - MARILIA","name":"SP - MARILIA","tipo":"Munic\u00edpio","url":"\/dashboard\/details-assets\/e20a7997-88df-4e13-ab6e-4366435d91a9"},"geometry":{"type":"Point","coordinates":[-49.9501,-22.2171]}},{"type":"Feature","properties":{"municipio":"18b566b3-81cf-46b2-af49-973bec0a1e34","title":"SP - MARABA PAULISTA","name":"SP - MARABA PAULISTA","tipo":"Munic\u00edpio","url":"\/dashboard\/details-assets\/18b566b3-81cf-46b2-af49-973bec0a1e34"},"geometry":{"type":"Point","coordinates":[-51.9617,-22.1068]}},{"type":"Feature","properties":{"municipio":"bd35e449-c8c8-466f-aec8-73d83cac72b3","title":"SP - MAIRIPORA","name":"SP - MAIRIPORA","tipo":"Munic\u00edpio","url":"\/dashboard\/details-assets\/bd35e449-c8c8-466f-aec8-73d83cac72b3"},"geometry":{"type":"Point","coordinates":[-46.5897,-23.3171]}},{"type":"Feature","properties":{"municipio":"4f0fc30f-e603-42d1-9c83-66d071e37734","title":"SP - MAIRINQUE","name":"SP - MAIRINQUE","tipo":"Munic\u00edpio","url":"\/dashboard\/details-assets\/4f0fc30f-e603-42d1-9c83-66d071e37734"},"geometry":{"type":"Point","coordinates":[-47.185,-23.5398]}},{"type":"Feature","properties":{"municipio":"d6adba1f-2360-42cd-b054-c4839d113eaf","title":"SP - LUCELIA","name":"SP - LUCELIA","tipo":"Munic\u00edpio","url":"\/dashboard\/details-assets\/d6adba1f-2360-42cd-b054-c4839d113eaf"},"geometry":{"type":"Point","coordinates":[-51.0215,-21.7182]}},{"type":"Feature","properties":{"municipio":"3c15faf4-cc9c-4a06-b6db-478c767a7af0","title":"SP - LOUVEIRA","name":"SP - LOUVEIRA","tipo":"Munic\u00edpio","url":"\/dashboard\/details-assets\/3c15faf4-cc9c-4a06-b6db-478c767a7af0"},"geometry":{"type":"Point","coordinates":[-46.9484,-23.0856]}},{"type":"Feature","properties":{"municipio":"2ac1de59-967f-4310-a09b-9d5d94c3d9c1","title":"SP - LORENA","name":"SP - LORENA","tipo":"Munic\u00edpio","url":"\/dashboard\/details-assets\/2ac1de59-967f-4310-a09b-9d5d94c3d9c1"},"geometry":{"type":"Point","coordinates":[-45.1197,-22.7334]}},{"type":"Feature","properties":{"municipio":"b7aab205-4b98-4b10-b1fd-1abd5e2d628f","title":"SP - LINS","name":"SP - LINS","tipo":"Munic\u00edpio","url":"\/dashboard\/details-assets\/b7aab205-4b98-4b10-b1fd-1abd5e2d628f"},"geometry":{"type":"Point","coordinates":[-49.7526,-21.6718]}},{"type":"Feature","properties":{"municipio":"a7477553-f7a8-482c-81d9-fc8a27b94ec1","title":"SP - LIMEIRA","name":"SP - LIMEIRA","tipo":"Munic\u00edpio","url":"\/dashboard\/details-assets\/a7477553-f7a8-482c-81d9-fc8a27b94ec1"},"geometry":{"type":"Point","coordinates":[-47.397,-22.566]}},{"type":"Feature","properties":{"municipio":"0227ff14-89c4-4f97-942b-2aafd01fbcc1","title":"SP - LENCOIS PAULISTA","name":"SP - LENCOIS PAULISTA","tipo":"Munic\u00edpio","url":"\/dashboard\/details-assets\/0227ff14-89c4-4f97-942b-2aafd01fbcc1"},"geometry":{"type":"Point","coordinates":[-48.8037,-22.6027]}},{"type":"Feature","properties":{"municipio":"7c374edb-34db-49be-8fce-6eb766691c08","title":"SP - LEME","name":"SP - LEME","tipo":"Munic\u00edpio","url":"\/dashboard\/details-assets\/7c374edb-34db-49be-8fce-6eb766691c08"},"geometry":{"type":"Point","coordinates":[-47.3841,-22.1809]}},{"type":"Feature","properties":{"municipio":"d472a767-9307-45de-a65f-2aa8b4c51f12","title":"SP - LAVINIA","name":"SP - LAVINIA","tipo":"Munic\u00edpio","url":"\/dashboard\/details-assets\/d472a767-9307-45de-a65f-2aa8b4c51f12"},"geometry":{"type":"Point","coordinates":[-51.0412,-21.1639]}},{"type":"Feature","properties":{"municipio":"975c8d3c-7c0e-43a5-97b4-bf65256e1d80","title":"SP - JUQUITIBA","name":"SP - JUQUITIBA","tipo":"Munic\u00edpio","url":"\/dashboard\/details-assets\/975c8d3c-7c0e-43a5-97b4-bf65256e1d80"},"geometry":{"type":"Point","coordinates":[-47.0653,-23.9244]}},{"type":"Feature","properties":{"municipio":"50d3ec69-a3d1-40c7-984d-a1ef91f08f9b","title":"SP - JUNQUEIROPOLIS","name":"SP - JUNQUEIROPOLIS","tipo":"Munic\u00edpio","url":"\/dashboard\/details-assets\/50d3ec69-a3d1-40c7-984d-a1ef91f08f9b"},"geometry":{"type":"Point","coordinates":[-51.4342,-21.5103]}},{"type":"Feature","properties":{"municipio":"cd536d7a-b18f-445e-8887-6967fe706a25","title":"SP - JUNDIAI","name":"SP - JUNDIAI","tipo":"Munic\u00edpio","url":"\/dashboard\/details-assets\/cd536d7a-b18f-445e-8887-6967fe706a25"},"geometry":{"type":"Point","coordinates":[-46.8974,-23.1852]}},{"type":"Feature","properties":{"municipio":"7148d06c-bea8-47e1-8411-4e0e50f222d7","title":"SP - JOSE BONIFACIO","name":"SP - JOSE BONIFACIO","tipo":"Munic\u00edpio","url":"\/dashboard\/details-assets\/7148d06c-bea8-47e1-8411-4e0e50f222d7"},"geometry":{"type":"Point","coordinates":[-49.6892,-21.0551]}},{"type":"Feature","properties":{"municipio":"abfceec9-1114-4829-a2aa-99fae714bc21","title":"SP - JAU","name":"SP - JAU","tipo":"Munic\u00edpio","url":"\/dashboard\/details-assets\/abfceec9-1114-4829-a2aa-99fae714bc21"},"geometry":{"type":"Point","coordinates":[-48.5592,-22.2936]}},{"type":"Feature","properties":{"municipio":"5b8853ab-15ec-42ac-a2ee-5dc8d356493d","title":"SP - JARDINOPOLIS","name":"SP - JARDINOPOLIS","tipo":"Munic\u00edpio","url":"\/dashboard\/details-assets\/5b8853ab-15ec-42ac-a2ee-5dc8d356493d"},"geometry":{"type":"Point","coordinates":[-47.7606,-21.0176]}},{"type":"Feature","properties":{"municipio":"056903dc-80fa-4b84-8b2c-aa1608d082dc","title":"SP - JANDIRA","name":"SP - JANDIRA","tipo":"Munic\u00edpio","url":"\/dashboard\/details-assets\/056903dc-80fa-4b84-8b2c-aa1608d082dc"},"geometry":{"type":"Point","coordinates":[-46.9023,-23.5275]}},{"type":"Feature","properties":{"municipio":"95ee7573-b05c-4bb7-a5dd-4bb3be71eb0e","title":"SP - JALES","name":"SP - JALES","tipo":"Munic\u00edpio","url":"\/dashboard\/details-assets\/95ee7573-b05c-4bb7-a5dd-4bb3be71eb0e"},"geometry":{"type":"Point","coordinates":[-50.5494,-20.2672]}},{"type":"Feature","properties":{"municipio":"b3a3a913-7b68-48d9-8fd0-0884cf6eae19","title":"SP - JAGUARIUNA","name":"SP - JAGUARIUNA","tipo":"Munic\u00edpio","url":"\/dashboard\/details-assets\/b3a3a913-7b68-48d9-8fd0-0884cf6eae19"},"geometry":{"type":"Point","coordinates":[-46.9851,-22.7037]}},{"type":"Feature","properties":{"municipio":"7b0aea2c-8995-48b1-822b-f554ef533d79","title":"SP - JACAREI","name":"SP - JACAREI","tipo":"Munic\u00edpio","url":"\/dashboard\/details-assets\/7b0aea2c-8995-48b1-822b-f554ef533d79"},"geometry":{"type":"Point","coordinates":[-45.9658,-23.2983]}},{"type":"Feature","properties":{"municipio":"d375b084-a1df-42a3-8ab1-572027c1f60a","title":"SP - JABOTICABAL","name":"SP - JABOTICABAL","tipo":"Munic\u00edpio","url":"\/dashboard\/details-assets\/d375b084-a1df-42a3-8ab1-572027c1f60a"},"geometry":{"type":"Point","coordinates":[-48.3252,-21.252]}},{"type":"Feature","properties":{"municipio":"3fde8896-a4eb-4c61-888c-31f72b1276b0","title":"SP - ITUVERAVA","name":"SP - ITUVERAVA","tipo":"Munic\u00edpio","url":"\/dashboard\/details-assets\/3fde8896-a4eb-4c61-888c-31f72b1276b0"},"geometry":{"type":"Point","coordinates":[-47.7902,-20.3355]}},{"type":"Feature","properties":{"municipio":"bdd34eb4-420a-4d81-966e-576d27b94039","title":"SP - ITUPEVA","name":"SP - ITUPEVA","tipo":"Munic\u00edpio","url":"\/dashboard\/details-assets\/bdd34eb4-420a-4d81-966e-576d27b94039"},"geometry":{"type":"Point","coordinates":[-47.0593,-23.1526]}},{"type":"Feature","properties":{"municipio":"f7f8a6ac-f2d1-4240-94f5-b129cf0cbcfe","title":"SP - ITIRAPINA","name":"SP - ITIRAPINA","tipo":"Munic\u00edpio","url":"\/dashboard\/details-assets\/f7f8a6ac-f2d1-4240-94f5-b129cf0cbcfe"},"geometry":{"type":"Point","coordinates":[-47.8166,-22.2562]}},{"type":"Feature","properties":{"municipio":"15f65ca7-0c5e-49e4-aa10-b7a5dbc0b3fb","title":"SP - ITU","name":"SP - ITU","tipo":"Munic\u00edpio","url":"\/dashboard\/details-assets\/15f65ca7-0c5e-49e4-aa10-b7a5dbc0b3fb"},"geometry":{"type":"Point","coordinates":[-47.2927,-23.2544]}},{"type":"Feature","properties":{"municipio":"522129cc-8d04-44b1-a870-498b2204d316","title":"SP - ITATINGA","name":"SP - ITATINGA","tipo":"Munic\u00edpio","url":"\/dashboard\/details-assets\/522129cc-8d04-44b1-a870-498b2204d316"},"geometry":{"type":"Point","coordinates":[-48.6157,-23.1047]}},{"type":"Feature","properties":{"municipio":"e818a39f-51aa-43d0-91dd-6a3c58dff68c","title":"SP - ITARARE","name":"SP - ITARARE","tipo":"Munic\u00edpio","url":"\/dashboard\/details-assets\/e818a39f-51aa-43d0-91dd-6a3c58dff68c"},"geometry":{"type":"Point","coordinates":[-49.3352,-24.1085]}},{"type":"Feature","properties":{"municipio":"c63bdf91-e582-451a-a465-34bbc5e2ce21","title":"SP - ITATIBA","name":"SP - ITATIBA","tipo":"Munic\u00edpio","url":"\/dashboard\/details-assets\/c63bdf91-e582-451a-a465-34bbc5e2ce21"},"geometry":{"type":"Point","coordinates":[-46.8464,-23.0035]}},{"type":"Feature","properties":{"municipio":"18bbfc33-7a02-41a1-b2d2-dc6434278051","title":"SP - ITAQUAQUECETUBA","name":"SP - ITAQUAQUECETUBA","tipo":"Munic\u00edpio","url":"\/dashboard\/details-assets\/18bbfc33-7a02-41a1-b2d2-dc6434278051"},"geometry":{"type":"Point","coordinates":[-46.3457,-23.4835]}},{"type":"Feature","properties":{"municipio":"48eb3969-5288-4f99-b299-c05194a8941d","title":"SP - ITAPIRA","name":"SP - ITAPIRA","tipo":"Munic\u00edpio","url":"\/dashboard\/details-assets\/48eb3969-5288-4f99-b299-c05194a8941d"},"geometry":{"type":"Point","coordinates":[-46.8224,-22.4357]}},{"type":"Feature","properties":{"municipio":"961a4204-314d-414b-a76d-e9a4f2f3fb82","title":"SP - ITAPOLIS","name":"SP - ITAPOLIS","tipo":"Munic\u00edpio","url":"\/dashboard\/details-assets\/961a4204-314d-414b-a76d-e9a4f2f3fb82"},"geometry":{"type":"Point","coordinates":[-48.8149,-21.5942]}},{"type":"Feature","properties":{"municipio":"42c5b4c2-9ba5-4d92-b697-e52738df2cd7","title":"SP - ITAPEVI","name":"SP - ITAPEVI","tipo":"Munic\u00edpio","url":"\/dashboard\/details-assets\/42c5b4c2-9ba5-4d92-b697-e52738df2cd7"},"geometry":{"type":"Point","coordinates":[-46.9327,-23.5488]}},{"type":"Feature","properties":{"municipio":"8f526adb-c1b8-46fc-b6b3-91dc1b0115d0","title":"SP - ITAPEVA","name":"SP - ITAPEVA","tipo":"Munic\u00edpio","url":"\/dashboard\/details-assets\/8f526adb-c1b8-46fc-b6b3-91dc1b0115d0"},"geometry":{"type":"Point","coordinates":[-48.8764,-23.9788]}},{"type":"Feature","properties":{"municipio":"387ea092-179d-4788-84d7-7a88a5f61682","title":"SP - ITAPETININGA","name":"SP - ITAPETININGA","tipo":"Munic\u00edpio","url":"\/dashboard\/details-assets\/387ea092-179d-4788-84d7-7a88a5f61682"},"geometry":{"type":"Point","coordinates":[-48.0483,-23.5886]}},{"type":"Feature","properties":{"municipio":"84805b72-164e-4861-96dd-8096c67c952b","title":"SP - ITAPECERICA DA SERRA","name":"SP - ITAPECERICA DA SERRA","tipo":"Munic\u00edpio","url":"\/dashboard\/details-assets\/84805b72-164e-4861-96dd-8096c67c952b"},"geometry":{"type":"Point","coordinates":[-46.8572,-23.7161]}},{"type":"Feature","properties":{"municipio":"357a82d1-9f43-4d04-a655-d485e48ea0eb","title":"SP - ITANHAEM","name":"SP - ITANHAEM","tipo":"Munic\u00edpio","url":"\/dashboard\/details-assets\/357a82d1-9f43-4d04-a655-d485e48ea0eb"},"geometry":{"type":"Point","coordinates":[-46.788,-24.1736]}},{"type":"Feature","properties":{"municipio":"bb1a0f9b-58f5-44b0-a41e-e62081a26c68","title":"SP - ITAI","name":"SP - ITAI","tipo":"Munic\u00edpio","url":"\/dashboard\/details-assets\/bb1a0f9b-58f5-44b0-a41e-e62081a26c68"},"geometry":{"type":"Point","coordinates":[-49.092,-23.4213]}},{"type":"Feature","properties":{"municipio":"81a912b3-b7b8-48d2-8bfa-96b42f9f70a9","title":"SP - IPERO","name":"SP - IPERO","tipo":"Munic\u00edpio","url":"\/dashboard\/details-assets\/81a912b3-b7b8-48d2-8bfa-96b42f9f70a9"},"geometry":{"type":"Point","coordinates":[-47.6927,-23.3513]}},{"type":"Feature","properties":{"municipio":"56016e8a-d044-4ee6-9db9-e46f5770a639","title":"SP - IRAPURU","name":"SP - IRAPURU","tipo":"Munic\u00edpio","url":"\/dashboard\/details-assets\/56016e8a-d044-4ee6-9db9-e46f5770a639"},"geometry":{"type":"Point","coordinates":[-51.3472,-21.5684]}},{"type":"Feature","properties":{"municipio":"35b40304-4b79-4db4-ab5d-86ba44e0259b","title":"SP - INDAIATUBA","name":"SP - INDAIATUBA","tipo":"Munic\u00edpio","url":"\/dashboard\/details-assets\/35b40304-4b79-4db4-ab5d-86ba44e0259b"},"geometry":{"type":"Point","coordinates":[-47.2101,-23.0816]}},{"type":"Feature","properties":{"municipio":"6bca07fa-13fa-40ea-9883-eb94fab7458b","title":"SP - ILHA SOLTEIRA","name":"SP - ILHA SOLTEIRA","tipo":"Munic\u00edpio","url":"\/dashboard\/details-assets\/6bca07fa-13fa-40ea-9883-eb94fab7458b"},"geometry":{"type":"Point","coordinates":[-51.3426,-20.4326]}},{"type":"Feature","properties":{"municipio":"af5eb7cf-ad8a-4c4d-9c76-11070306a320","title":"SP - ILHABELA","name":"SP - ILHABELA","tipo":"Munic\u00edpio","url":"\/dashboard\/details-assets\/af5eb7cf-ad8a-4c4d-9c76-11070306a320"},"geometry":{"type":"Point","coordinates":[-45.3552,-23.7785]}},{"type":"Feature","properties":{"municipio":"f482c770-7dfd-49f9-9146-362492712f43","title":"SP - IGUAPE","name":"SP - IGUAPE","tipo":"Munic\u00edpio","url":"\/dashboard\/details-assets\/f482c770-7dfd-49f9-9146-362492712f43"},"geometry":{"type":"Point","coordinates":[-47.5537,-24.699]}},{"type":"Feature","properties":{"municipio":"ea77012e-7635-4842-a7d9-bda4625f1f9c","title":"SP - ICEM","name":"SP - ICEM","tipo":"Munic\u00edpio","url":"\/dashboard\/details-assets\/ea77012e-7635-4842-a7d9-bda4625f1f9c"},"geometry":{"type":"Point","coordinates":[-49.1915,-20.3391]}},{"type":"Feature","properties":{"municipio":"6a3fc927-8801-4ec0-a6de-e2a9050a3214","title":"SP - IBIUNA","name":"SP - IBIUNA","tipo":"Munic\u00edpio","url":"\/dashboard\/details-assets\/6a3fc927-8801-4ec0-a6de-e2a9050a3214"},"geometry":{"type":"Point","coordinates":[-47.223,-23.6596]}},{"type":"Feature","properties":{"municipio":"efef95ff-245b-404e-8e9c-d759abb3f8f1","title":"SP - IBITINGA","name":"SP - IBITINGA","tipo":"Munic\u00edpio","url":"\/dashboard\/details-assets\/efef95ff-245b-404e-8e9c-d759abb3f8f1"},"geometry":{"type":"Point","coordinates":[-48.8319,-21.7562]}},{"type":"Feature","properties":{"municipio":"8a6cddb3-0874-4daf-91d3-dc9292a6acd8","title":"SP - IBATE","name":"SP - IBATE","tipo":"Munic\u00edpio","url":"\/dashboard\/details-assets\/8a6cddb3-0874-4daf-91d3-dc9292a6acd8"},"geometry":{"type":"Point","coordinates":[-47.9882,-21.9584]}},{"type":"Feature","properties":{"municipio":"8239896c-1c44-4396-9ff8-3c22b8d6341a","title":"SP - IARAS","name":"SP - IARAS","tipo":"Munic\u00edpio","url":"\/dashboard\/details-assets\/8239896c-1c44-4396-9ff8-3c22b8d6341a"},"geometry":{"type":"Point","coordinates":[-49.1634,-22.8682]}},{"type":"Feature","properties":{"municipio":"1b9098bc-9259-44c1-ad9e-f37b6e4e80ed","title":"SP - GUARULHOS","name":"SP - GUARULHOS","tipo":"Munic\u00edpio","url":"\/dashboard\/details-assets\/1b9098bc-9259-44c1-ad9e-f37b6e4e80ed"},"geometry":{"type":"Point","coordinates":[-46.5333,-23.4538]}},{"type":"Feature","properties":{"municipio":"9ef8f856-e17c-4439-9194-769614efe66b","title":"SP - HORTOLANDIA","name":"SP - HORTOLANDIA","tipo":"Munic\u00edpio","url":"\/dashboard\/details-assets\/9ef8f856-e17c-4439-9194-769614efe66b"},"geometry":{"type":"Point","coordinates":[-47.2143,-22.8529]}},{"type":"Feature","properties":{"municipio":"99d3f32b-3b25-41a7-834f-d0342d03c190","title":"SP - GUARUJA","name":"SP - GUARUJA","tipo":"Munic\u00edpio","url":"\/dashboard\/details-assets\/99d3f32b-3b25-41a7-834f-d0342d03c190"},"geometry":{"type":"Point","coordinates":[-46.258,-23.9888]}},{"type":"Feature","properties":{"municipio":"db83dcac-804b-4002-8519-8bcdebf91cf8","title":"SP - GUARIBA","name":"SP - GUARIBA","tipo":"Munic\u00edpio","url":"\/dashboard\/details-assets\/db83dcac-804b-4002-8519-8bcdebf91cf8"},"geometry":{"type":"Point","coordinates":[-48.2316,-21.3594]}},{"type":"Feature","properties":{"municipio":"cf27d184-d3eb-4b29-a8de-7e672fd461cf","title":"SP - GUAREI","name":"SP - GUAREI","tipo":"Munic\u00edpio","url":"\/dashboard\/details-assets\/cf27d184-d3eb-4b29-a8de-7e672fd461cf"},"geometry":{"type":"Point","coordinates":[-48.1837,-23.3714]}},{"type":"Feature","properties":{"municipio":"4da3ffa2-98f5-4500-943c-4e4fbb1a931d","title":"SP - GUARATINGUETA","name":"SP - GUARATINGUETA","tipo":"Munic\u00edpio","url":"\/dashboard\/details-assets\/4da3ffa2-98f5-4500-943c-4e4fbb1a931d"},"geometry":{"type":"Point","coordinates":[-45.1938,-22.8075]}},{"type":"Feature","properties":{"municipio":"ae2d4dc6-0bbe-4962-9c2f-9101982cc6b3","title":"SP - GUAIRA","name":"SP - GUAIRA","tipo":"Munic\u00edpio","url":"\/dashboard\/details-assets\/ae2d4dc6-0bbe-4962-9c2f-9101982cc6b3"},"geometry":{"type":"Point","coordinates":[-48.312,-20.3196]}},{"type":"Feature","properties":{"municipio":"92a57616-e95e-4506-95db-71366407570a","title":"SP - GUARARAPES","name":"SP - GUARARAPES","tipo":"Munic\u00edpio","url":"\/dashboard\/details-assets\/92a57616-e95e-4506-95db-71366407570a"},"geometry":{"type":"Point","coordinates":[-50.6453,-21.2544]}},{"type":"Feature","properties":{"municipio":"1c42525b-ea17-4864-b6e1-82d1ddde21f3","title":"SP - GETULINA","name":"SP - GETULINA","tipo":"Munic\u00edpio","url":"\/dashboard\/details-assets\/1c42525b-ea17-4864-b6e1-82d1ddde21f3"},"geometry":{"type":"Point","coordinates":[-49.9312,-21.7961]}},{"type":"Feature","properties":{"municipio":"af843023-3f1c-4262-9625-49bc59b753c9","title":"SP - FRANCO DA ROCHA","name":"SP - FRANCO DA ROCHA","tipo":"Munic\u00edpio","url":"\/dashboard\/details-assets\/af843023-3f1c-4262-9625-49bc59b753c9"},"geometry":{"type":"Point","coordinates":[-46.729,-23.3229]}},{"type":"Feature","properties":{"municipio":"42132e8f-21a0-4489-bc75-c352161f3a2c","title":"SP - GARCA","name":"SP - GARCA","tipo":"Munic\u00edpio","url":"\/dashboard\/details-assets\/42132e8f-21a0-4489-bc75-c352161f3a2c"},"geometry":{"type":"Point","coordinates":[-49.6546,-22.2125]}},{"type":"Feature","properties":{"municipio":"b4a9e671-8045-44db-8737-0396fca10374","title":"SP - FRANCISCO MORATO","name":"SP - FRANCISCO MORATO","tipo":"Munic\u00edpio","url":"\/dashboard\/details-assets\/b4a9e671-8045-44db-8737-0396fca10374"},"geometry":{"type":"Point","coordinates":[-46.7448,-23.2792]}},{"type":"Feature","properties":{"municipio":"530f9840-a5cd-4c89-96e2-2c7931a82f4a","title":"SP - FRANCA","name":"SP - FRANCA","tipo":"Munic\u00edpio","url":"\/dashboard\/details-assets\/530f9840-a5cd-4c89-96e2-2c7931a82f4a"},"geometry":{"type":"Point","coordinates":[-47.4039,-20.5352]}},{"type":"Feature","properties":{"municipio":"093efab2-a3b5-4f32-8e5f-603f543ca588","title":"SP - FLORINIA","name":"SP - FLORINIA","tipo":"Munic\u00edpio","url":"\/dashboard\/details-assets\/093efab2-a3b5-4f32-8e5f-603f543ca588"},"geometry":{"type":"Point","coordinates":[-50.6814,-22.868]}},{"type":"Feature","properties":{"municipio":"ef30323f-e9ad-4221-925d-4dbae0b26f8f","title":"SP - FLORIDA PAULISTA","name":"SP - FLORIDA PAULISTA","tipo":"Munic\u00edpio","url":"\/dashboard\/details-assets\/ef30323f-e9ad-4221-925d-4dbae0b26f8f"},"geometry":{"type":"Point","coordinates":[-51.1724,-21.6127]}},{"type":"Feature","properties":{"municipio":"9d729d4e-d633-48e0-94cf-9d6b31ab4214","title":"SP - FERRAZ DE VASCONCELOS","name":"SP - FERRAZ DE VASCONCELOS","tipo":"Munic\u00edpio","url":"\/dashboard\/details-assets\/9d729d4e-d633-48e0-94cf-9d6b31ab4214"},"geometry":{"type":"Point","coordinates":[-46.371,-23.5411]}},{"type":"Feature","properties":{"municipio":"6ab443ee-9cb1-4808-9f5c-6bd72953e712","title":"SP - FERNANDOPOLIS","name":"SP - FERNANDOPOLIS","tipo":"Munic\u00edpio","url":"\/dashboard\/details-assets\/6ab443ee-9cb1-4808-9f5c-6bd72953e712"},"geometry":{"type":"Point","coordinates":[-50.2471,-20.2806]}},{"type":"Feature","properties":{"municipio":"fedc8dcc-fe3b-46e6-b0ad-4bd6900cd876","title":"SP - ESPIRITO SANTO DO PINHAL","name":"SP - ESPIRITO SANTO DO PINHAL","tipo":"Munic\u00edpio","url":"\/dashboard\/details-assets\/fedc8dcc-fe3b-46e6-b0ad-4bd6900cd876"},"geometry":{"type":"Point","coordinates":[-46.7477,-22.1909]}},{"type":"Feature","properties":{"municipio":"9b97fe8b-3507-48f1-a410-5261992a6b4c","title":"SP - EMBU-GUACU","name":"SP - EMBU-GUACU","tipo":"Munic\u00edpio","url":"\/dashboard\/details-assets\/9b97fe8b-3507-48f1-a410-5261992a6b4c"},"geometry":{"type":"Point","coordinates":[-46.8136,-23.8297]}},{"type":"Feature","properties":{"municipio":"74558e37-fecd-4622-baf8-bc4307723a46","title":"SP - EMBU DAS ARTES","name":"SP - EMBU DAS ARTES","tipo":"Munic\u00edpio","url":"\/dashboard\/details-assets\/74558e37-fecd-4622-baf8-bc4307723a46"},"geometry":{"type":"Point","coordinates":[-46.8579,-23.6437]}},{"type":"Feature","properties":{"municipio":"9ae31a9a-cfba-4d9b-ba62-2485b4387b68","title":"SP - ELDORADO","name":"SP - ELDORADO","tipo":"Munic\u00edpio","url":"\/dashboard\/details-assets\/9ae31a9a-cfba-4d9b-ba62-2485b4387b68"},"geometry":{"type":"Point","coordinates":[-48.1141,-24.5281]}},{"type":"Feature","properties":{"municipio":"9bbce51d-4d27-4425-b90e-0008b30ba446","title":"SP - DRACENA","name":"SP - DRACENA","tipo":"Munic\u00edpio","url":"\/dashboard\/details-assets\/9bbce51d-4d27-4425-b90e-0008b30ba446"},"geometry":{"type":"Point","coordinates":[-51.535,-21.4843]}},{"type":"Feature","properties":{"municipio":"e06dc1d5-2f21-4e3b-b7cc-c82ce41b3c23","title":"SP - CUBATAO","name":"SP - CUBATAO","tipo":"Munic\u00edpio","url":"\/dashboard\/details-assets\/e06dc1d5-2f21-4e3b-b7cc-c82ce41b3c23"},"geometry":{"type":"Point","coordinates":[-46.424,-23.8911]}},{"type":"Feature","properties":{"municipio":"8f7b837a-6c5c-41d2-977d-3e1e9c6f5b4f","title":"SP - DIADEMA","name":"SP - DIADEMA","tipo":"Munic\u00edpio","url":"\/dashboard\/details-assets\/8f7b837a-6c5c-41d2-977d-3e1e9c6f5b4f"},"geometry":{"type":"Point","coordinates":[-46.6205,-23.6813]}},{"type":"Feature","properties":{"municipio":"23d1d2ad-e754-4162-9e26-7b45887b57d4","title":"SP - CRUZEIRO","name":"SP - CRUZEIRO","tipo":"Munic\u00edpio","url":"\/dashboard\/details-assets\/23d1d2ad-e754-4162-9e26-7b45887b57d4"},"geometry":{"type":"Point","coordinates":[-44.969,-22.5728]}},{"type":"Feature","properties":{"municipio":"92658519-c1e3-40d1-b38e-cbec7f5a92a7","title":"SP - COTIA","name":"SP - COTIA","tipo":"Munic\u00edpio","url":"\/dashboard\/details-assets\/92658519-c1e3-40d1-b38e-cbec7f5a92a7"},"geometry":{"type":"Point","coordinates":[-46.919,-23.6022]}},{"type":"Feature","properties":{"municipio":"737e5cff-80fe-43dd-8db5-892716ad97bb","title":"SP - COSMOPOLIS","name":"SP - COSMOPOLIS","tipo":"Munic\u00edpio","url":"\/dashboard\/details-assets\/737e5cff-80fe-43dd-8db5-892716ad97bb"},"geometry":{"type":"Point","coordinates":[-47.1926,-22.6419]}},{"type":"Feature","properties":{"municipio":"814a388f-e2cd-4730-aa38-c8f854d2ac8e","title":"SP - CERQUEIRA CESAR","name":"SP - CERQUEIRA CESAR","tipo":"Munic\u00edpio","url":"\/dashboard\/details-assets\/814a388f-e2cd-4730-aa38-c8f854d2ac8e"},"geometry":{"type":"Point","coordinates":[-49.1655,-23.038]}},{"type":"Feature","properties":{"municipio":"a163f917-ef83-4ae2-8c99-d61ff3aaee8e","title":"SP - CERQUILHO","name":"SP - CERQUILHO","tipo":"Munic\u00edpio","url":"\/dashboard\/details-assets\/a163f917-ef83-4ae2-8c99-d61ff3aaee8e"},"geometry":{"type":"Point","coordinates":[-47.7459,-23.1665]}},{"type":"Feature","properties":{"municipio":"c8566183-c2b3-4d15-9efb-6519fe1f2533","title":"SP - CATANDUVA","name":"SP - CATANDUVA","tipo":"Munic\u00edpio","url":"\/dashboard\/details-assets\/c8566183-c2b3-4d15-9efb-6519fe1f2533"},"geometry":{"type":"Point","coordinates":[-48.977,-21.1314]}},{"type":"Feature","properties":{"municipio":"38d50c9e-de6d-40d0-83d4-716875804c4c","title":"SP - CASA BRANCA","name":"SP - CASA BRANCA","tipo":"Munic\u00edpio","url":"\/dashboard\/details-assets\/38d50c9e-de6d-40d0-83d4-716875804c4c"},"geometry":{"type":"Point","coordinates":[-47.0852,-21.7708]}},{"type":"Feature","properties":{"municipio":"4e1acded-05fb-4320-8dbe-27676e76e51b","title":"SP - CARAGUATATUBA","name":"SP - CARAGUATATUBA","tipo":"Munic\u00edpio","url":"\/dashboard\/details-assets\/4e1acded-05fb-4320-8dbe-27676e76e51b"},"geometry":{"type":"Point","coordinates":[-45.4125,-23.6125]}},{"type":"Feature","properties":{"municipio":"c97d872d-4308-4fc1-bf85-ecc08f83eb5a","title":"SP - CARAPICUIBA","name":"SP - CARAPICUIBA","tipo":"Munic\u00edpio","url":"\/dashboard\/details-assets\/c97d872d-4308-4fc1-bf85-ecc08f83eb5a"},"geometry":{"type":"Point","coordinates":[-46.8407,-23.5235]}},{"type":"Feature","properties":{"municipio":"ac3bfede-ed52-44a6-a617-57d2d8571fb1","title":"SP - CAPIVARI","name":"SP - CAPIVARI","tipo":"Munic\u00edpio","url":"\/dashboard\/details-assets\/ac3bfede-ed52-44a6-a617-57d2d8571fb1"},"geometry":{"type":"Point","coordinates":[-47.5071,-22.9951]}},{"type":"Feature","properties":{"municipio":"5c1a86bb-9868-4641-bd57-16b67fb3d330","title":"SP - CAPELA DO ALTO","name":"SP - CAPELA DO ALTO","tipo":"Munic\u00edpio","url":"\/dashboard\/details-assets\/5c1a86bb-9868-4641-bd57-16b67fb3d330"},"geometry":{"type":"Point","coordinates":[-47.7388,-23.4685]}},{"type":"Feature","properties":{"municipio":"0ed5db7a-b748-41d2-b222-163603365d1a","title":"SP - CAPAO BONITO","name":"SP - CAPAO BONITO","tipo":"Munic\u00edpio","url":"\/dashboard\/details-assets\/0ed5db7a-b748-41d2-b222-163603365d1a"},"geometry":{"type":"Point","coordinates":[-48.3482,-24.0113]}},{"type":"Feature","properties":{"municipio":"49cfed12-95e8-4d46-b3a1-e80288275d58","title":"SP - CANDIDO MOTA","name":"SP - CANDIDO MOTA","tipo":"Munic\u00edpio","url":"\/dashboard\/details-assets\/49cfed12-95e8-4d46-b3a1-e80288275d58"},"geometry":{"type":"Point","coordinates":[-50.3873,-22.7471]}},{"type":"Feature","properties":{"municipio":"70f87823-4802-4c6c-b5b1-2a5bf8ea9d98","title":"SP - CAMPOS DO JORDAO","name":"SP - CAMPOS DO JORDAO","tipo":"Munic\u00edpio","url":"\/dashboard\/details-assets\/70f87823-4802-4c6c-b5b1-2a5bf8ea9d98"},"geometry":{"type":"Point","coordinates":[-45.5833,-22.7296]}},{"type":"Feature","properties":{"municipio":"16d31e21-dd90-447c-a29c-b4e4894489ec","title":"SP - CAMPO LIMPO PAULISTA","name":"SP - CAMPO LIMPO PAULISTA","tipo":"Munic\u00edpio","url":"\/dashboard\/details-assets\/16d31e21-dd90-447c-a29c-b4e4894489ec"},"geometry":{"type":"Point","coordinates":[-46.7889,-23.2078]}},{"type":"Feature","properties":{"municipio":"ab000f06-2f9c-45e1-b455-00abd02214d9","title":"SP - CAMPINAS","name":"SP - CAMPINAS","tipo":"Munic\u00edpio","url":"\/dashboard\/details-assets\/ab000f06-2f9c-45e1-b455-00abd02214d9"},"geometry":{"type":"Point","coordinates":[-47.0659,-22.9053]}},{"type":"Feature","properties":{"municipio":"5850e3a4-766d-4a6b-b560-73b83a58409c","title":"SP - CAJURU","name":"SP - CAJURU","tipo":"Munic\u00edpio","url":"\/dashboard\/details-assets\/5850e3a4-766d-4a6b-b560-73b83a58409c"},"geometry":{"type":"Point","coordinates":[-47.303,-21.2749]}},{"type":"Feature","properties":{"municipio":"eea6d557-0fa3-48b8-b65a-3ca3dbdcc46b","title":"SP - CAJATI","name":"SP - CAJATI","tipo":"Munic\u00edpio","url":"\/dashboard\/details-assets\/eea6d557-0fa3-48b8-b65a-3ca3dbdcc46b"},"geometry":{"type":"Point","coordinates":[-48.1223,-24.7324]}},{"type":"Feature","properties":{"municipio":"24e88d68-20c4-4944-b85a-9ad82483c96a","title":"SP - CAJAMAR","name":"SP - CAJAMAR","tipo":"Munic\u00edpio","url":"\/dashboard\/details-assets\/24e88d68-20c4-4944-b85a-9ad82483c96a"},"geometry":{"type":"Point","coordinates":[-46.8781,-23.355]}},{"type":"Feature","properties":{"municipio":"65aa3706-7208-42d5-97bd-dd10139bfec5","title":"SP - CAIEIRAS","name":"SP - CAIEIRAS","tipo":"Munic\u00edpio","url":"\/dashboard\/details-assets\/65aa3706-7208-42d5-97bd-dd10139bfec5"},"geometry":{"type":"Point","coordinates":[-46.7397,-23.3607]}},{"type":"Feature","properties":{"municipio":"3f4eeee1-dc58-4645-a5cc-fa10a45e8b2f","title":"SP - CACHOEIRA PAULISTA","name":"SP - CACHOEIRA PAULISTA","tipo":"Munic\u00edpio","url":"\/dashboard\/details-assets\/3f4eeee1-dc58-4645-a5cc-fa10a45e8b2f"},"geometry":{"type":"Point","coordinates":[-45.0154,-22.6665]}},{"type":"Feature","properties":{"municipio":"373285b4-31f5-4470-ad2f-9607fb31d504","title":"SP - CACAPAVA","name":"SP - CACAPAVA","tipo":"Munic\u00edpio","url":"\/dashboard\/details-assets\/373285b4-31f5-4470-ad2f-9607fb31d504"},"geometry":{"type":"Point","coordinates":[-45.7076,-23.0992]}},{"type":"Feature","properties":{"municipio":"d938e650-dc4f-44af-9d60-b6f6cf380445","title":"SP - CABREUVA","name":"SP - CABREUVA","tipo":"Munic\u00edpio","url":"\/dashboard\/details-assets\/d938e650-dc4f-44af-9d60-b6f6cf380445"},"geometry":{"type":"Point","coordinates":[-47.1362,-23.3053]}},{"type":"Feature","properties":{"municipio":"6ffd4806-4f56-4d81-9020-abda6a0bc616","title":"SP - BRAGANCA PAULISTA","name":"SP - BRAGANCA PAULISTA","tipo":"Munic\u00edpio","url":"\/dashboard\/details-assets\/6ffd4806-4f56-4d81-9020-abda6a0bc616"},"geometry":{"type":"Point","coordinates":[-46.5419,-22.9527]}},{"type":"Feature","properties":{"municipio":"7a4e1243-9e00-42ef-aede-c67fca8da3ba","title":"SP - BOTUCATU","name":"SP - BOTUCATU","tipo":"Munic\u00edpio","url":"\/dashboard\/details-assets\/7a4e1243-9e00-42ef-aede-c67fca8da3ba"},"geometry":{"type":"Point","coordinates":[-48.4437,-22.8837]}},{"type":"Feature","properties":{"municipio":"d57eaec5-a794-4f0f-852b-c8b64eafadd8","title":"SP - BOITUVA","name":"SP - BOITUVA","tipo":"Munic\u00edpio","url":"\/dashboard\/details-assets\/d57eaec5-a794-4f0f-852b-c8b64eafadd8"},"geometry":{"type":"Point","coordinates":[-47.6786,-23.2855]}},{"type":"Feature","properties":{"municipio":"9d61b93c-7ef1-4f8c-baf2-dae419451895","title":"SP - BIRIGUI","name":"SP - BIRIGUI","tipo":"Munic\u00edpio","url":"\/dashboard\/details-assets\/9d61b93c-7ef1-4f8c-baf2-dae419451895"},"geometry":{"type":"Point","coordinates":[-50.3432,-21.291]}},{"type":"Feature","properties":{"municipio":"c346a186-04f8-491c-94c8-9641dde977fe","title":"SP - BERTIOGA","name":"SP - BERTIOGA","tipo":"Munic\u00edpio","url":"\/dashboard\/details-assets\/c346a186-04f8-491c-94c8-9641dde977fe"},"geometry":{"type":"Point","coordinates":[-46.1396,-23.8486]}},{"type":"Feature","properties":{"municipio":"5dae7276-511d-4b9e-b03c-444c332fce51","title":"SP - BERNARDINO DE CAMPOS","name":"SP - BERNARDINO DE CAMPOS","tipo":"Munic\u00edpio","url":"\/dashboard\/details-assets\/5dae7276-511d-4b9e-b03c-444c332fce51"},"geometry":{"type":"Point","coordinates":[-49.4679,-23.0164]}},{"type":"Feature","properties":{"municipio":"2993f0bd-55b0-455b-bc6c-bdc0537409e9","title":"SP - BEBEDOURO","name":"SP - BEBEDOURO","tipo":"Munic\u00edpio","url":"\/dashboard\/details-assets\/2993f0bd-55b0-455b-bc6c-bdc0537409e9"},"geometry":{"type":"Point","coordinates":[-48.4791,-20.9491]}},{"type":"Feature","properties":{"municipio":"e6945372-418a-405b-b8a9-98025dedd701","title":"SP - BAURU","name":"SP - BAURU","tipo":"Munic\u00edpio","url":"\/dashboard\/details-assets\/e6945372-418a-405b-b8a9-98025dedd701"},"geometry":{"type":"Point","coordinates":[-49.0871,-22.3246]}},{"type":"Feature","properties":{"municipio":"c6683ae5-bc49-4c65-8853-c1fabf06c930","title":"SP - BATATAIS","name":"SP - BATATAIS","tipo":"Munic\u00edpio","url":"\/dashboard\/details-assets\/c6683ae5-bc49-4c65-8853-c1fabf06c930"},"geometry":{"type":"Point","coordinates":[-47.5921,-20.8929]}},{"type":"Feature","properties":{"municipio":"4fd1d1ca-07b8-410b-9335-14d5f0cb3a21","title":"SP - BARUERI","name":"SP - BARUERI","tipo":"Munic\u00edpio","url":"\/dashboard\/details-assets\/4fd1d1ca-07b8-410b-9335-14d5f0cb3a21"},"geometry":{"type":"Point","coordinates":[-46.879,-23.5057]}},{"type":"Feature","properties":{"municipio":"9b7b6e11-26ed-4006-b51a-b9ee57ecc322","title":"SP - BARRINHA","name":"SP - BARRINHA","tipo":"Munic\u00edpio","url":"\/dashboard\/details-assets\/9b7b6e11-26ed-4006-b51a-b9ee57ecc322"},"geometry":{"type":"Point","coordinates":[-48.1636,-21.1864]}},{"type":"Feature","properties":{"municipio":"5431a958-5dae-41a7-86ad-fe181a363879","title":"SP - BARRETOS","name":"SP - BARRETOS","tipo":"Munic\u00edpio","url":"\/dashboard\/details-assets\/5431a958-5dae-41a7-86ad-fe181a363879"},"geometry":{"type":"Point","coordinates":[-48.5698,-20.5531]}},{"type":"Feature","properties":{"municipio":"2340227d-5ed9-429e-868c-cba7611d1efe","title":"SP - BARRA DO TURVO","name":"SP - BARRA DO TURVO","tipo":"Munic\u00edpio","url":"\/dashboard\/details-assets\/2340227d-5ed9-429e-868c-cba7611d1efe"},"geometry":{"type":"Point","coordinates":[-48.5013,-24.759]}},{"type":"Feature","properties":{"municipio":"9e95abcc-03ce-4387-9d7d-246032430a02","title":"SP - BARRA BONITA","name":"SP - BARRA BONITA","tipo":"Munic\u00edpio","url":"\/dashboard\/details-assets\/9e95abcc-03ce-4387-9d7d-246032430a02"},"geometry":{"type":"Point","coordinates":[-48.5583,-22.4909]}},{"type":"Feature","properties":{"municipio":"fa54ed74-dbc2-4a3e-b254-66fcfee05237","title":"SP - BALBINOS","name":"SP - BALBINOS","tipo":"Munic\u00edpio","url":"\/dashboard\/details-assets\/fa54ed74-dbc2-4a3e-b254-66fcfee05237"},"geometry":{"type":"Point","coordinates":[-49.3619,-21.8963]}},{"type":"Feature","properties":{"municipio":"a0ba52d4-6673-4d01-b0c1-ff4ac5e2fabb","title":"SP - AVARE","name":"SP - AVARE","tipo":"Munic\u00edpio","url":"\/dashboard\/details-assets\/a0ba52d4-6673-4d01-b0c1-ff4ac5e2fabb"},"geometry":{"type":"Point","coordinates":[-48.9251,-23.1067]}},{"type":"Feature","properties":{"municipio":"04e2f84c-515a-4ed4-a880-c9b276718394","title":"SP - AVANHANDAVA","name":"SP - AVANHANDAVA","tipo":"Munic\u00edpio","url":"\/dashboard\/details-assets\/04e2f84c-515a-4ed4-a880-c9b276718394"},"geometry":{"type":"Point","coordinates":[-49.9509,-21.4584]}},{"type":"Feature","properties":{"municipio":"8fa5ec62-5984-4023-a9be-ef1b43e5a682","title":"SP - AURIFLAMA","name":"SP - AURIFLAMA","tipo":"Munic\u00edpio","url":"\/dashboard\/details-assets\/8fa5ec62-5984-4023-a9be-ef1b43e5a682"},"geometry":{"type":"Point","coordinates":[-50.5572,-20.6836]}},{"type":"Feature","properties":{"municipio":"89244f2d-fb18-4fd7-9e33-e91328196584","title":"SP - ATIBAIA","name":"SP - ATIBAIA","tipo":"Munic\u00edpio","url":"\/dashboard\/details-assets\/89244f2d-fb18-4fd7-9e33-e91328196584"},"geometry":{"type":"Point","coordinates":[-46.5563,-23.1171]}},{"type":"Feature","properties":{"municipio":"5ba95d5f-946f-421d-8d27-a6b6c9fcebd8","title":"SP - ASSIS","name":"SP - ASSIS","tipo":"Munic\u00edpio","url":"\/dashboard\/details-assets\/5ba95d5f-946f-421d-8d27-a6b6c9fcebd8"},"geometry":{"type":"Point","coordinates":[-50.4183,-22.66]}},{"type":"Feature","properties":{"municipio":"2cf52318-1792-45a1-b4e0-457d7eeb5cc9","title":"SP - ARTUR NOGUEIRA","name":"SP - ARTUR NOGUEIRA","tipo":"Munic\u00edpio","url":"\/dashboard\/details-assets\/2cf52318-1792-45a1-b4e0-457d7eeb5cc9"},"geometry":{"type":"Point","coordinates":[-47.1727,-22.5727]}},{"type":"Feature","properties":{"municipio":"802a556c-fb61-4c43-a57b-a3e96444b2ce","title":"SP - ARUJA","name":"SP - ARUJA","tipo":"Munic\u00edpio","url":"\/dashboard\/details-assets\/802a556c-fb61-4c43-a57b-a3e96444b2ce"},"geometry":{"type":"Point","coordinates":[-46.32,-23.3965]}},{"type":"Feature","properties":{"municipio":"3a204ceb-f899-4bb9-b09a-aae53350cbd2","title":"SP - ARARAS","name":"SP - ARARAS","tipo":"Munic\u00edpio","url":"\/dashboard\/details-assets\/3a204ceb-f899-4bb9-b09a-aae53350cbd2"},"geometry":{"type":"Point","coordinates":[-47.3842,-22.3572]}},{"type":"Feature","properties":{"municipio":"b0163a47-8a82-4e99-a673-ab87867eca97","title":"SP - ARARAQUARA","name":"SP - ARARAQUARA","tipo":"Munic\u00edpio","url":"\/dashboard\/details-assets\/b0163a47-8a82-4e99-a673-ab87867eca97"},"geometry":{"type":"Point","coordinates":[-48.178,-21.7845]}},{"type":"Feature","properties":{"municipio":"f93dc4e8-b84a-4219-a655-a4f2d35e342b","title":"SP - ARACOIABA DA SERRA","name":"SP - ARACOIABA DA SERRA","tipo":"Munic\u00edpio","url":"\/dashboard\/details-assets\/f93dc4e8-b84a-4219-a655-a4f2d35e342b"},"geometry":{"type":"Point","coordinates":[-47.6166,-23.5029]}},{"type":"Feature","properties":{"municipio":"1bd8e4e3-f686-4381-a0dc-7d6f88e44486","title":"SP - ARACATUBA","name":"SP - ARACATUBA","tipo":"Munic\u00edpio","url":"\/dashboard\/details-assets\/1bd8e4e3-f686-4381-a0dc-7d6f88e44486"},"geometry":{"type":"Point","coordinates":[-50.4401,-21.2076]}},{"type":"Feature","properties":{"municipio":"c2ab4e6c-50e4-46cf-bfda-92e0eec72426","title":"SP - APIAI","name":"SP - APIAI","tipo":"Munic\u00edpio","url":"\/dashboard\/details-assets\/c2ab4e6c-50e4-46cf-bfda-92e0eec72426"},"geometry":{"type":"Point","coordinates":[-48.8443,-24.5108]}},{"type":"Feature","properties":{"municipio":"d81ca6a8-6f82-4492-99fa-aaa873c45f6e","title":"SP - APARECIDA","name":"SP - APARECIDA","tipo":"Munic\u00edpio","url":"\/dashboard\/details-assets\/d81ca6a8-6f82-4492-99fa-aaa873c45f6e"},"geometry":{"type":"Point","coordinates":[-45.2325,-22.8495]}},{"type":"Feature","properties":{"municipio":"ae62110b-41d8-4e79-83fb-c1db7e3e40a4","title":"SP - ANDRADINA","name":"SP - ANDRADINA","tipo":"Munic\u00edpio","url":"\/dashboard\/details-assets\/ae62110b-41d8-4e79-83fb-c1db7e3e40a4"},"geometry":{"type":"Point","coordinates":[-51.3786,-20.8948]}},{"type":"Feature","properties":{"municipio":"8f9965ff-7d88-4377-a5ba-de50c28364e8","title":"SP - AMPARO","name":"SP - AMPARO","tipo":"Munic\u00edpio","url":"\/dashboard\/details-assets\/8f9965ff-7d88-4377-a5ba-de50c28364e8"},"geometry":{"type":"Point","coordinates":[-46.772,-22.7088]}},{"type":"Feature","properties":{"municipio":"b8f16a7b-cd9d-48c7-b96f-3ad56846cf4f","title":"SP - AMERICANA","name":"SP - AMERICANA","tipo":"Munic\u00edpio","url":"\/dashboard\/details-assets\/b8f16a7b-cd9d-48c7-b96f-3ad56846cf4f"},"geometry":{"type":"Point","coordinates":[-47.3331,-22.7374]}},{"type":"Feature","properties":{"municipio":"ad8e45f2-2e68-4dd8-8a15-e85e63114690","title":"SP - ALVARO DE CARVALHO","name":"SP - ALVARO DE CARVALHO","tipo":"Munic\u00edpio","url":"\/dashboard\/details-assets\/ad8e45f2-2e68-4dd8-8a15-e85e63114690"},"geometry":{"type":"Point","coordinates":[-49.719,-22.0841]}},{"type":"Feature","properties":{"municipio":"3020c0a9-4895-4f3f-ac23-d78750c71b38","title":"SP - ADAMANTINA","name":"SP - ADAMANTINA","tipo":"Munic\u00edpio","url":"\/dashboard\/details-assets\/3020c0a9-4895-4f3f-ac23-d78750c71b38"},"geometry":{"type":"Point","coordinates":[-51.0737,-21.682]}},{"type":"Feature","properties":{"municipio":"b7a529a5-086a-4c57-a9ba-235378e8e43a","title":"SC - XAXIM","name":"SC - XAXIM","tipo":"Munic\u00edpio","url":"\/dashboard\/details-assets\/b7a529a5-086a-4c57-a9ba-235378e8e43a"},"geometry":{"type":"Point","coordinates":[-52.5374,-26.9596]}},{"type":"Feature","properties":{"municipio":"10f9926a-dbf4-48a0-bfed-edd06e1595b4","title":"SC - XANXERE","name":"SC - XANXERE","tipo":"Munic\u00edpio","url":"\/dashboard\/details-assets\/10f9926a-dbf4-48a0-bfed-edd06e1595b4"},"geometry":{"type":"Point","coordinates":[-52.4036,-26.8747]}},{"type":"Feature","properties":{"municipio":"5eb7a139-2ee8-4576-9dce-cdefbb1069b5","title":"SC - VIDEIRA","name":"SC - VIDEIRA","tipo":"Munic\u00edpio","url":"\/dashboard\/details-assets\/5eb7a139-2ee8-4576-9dce-cdefbb1069b5"},"geometry":{"type":"Point","coordinates":[-51.1543,-27.0086]}},{"type":"Feature","properties":{"municipio":"c37dd415-835e-47ae-8150-622a6e69f8fd","title":"SC - TUBARAO","name":"SC - TUBARAO","tipo":"Munic\u00edpio","url":"\/dashboard\/details-assets\/c37dd415-835e-47ae-8150-622a6e69f8fd"},"geometry":{"type":"Point","coordinates":[-49.0144,-28.4713]}},{"type":"Feature","properties":{"municipio":"121ba270-82da-497c-806e-699bd16665cb","title":"SC - TIMBO","name":"SC - TIMBO","tipo":"Munic\u00edpio","url":"\/dashboard\/details-assets\/121ba270-82da-497c-806e-699bd16665cb"},"geometry":{"type":"Point","coordinates":[-49.269,-26.8246]}},{"type":"Feature","properties":{"municipio":"f5f7adf4-20ac-4ea0-bf45-29534fdf63f9","title":"SC - TIJUCAS","name":"SC - TIJUCAS","tipo":"Munic\u00edpio","url":"\/dashboard\/details-assets\/f5f7adf4-20ac-4ea0-bf45-29534fdf63f9"},"geometry":{"type":"Point","coordinates":[-48.6322,-27.2354]}},{"type":"Feature","properties":{"municipio":"7896593d-8cdd-4d4d-bc32-d7298bc202c4","title":"SC - TAIO","name":"SC - TAIO","tipo":"Munic\u00edpio","url":"\/dashboard\/details-assets\/7896593d-8cdd-4d4d-bc32-d7298bc202c4"},"geometry":{"type":"Point","coordinates":[-49.9942,-27.121]}},{"type":"Feature","properties":{"municipio":"b7903d7a-3247-4145-98ab-710dc83e0daa","title":"SC - SOMBRIO","name":"SC - SOMBRIO","tipo":"Munic\u00edpio","url":"\/dashboard\/details-assets\/b7903d7a-3247-4145-98ab-710dc83e0daa"},"geometry":{"type":"Point","coordinates":[-49.6328,-29.108]}},{"type":"Feature","properties":{"municipio":"11a1224e-42d0-4c1b-aeac-e1e32fe2332c","title":"SC - SEARA","name":"SC - SEARA","tipo":"Munic\u00edpio","url":"\/dashboard\/details-assets\/11a1224e-42d0-4c1b-aeac-e1e32fe2332c"},"geometry":{"type":"Point","coordinates":[-52.299,-27.1564]}},{"type":"Feature","properties":{"municipio":"fc9296fa-7a62-485a-a3bb-8b83b7c2fd64","title":"SC - SAO PEDRO DE ALCANTARA","name":"SC - SAO PEDRO DE ALCANTARA","tipo":"Munic\u00edpio","url":"\/dashboard\/details-assets\/fc9296fa-7a62-485a-a3bb-8b83b7c2fd64"},"geometry":{"type":"Point","coordinates":[-48.8048,-27.5665]}},{"type":"Feature","properties":{"municipio":"bf18acf6-dba2-409f-9ac1-71fd4393c8d4","title":"SC - SAO MIGUEL DO OESTE","name":"SC - SAO MIGUEL DO OESTE","tipo":"Munic\u00edpio","url":"\/dashboard\/details-assets\/bf18acf6-dba2-409f-9ac1-71fd4393c8d4"},"geometry":{"type":"Point","coordinates":[-53.5163,-26.7242]}},{"type":"Feature","properties":{"municipio":"9d2b9599-1762-4c4b-8e5e-2e2b8e591902","title":"SC - SAO LOURENCO DO OESTE","name":"SC - SAO LOURENCO DO OESTE","tipo":"Munic\u00edpio","url":"\/dashboard\/details-assets\/9d2b9599-1762-4c4b-8e5e-2e2b8e591902"},"geometry":{"type":"Point","coordinates":[-52.8498,-26.3557]}},{"type":"Feature","properties":{"municipio":"8f67a223-b6e6-418e-b6d8-c73684c62c79","title":"SC - SAO JOSE DO CEDRO","name":"SC - SAO JOSE DO CEDRO","tipo":"Munic\u00edpio","url":"\/dashboard\/details-assets\/8f67a223-b6e6-418e-b6d8-c73684c62c79"},"geometry":{"type":"Point","coordinates":[-53.4955,-26.4561]}},{"type":"Feature","properties":{"municipio":"a32d4f50-6b85-4af0-9463-6015719176dd","title":"SC - SAO JOSE","name":"SC - SAO JOSE","tipo":"Munic\u00edpio","url":"\/dashboard\/details-assets\/a32d4f50-6b85-4af0-9463-6015719176dd"},"geometry":{"type":"Point","coordinates":[-48.6366,-27.6136]}},{"type":"Feature","properties":{"municipio":"4e467417-9fda-432c-90ce-32b12324ad7b","title":"SC - SAO JOAQUIM","name":"SC - SAO JOAQUIM","tipo":"Munic\u00edpio","url":"\/dashboard\/details-assets\/4e467417-9fda-432c-90ce-32b12324ad7b"},"geometry":{"type":"Point","coordinates":[-49.9457,-28.2887]}},{"type":"Feature","properties":{"municipio":"68468739-b0c4-4336-a878-73f72c1205e8","title":"SC - SAO FRANCISCO DO SUL","name":"SC - SAO FRANCISCO DO SUL","tipo":"Munic\u00edpio","url":"\/dashboard\/details-assets\/68468739-b0c4-4336-a878-73f72c1205e8"},"geometry":{"type":"Point","coordinates":[-48.6344,-26.2579]}},{"type":"Feature","properties":{"municipio":"c71ea176-46b9-4719-ae13-cdaa1ca1e00e","title":"SC - SAO CRISTOVAO DO SUL","name":"SC - SAO CRISTOVAO DO SUL","tipo":"Munic\u00edpio","url":"\/dashboard\/details-assets\/c71ea176-46b9-4719-ae13-cdaa1ca1e00e"},"geometry":{"type":"Point","coordinates":[-50.4388,-27.2666]}},{"type":"Feature","properties":{"municipio":"d08c0254-5fa8-47b0-ae88-c22b39cf09eb","title":"SC - SAO BENTO DO SUL","name":"SC - SAO BENTO DO SUL","tipo":"Munic\u00edpio","url":"\/dashboard\/details-assets\/d08c0254-5fa8-47b0-ae88-c22b39cf09eb"},"geometry":{"type":"Point","coordinates":[-49.3831,-26.2495]}},{"type":"Feature","properties":{"municipio":"b9f74a1d-c54f-402a-a084-9bddf2db2cbc","title":"SC - RIO DO SUL","name":"SC - RIO DO SUL","tipo":"Munic\u00edpio","url":"\/dashboard\/details-assets\/b9f74a1d-c54f-402a-a084-9bddf2db2cbc"},"geometry":{"type":"Point","coordinates":[-49.643,-27.2156]}},{"type":"Feature","properties":{"municipio":"5fcd995a-3869-4cef-a9d7-0560ebcfd3fd","title":"SC - QUILOMBO","name":"SC - QUILOMBO","tipo":"Munic\u00edpio","url":"\/dashboard\/details-assets\/5fcd995a-3869-4cef-a9d7-0560ebcfd3fd"},"geometry":{"type":"Point","coordinates":[-52.724,-26.7264]}},{"type":"Feature","properties":{"municipio":"9894ff57-b18f-4cd9-9290-f3b667074daf","title":"SC - PORTO UNIAO","name":"SC - PORTO UNIAO","tipo":"Munic\u00edpio","url":"\/dashboard\/details-assets\/9894ff57-b18f-4cd9-9290-f3b667074daf"},"geometry":{"type":"Point","coordinates":[-51.0759,-26.2451]}},{"type":"Feature","properties":{"municipio":"fa0a41ef-72db-4d92-8dd7-3582507b430a","title":"SC - PALHOCA","name":"SC - PALHOCA","tipo":"Munic\u00edpio","url":"\/dashboard\/details-assets\/fa0a41ef-72db-4d92-8dd7-3582507b430a"},"geometry":{"type":"Point","coordinates":[-48.6697,-27.6455]}},{"type":"Feature","properties":{"municipio":"cecd827a-bdbc-46ed-82fd-898a440e0b33","title":"SC - PALMITOS","name":"SC - PALMITOS","tipo":"Munic\u00edpio","url":"\/dashboard\/details-assets\/cecd827a-bdbc-46ed-82fd-898a440e0b33"},"geometry":{"type":"Point","coordinates":[-53.1586,-27.0702]}},{"type":"Feature","properties":{"municipio":"742a3617-2130-4e21-b339-faab90dec38a","title":"SC - ORLEANS","name":"SC - ORLEANS","tipo":"Munic\u00edpio","url":"\/dashboard\/details-assets\/742a3617-2130-4e21-b339-faab90dec38a"},"geometry":{"type":"Point","coordinates":[-49.2986,-28.3487]}},{"type":"Feature","properties":{"municipio":"0c12d6a8-81d4-4106-8c28-f872552e1e63","title":"SC - MARAVILHA","name":"SC - MARAVILHA","tipo":"Munic\u00edpio","url":"\/dashboard\/details-assets\/0c12d6a8-81d4-4106-8c28-f872552e1e63"},"geometry":{"type":"Point","coordinates":[-53.1737,-26.7665]}},{"type":"Feature","properties":{"municipio":"3f77a7fb-9d06-4113-a412-ba0b4971cf06","title":"SC - NAVEGANTES","name":"SC - NAVEGANTES","tipo":"Munic\u00edpio","url":"\/dashboard\/details-assets\/3f77a7fb-9d06-4113-a412-ba0b4971cf06"},"geometry":{"type":"Point","coordinates":[-48.6546,-26.8943]}},{"type":"Feature","properties":{"municipio":"54f6bcb0-9bc8-4cd0-a066-d9b3a491d83a","title":"SC - MAFRA","name":"SC - MAFRA","tipo":"Munic\u00edpio","url":"\/dashboard\/details-assets\/54f6bcb0-9bc8-4cd0-a066-d9b3a491d83a"},"geometry":{"type":"Point","coordinates":[-49.8086,-26.1159]}},{"type":"Feature","properties":{"municipio":"bd402c9a-35e7-4ab3-9a9f-a3c43493ef86","title":"SC - LAGUNA","name":"SC - LAGUNA","tipo":"Munic\u00edpio","url":"\/dashboard\/details-assets\/bd402c9a-35e7-4ab3-9a9f-a3c43493ef86"},"geometry":{"type":"Point","coordinates":[-48.7772,-28.4843]}},{"type":"Feature","properties":{"municipio":"cab219d0-cc6b-4eed-8fbc-062378e8d3ba","title":"SC - LAGES","name":"SC - LAGES","tipo":"Munic\u00edpio","url":"\/dashboard\/details-assets\/cab219d0-cc6b-4eed-8fbc-062378e8d3ba"},"geometry":{"type":"Point","coordinates":[-50.3259,-27.815]}},{"type":"Feature","properties":{"municipio":"5e7e3943-39d6-4b12-af9a-b357630dd9b7","title":"SC - JOINVILLE","name":"SC - JOINVILLE","tipo":"Munic\u00edpio","url":"\/dashboard\/details-assets\/5e7e3943-39d6-4b12-af9a-b357630dd9b7"},"geometry":{"type":"Point","coordinates":[-48.8487,-26.3045]}},{"type":"Feature","properties":{"municipio":"55fe8d19-b441-4ae7-b576-25754e18bc0d","title":"SC - JOACABA","name":"SC - JOACABA","tipo":"Munic\u00edpio","url":"\/dashboard\/details-assets\/55fe8d19-b441-4ae7-b576-25754e18bc0d"},"geometry":{"type":"Point","coordinates":[-51.5108,-27.1721]}},{"type":"Feature","properties":{"municipio":"8c14367d-d69b-477f-8b76-e2676fe06409","title":"SC - JARAGUA DO SUL","name":"SC - JARAGUA DO SUL","tipo":"Munic\u00edpio","url":"\/dashboard\/details-assets\/8c14367d-d69b-477f-8b76-e2676fe06409"},"geometry":{"type":"Point","coordinates":[-49.0713,-26.4851]}},{"type":"Feature","properties":{"municipio":"381dc176-74e6-437f-b77c-faad71fd0799","title":"SC - ITUPORANGA","name":"SC - ITUPORANGA","tipo":"Munic\u00edpio","url":"\/dashboard\/details-assets\/381dc176-74e6-437f-b77c-faad71fd0799"},"geometry":{"type":"Point","coordinates":[-49.5963,-27.4101]}},