[{"id":"56b94fd6-bdbd-4dc8-875d-bd2cb97a4ff6","title":"GO - ARACU","tipo":"FGV","url":"\/dashboard\/details-assets\/56b94fd6-bdbd-4dc8-875d-bd2cb97a4ff6","coordinates":[-49.68458,-16.361376]},{"id":"3c093a79-f066-486c-9324-e243174cc535","title":"RJ - MACAE","tipo":"Cesgranrio","url":"\/dashboard\/details-assets\/3c093a79-f066-486c-9324-e243174cc535","coordinates":[-41.7848,-22.3768]},{"id":"787723fd-36e2-4d3e-9ab7-85236941e04a","title":"TO - XAMBIOA","tipo":"Cesgranrio","url":"\/dashboard\/details-assets\/787723fd-36e2-4d3e-9ab7-85236941e04a","coordinates":[-48.532,-6.4141]},{"id":"eabee481-a3e2-4615-8da4-7e412e9217c5","title":"TO - WANDERLANDIA","tipo":"Cesgranrio","url":"\/dashboard\/details-assets\/eabee481-a3e2-4615-8da4-7e412e9217c5","coordinates":[-47.9601,-6.85274]},{"id":"84ba0d17-5c7d-4101-aba9-05e5a968365b","title":"TO - TALISMA","tipo":"Cesgranrio","url":"\/dashboard\/details-assets\/84ba0d17-5c7d-4101-aba9-05e5a968365b","coordinates":[-49.0896,-12.7949]},{"id":"4ba6c0b5-cb4d-4e91-a257-e78ea943a0ce","title":"TO - TOCANTINOPOLIS","tipo":"Cesgranrio","url":"\/dashboard\/details-assets\/4ba6c0b5-cb4d-4e91-a257-e78ea943a0ce","coordinates":[-47.4224,-6.32447]},{"id":"febac0bc-1f7e-4fc1-ae77-a9ac4496c9eb","title":"TO - TAGUATINGA","tipo":"Cesgranrio","url":"\/dashboard\/details-assets\/febac0bc-1f7e-4fc1-ae77-a9ac4496c9eb","coordinates":[-46.437,-12.4026]},{"id":"9aa3b9c8-1e9f-40cc-82fc-fb5582a1f7ad","title":"TO - SITIO NOVO DO TOCANTINS","tipo":"Cesgranrio","url":"\/dashboard\/details-assets\/9aa3b9c8-1e9f-40cc-82fc-fb5582a1f7ad","coordinates":[-47.6381,-5.6012]},{"id":"e7743370-900d-40be-9164-87cb10794653","title":"TO - SANTA FE DO ARAGUAIA","tipo":"Cesgranrio","url":"\/dashboard\/details-assets\/e7743370-900d-40be-9164-87cb10794653","coordinates":[-48.7165,-7.15803]},{"id":"2da8a42b-dfeb-4d94-9ca0-cdaa4975c3ed","title":"TO - PORTO NACIONAL","tipo":"Cesgranrio","url":"\/dashboard\/details-assets\/2da8a42b-dfeb-4d94-9ca0-cdaa4975c3ed","coordinates":[-48.408,-10.7027]},{"id":"dfbb5534-9473-468c-8f74-64441baebc1f","title":"TO - PIUM","tipo":"Cesgranrio","url":"\/dashboard\/details-assets\/dfbb5534-9473-468c-8f74-64441baebc1f","coordinates":[-49.1876,-10.442]},{"id":"cac03288-9204-4bfe-9140-545dc3ed9ebe","title":"TO - PEIXE","tipo":"Cesgranrio","url":"\/dashboard\/details-assets\/cac03288-9204-4bfe-9140-545dc3ed9ebe","coordinates":[-48.5395,-12.0254]},{"id":"58ea10cc-d3ac-4d3c-adea-412e95489a63","title":"TO - PEDRO AFONSO","tipo":"Cesgranrio","url":"\/dashboard\/details-assets\/58ea10cc-d3ac-4d3c-adea-412e95489a63","coordinates":[-48.1729,-8.97034]},{"id":"ba656444-4b99-464b-b30a-437961e42311","title":"TO - PARANA","tipo":"Cesgranrio","url":"\/dashboard\/details-assets\/ba656444-4b99-464b-b30a-437961e42311","coordinates":[-47.8734,-12.6167]},{"id":"b7553416-b4cc-4513-a1e9-a7e823a747ea","title":"TO - PARAISO DO TOCANTINS","tipo":"Cesgranrio","url":"\/dashboard\/details-assets\/b7553416-b4cc-4513-a1e9-a7e823a747ea","coordinates":[-48.8823,-10.175]},{"id":"502246a7-e09f-430f-9ab4-e2fa75432c8c","title":"TO - PALMEIROPOLIS","tipo":"Cesgranrio","url":"\/dashboard\/details-assets\/502246a7-e09f-430f-9ab4-e2fa75432c8c","coordinates":[-48.4026,-13.0447]},{"id":"f0a8184b-a17a-446c-8106-5ebc9da6d1ef","title":"TO - PALMAS","tipo":"Cesgranrio","url":"\/dashboard\/details-assets\/f0a8184b-a17a-446c-8106-5ebc9da6d1ef","coordinates":[-48.3558,-10.24]},{"id":"1311e95d-cc08-47f4-ae78-87fc7ead7986","title":"TO - NOVO ACORDO","tipo":"Cesgranrio","url":"\/dashboard\/details-assets\/1311e95d-cc08-47f4-ae78-87fc7ead7986","coordinates":[-47.6785,-9.97063]},{"id":"3f176079-f40e-4e05-81fb-3951842aeca2","title":"TO - NATIVIDADE","tipo":"Cesgranrio","url":"\/dashboard\/details-assets\/3f176079-f40e-4e05-81fb-3951842aeca2","coordinates":[-47.7223,-11.7034]},{"id":"ebe29437-0c49-4cdd-90d8-8e5952afa993","title":"TO - MIRACEMA DO TOCANTINS","tipo":"Cesgranrio","url":"\/dashboard\/details-assets\/ebe29437-0c49-4cdd-90d8-8e5952afa993","coordinates":[-48.393,-9.56556]},{"id":"34eca615-9cb0-4a7e-b7ea-e1bca5e6c2bd","title":"TO - LAJEADO","tipo":"Cesgranrio","url":"\/dashboard\/details-assets\/34eca615-9cb0-4a7e-b7ea-e1bca5e6c2bd","coordinates":[-48.3565,-9.74996]},{"id":"029ef758-599d-4ad6-9e37-e3b6e98edeee","title":"TO - GURUPI","tipo":"Cesgranrio","url":"\/dashboard\/details-assets\/029ef758-599d-4ad6-9e37-e3b6e98edeee","coordinates":[-49.068,-11.7279]},{"id":"e80c2ef3-2aeb-4691-a86a-7721f564bc60","title":"TO - GUARAI","tipo":"Cesgranrio","url":"\/dashboard\/details-assets\/e80c2ef3-2aeb-4691-a86a-7721f564bc60","coordinates":[-48.5114,-8.83543]},{"id":"4c3698fa-da6f-430b-a043-f806adf3734d","title":"TO - FORMOSO DO ARAGUAIA","tipo":"Cesgranrio","url":"\/dashboard\/details-assets\/4c3698fa-da6f-430b-a043-f806adf3734d","coordinates":[-49.5316,-11.7976]},{"id":"1ce9088c-5446-477a-a51e-0a4484ecfb12","title":"TO - DIANOPOLIS","tipo":"Cesgranrio","url":"\/dashboard\/details-assets\/1ce9088c-5446-477a-a51e-0a4484ecfb12","coordinates":[-46.8198,-11.624]},{"id":"b7f4933d-b88c-485c-b1c1-539dc08de0e8","title":"TO - COLMEIA","tipo":"Cesgranrio","url":"\/dashboard\/details-assets\/b7f4933d-b88c-485c-b1c1-539dc08de0e8","coordinates":[-48.7638,-8.72463]},{"id":"2e69bd47-344a-4d61-a210-1c28107e2609","title":"TO - CRISTALANDIA","tipo":"Cesgranrio","url":"\/dashboard\/details-assets\/2e69bd47-344a-4d61-a210-1c28107e2609","coordinates":[-49.1942,-10.5985]},{"id":"03e48eff-6886-40de-9077-e19b12a74c6b","title":"TO - COLINAS DO TOCANTINS","tipo":"Cesgranrio","url":"\/dashboard\/details-assets\/03e48eff-6886-40de-9077-e19b12a74c6b","coordinates":[-48.4757,-8.05764]},{"id":"7a372ad4-79ab-4d16-976e-a8b16a8832d6","title":"TO - CARIRI DO TOCANTINS","tipo":"Cesgranrio","url":"\/dashboard\/details-assets\/7a372ad4-79ab-4d16-976e-a8b16a8832d6","coordinates":[-49.1609,-11.8881]},{"id":"e3924ddc-9413-406d-a7de-b9378482087a","title":"TO - BARROLANDIA","tipo":"Cesgranrio","url":"\/dashboard\/details-assets\/e3924ddc-9413-406d-a7de-b9378482087a","coordinates":[-48.7252,-9.83404]},{"id":"9d32e451-353f-472c-84ea-3e33d4d74db3","title":"TO - BABACULANDIA","tipo":"Cesgranrio","url":"\/dashboard\/details-assets\/9d32e451-353f-472c-84ea-3e33d4d74db3","coordinates":[-47.7613,-7.20923]},{"id":"a0e0379f-131c-4e03-970d-3b4e767229ee","title":"TO - AUGUSTINOPOLIS","tipo":"Cesgranrio","url":"\/dashboard\/details-assets\/a0e0379f-131c-4e03-970d-3b4e767229ee","coordinates":[-47.8863,-5.46863]},{"id":"373f0218-5257-40ac-b979-2ecd19d429c9","title":"TO - ARRAIAS","tipo":"Cesgranrio","url":"\/dashboard\/details-assets\/373f0218-5257-40ac-b979-2ecd19d429c9","coordinates":[-46.9359,-12.9287]},{"id":"5fbf3212-4068-4623-ade4-3db32bfc4e93","title":"TO - ARAPOEMA","tipo":"Cesgranrio","url":"\/dashboard\/details-assets\/5fbf3212-4068-4623-ade4-3db32bfc4e93","coordinates":[-49.0637,-7.65463]},{"id":"bbda46aa-4228-4b1c-9cab-d2fc3f3aa4bb","title":"TO - ARAGUATINS","tipo":"Cesgranrio","url":"\/dashboard\/details-assets\/bbda46aa-4228-4b1c-9cab-d2fc3f3aa4bb","coordinates":[-48.1232,-5.64659]},{"id":"a3817a9d-dd1a-4fc5-aa95-8a5e268b7f0d","title":"TO - ARAGUAINA","tipo":"Cesgranrio","url":"\/dashboard\/details-assets\/a3817a9d-dd1a-4fc5-aa95-8a5e268b7f0d","coordinates":[-48.2044,-7.19238]},{"id":"36769302-3ef2-42dd-b425-920f6635163a","title":"TO - ARAGUACU","tipo":"Cesgranrio","url":"\/dashboard\/details-assets\/36769302-3ef2-42dd-b425-920f6635163a","coordinates":[-49.8231,-12.9289]},{"id":"8250acd3-61d6-4c72-a2b6-5b523b53f101","title":"TO - ARAGUACEMA","tipo":"Cesgranrio","url":"\/dashboard\/details-assets\/8250acd3-61d6-4c72-a2b6-5b523b53f101","coordinates":[-49.5569,-8.80755]},{"id":"ef54bd9c-d0b9-493b-8544-46c2aa19efd5","title":"TO - ANANAS","tipo":"Cesgranrio","url":"\/dashboard\/details-assets\/ef54bd9c-d0b9-493b-8544-46c2aa19efd5","coordinates":[-48.0735,-6.36437]},{"id":"b1d8bf23-fed5-4636-9d8e-46f30ebad353","title":"SE - UMBAUBA","tipo":"Cesgranrio","url":"\/dashboard\/details-assets\/b1d8bf23-fed5-4636-9d8e-46f30ebad353","coordinates":[-37.6623,-11.3809]},{"id":"bcccd81e-12bf-426b-8116-ec8ef88bbfb4","title":"SE - TOBIAS BARRETO","tipo":"Cesgranrio","url":"\/dashboard\/details-assets\/bcccd81e-12bf-426b-8116-ec8ef88bbfb4","coordinates":[-37.9995,-11.1798]},{"id":"e04c8e5f-00a8-4e90-aa54-61747fc4de91","title":"SE - SIMAO DIAS","tipo":"Cesgranrio","url":"\/dashboard\/details-assets\/e04c8e5f-00a8-4e90-aa54-61747fc4de91","coordinates":[-37.8097,-10.7387]},{"id":"356ab000-555c-4a79-923b-4f7e8450e730","title":"SE - SAO CRISTOVAO","tipo":"Cesgranrio","url":"\/dashboard\/details-assets\/356ab000-555c-4a79-923b-4f7e8450e730","coordinates":[-37.2044,-11.0084]},{"id":"79371b95-0f5e-4e99-96bf-4bb5fd873f2d","title":"SE - SANTA ROSA DE LIMA","tipo":"Cesgranrio","url":"\/dashboard\/details-assets\/79371b95-0f5e-4e99-96bf-4bb5fd873f2d","coordinates":[-37.1931,-10.6434]},{"id":"47787cc5-7e10-4002-ae37-f362057f27c9","title":"SE - RIACHUELO","tipo":"Cesgranrio","url":"\/dashboard\/details-assets\/47787cc5-7e10-4002-ae37-f362057f27c9","coordinates":[-37.1966,-10.735]},{"id":"c497717f-58b6-4757-a842-f7127142455f","title":"SE - PROPRIA","tipo":"Cesgranrio","url":"\/dashboard\/details-assets\/c497717f-58b6-4757-a842-f7127142455f","coordinates":[-36.8442,-10.2138]},{"id":"8a40738c-f32f-448d-b4d9-71e476111202","title":"SE - POCO VERDE","tipo":"Cesgranrio","url":"\/dashboard\/details-assets\/8a40738c-f32f-448d-b4d9-71e476111202","coordinates":[-38.1813,-10.7151]},{"id":"1c600270-79fc-445f-a9f8-7fc34300772e","title":"SE - NOSSA SENHORA DO SOCORRO","tipo":"Cesgranrio","url":"\/dashboard\/details-assets\/1c600270-79fc-445f-a9f8-7fc34300772e","coordinates":[-37.1231,-10.8468]},{"id":"72eb5c6b-842a-430b-ac9e-6d1cafa31dca","title":"SE - POCO REDONDO","tipo":"Cesgranrio","url":"\/dashboard\/details-assets\/72eb5c6b-842a-430b-ac9e-6d1cafa31dca","coordinates":[-37.6833,-9.80616]},{"id":"35ee010a-3392-4cc2-9e2e-0f3da868ae18","title":"SE - NOSSA SENHORA DA GLORIA","tipo":"Cesgranrio","url":"\/dashboard\/details-assets\/35ee010a-3392-4cc2-9e2e-0f3da868ae18","coordinates":[-37.4211,-10.2158]},{"id":"2535451f-a73b-47fe-867d-6f3715271c32","title":"SE - JAPARATUBA","tipo":"Cesgranrio","url":"\/dashboard\/details-assets\/2535451f-a73b-47fe-867d-6f3715271c32","coordinates":[-36.9418,-10.5849]},{"id":"e674c7ad-7edd-40ef-b83d-86a52f4ce30a","title":"SE - LAGARTO","tipo":"Cesgranrio","url":"\/dashboard\/details-assets\/e674c7ad-7edd-40ef-b83d-86a52f4ce30a","coordinates":[-37.6689,-10.9136]},{"id":"fcd3af31-9f06-438f-b3bf-b06394dccdca","title":"SE - ITAPORANGA D'AJUDA","tipo":"Cesgranrio","url":"\/dashboard\/details-assets\/fcd3af31-9f06-438f-b3bf-b06394dccdca","coordinates":[-37.3078,-10.99]},{"id":"af5ddfff-fc6a-44f9-bd06-c52242a26daf","title":"SE - ITABAIANINHA","tipo":"Cesgranrio","url":"\/dashboard\/details-assets\/af5ddfff-fc6a-44f9-bd06-c52242a26daf","coordinates":[-37.7875,-11.2693]},{"id":"04915ec8-a1a2-4b69-87e7-ca7c5c85e90d","title":"SE - ITABAIANA","tipo":"Cesgranrio","url":"\/dashboard\/details-assets\/04915ec8-a1a2-4b69-87e7-ca7c5c85e90d","coordinates":[-37.4273,-10.6826]},{"id":"f6c410ce-1128-4036-b0ee-40f1b7a727dd","title":"SE - GARARU","tipo":"Cesgranrio","url":"\/dashboard\/details-assets\/f6c410ce-1128-4036-b0ee-40f1b7a727dd","coordinates":[-37.0869,-9.9722]},{"id":"6e74c823-349c-46b3-9e79-4c75eb58be7a","title":"SE - CARMOPOLIS","tipo":"Cesgranrio","url":"\/dashboard\/details-assets\/6e74c823-349c-46b3-9e79-4c75eb58be7a","coordinates":[-36.9887,-10.6449]},{"id":"1efebe36-254e-4389-8ec3-d84a7ffdd3c5","title":"SE - ESTANCIA","tipo":"Cesgranrio","url":"\/dashboard\/details-assets\/1efebe36-254e-4389-8ec3-d84a7ffdd3c5","coordinates":[-37.4484,-11.2659]},{"id":"999852be-0781-4c96-b251-79bc5fb0ee85","title":"SE - CARIRA","tipo":"Cesgranrio","url":"\/dashboard\/details-assets\/999852be-0781-4c96-b251-79bc5fb0ee85","coordinates":[-37.7002,-10.3524]},{"id":"283878d4-7b6d-428f-974e-e401ccbae6cf","title":"SE - CANINDE DE SAO FRANCISCO","tipo":"Cesgranrio","url":"\/dashboard\/details-assets\/283878d4-7b6d-428f-974e-e401ccbae6cf","coordinates":[-37.7923,-9.64882]},{"id":"cbcbda28-6ac5-4a1e-8cc2-db9429cb8d5b","title":"SE - CAPELA","tipo":"Cesgranrio","url":"\/dashboard\/details-assets\/cbcbda28-6ac5-4a1e-8cc2-db9429cb8d5b","coordinates":[-37.0628,-10.5069]},{"id":"ec2880c1-ab42-4374-8334-d9e8a1093fb6","title":"SE - CAMPO DO BRITO","tipo":"Cesgranrio","url":"\/dashboard\/details-assets\/ec2880c1-ab42-4374-8334-d9e8a1093fb6","coordinates":[-37.4954,-10.7392]},{"id":"83fb6d9e-b6fe-4c5f-939c-b4f1db8443b0","title":"SE - BOQUIM","tipo":"Cesgranrio","url":"\/dashboard\/details-assets\/83fb6d9e-b6fe-4c5f-939c-b4f1db8443b0","coordinates":[-37.6195,-11.1397]},{"id":"0f14a6ef-1ec3-4a1d-8c30-30d464759797","title":"SE - AREIA BRANCA","tipo":"Cesgranrio","url":"\/dashboard\/details-assets\/0f14a6ef-1ec3-4a1d-8c30-30d464759797","coordinates":[-37.3251,-10.758]},{"id":"6a7f38fa-2d93-4876-a064-33d14b933891","title":"SE - ARACAJU","tipo":"Cesgranrio","url":"\/dashboard\/details-assets\/6a7f38fa-2d93-4876-a064-33d14b933891","coordinates":[-37.0677,-10.9091]},{"id":"45e7ab76-a855-4284-b73a-1480af42e359","title":"SP - VOTUPORANGA","tipo":"Cesgranrio","url":"\/dashboard\/details-assets\/45e7ab76-a855-4284-b73a-1480af42e359","coordinates":[-49.9781,-20.4237]},{"id":"ccdd2963-2ffc-4cf2-9eb6-b9bf647619f5","title":"SP - VOTORANTIM","tipo":"Cesgranrio","url":"\/dashboard\/details-assets\/ccdd2963-2ffc-4cf2-9eb6-b9bf647619f5","coordinates":[-47.4388,-23.5446]},{"id":"ff2db28d-5e65-4193-8ba9-f3a8524c2d0d","title":"SP - VINHEDO","tipo":"Cesgranrio","url":"\/dashboard\/details-assets\/ff2db28d-5e65-4193-8ba9-f3a8524c2d0d","coordinates":[-46.9833,-23.0302]},{"id":"05fc1657-7a60-4fb7-baf2-2f311d04a64e","title":"SP - VARZEA PAULISTA","tipo":"Cesgranrio","url":"\/dashboard\/details-assets\/05fc1657-7a60-4fb7-baf2-2f311d04a64e","coordinates":[-46.8234,-23.2136]},{"id":"36dc9490-107e-49b3-90fd-6f269b52a466","title":"SP - VARGEM GRANDE PAULISTA","tipo":"Cesgranrio","url":"\/dashboard\/details-assets\/36dc9490-107e-49b3-90fd-6f269b52a466","coordinates":[-47.022,-23.5993]},{"id":"8641863b-2e41-40c3-ae9f-48bb8768011c","title":"SP - VARGEM GRANDE DO SUL","tipo":"Cesgranrio","url":"\/dashboard\/details-assets\/8641863b-2e41-40c3-ae9f-48bb8768011c","coordinates":[-46.8913,-21.8322]},{"id":"3f130744-b05b-4670-a26b-ae5fb1c3911b","title":"SP - VALPARAISO","tipo":"Cesgranrio","url":"\/dashboard\/details-assets\/3f130744-b05b-4670-a26b-ae5fb1c3911b","coordinates":[-50.8699,-21.2229]},{"id":"f2367b28-2c95-4212-ac68-14c7156e9ad7","title":"SP - VALINHOS","tipo":"Cesgranrio","url":"\/dashboard\/details-assets\/f2367b28-2c95-4212-ac68-14c7156e9ad7","coordinates":[-46.9974,-22.9698]},{"id":"3af05b67-4867-4caa-ba6c-140e636f2b3f","title":"SP - UBATUBA","tipo":"Cesgranrio","url":"\/dashboard\/details-assets\/3af05b67-4867-4caa-ba6c-140e636f2b3f","coordinates":[-45.0834,-23.4332]},{"id":"5ec96d98-cc24-4284-a1af-49d30e2c48e6","title":"SP - TUPI PAULISTA","tipo":"Cesgranrio","url":"\/dashboard\/details-assets\/5ec96d98-cc24-4284-a1af-49d30e2c48e6","coordinates":[-51.575,-21.3825]},{"id":"457ba6e2-817d-41d7-8bb9-403a71497bb6","title":"SP - TUPA","tipo":"Cesgranrio","url":"\/dashboard\/details-assets\/457ba6e2-817d-41d7-8bb9-403a71497bb6","coordinates":[-50.5191,-21.9335]},{"id":"3d91e136-c94b-4fd1-a13b-3a7cf8a8ae24","title":"SP - TREMEMBE","tipo":"Cesgranrio","url":"\/dashboard\/details-assets\/3d91e136-c94b-4fd1-a13b-3a7cf8a8ae24","coordinates":[-45.5475,-22.9571]},{"id":"84c6888b-1273-408f-9899-dfe222681197","title":"SP - TIETE","tipo":"Cesgranrio","url":"\/dashboard\/details-assets\/84c6888b-1273-408f-9899-dfe222681197","coordinates":[-47.7164,-23.1101]},{"id":"6d4a2474-ea05-4fa0-b84a-b5925d7fac06","title":"SP - TEODORO SAMPAIO","tipo":"Cesgranrio","url":"\/dashboard\/details-assets\/6d4a2474-ea05-4fa0-b84a-b5925d7fac06","coordinates":[-52.1682,-22.5299]},{"id":"ed2f6ae4-3890-4eb4-acfb-181d5c223e8d","title":"SP - TAUBATE","tipo":"Cesgranrio","url":"\/dashboard\/details-assets\/ed2f6ae4-3890-4eb4-acfb-181d5c223e8d","coordinates":[-45.5593,-23.0104]},{"id":"190c4c67-a824-4443-98f1-2b4e7aa48e87","title":"SP - TATUI","tipo":"Cesgranrio","url":"\/dashboard\/details-assets\/190c4c67-a824-4443-98f1-2b4e7aa48e87","coordinates":[-47.8461,-23.3487]},{"id":"687c9d74-bf1f-45e5-9827-99c6824458d4","title":"SP - TAQUARITUBA","tipo":"Cesgranrio","url":"\/dashboard\/details-assets\/687c9d74-bf1f-45e5-9827-99c6824458d4","coordinates":[-49.241,-23.5307]},{"id":"59bb21e2-9d61-41c2-acc2-edf1361e0d4f","title":"SP - TAQUARITINGA","tipo":"Cesgranrio","url":"\/dashboard\/details-assets\/59bb21e2-9d61-41c2-acc2-edf1361e0d4f","coordinates":[-48.5103,-21.4049]},{"id":"10a893b8-235f-41ef-ac3a-2ccfc9a641e4","title":"SP - TANABI","tipo":"Cesgranrio","url":"\/dashboard\/details-assets\/10a893b8-235f-41ef-ac3a-2ccfc9a641e4","coordinates":[-49.6563,-20.6228]},{"id":"c9db49c7-391b-48f6-b964-2795b2001de4","title":"SP - TAIUVA","tipo":"Cesgranrio","url":"\/dashboard\/details-assets\/c9db49c7-391b-48f6-b964-2795b2001de4","coordinates":[-48.4528,-21.1223]},{"id":"ff343cab-44d8-4745-a889-9027a81d92ef","title":"SP - TABOAO DA SERRA","tipo":"Cesgranrio","url":"\/dashboard\/details-assets\/ff343cab-44d8-4745-a889-9027a81d92ef","coordinates":[-46.7526,-23.6019]},{"id":"2d862400-6d31-4c6c-86be-25408a6798df","title":"SP - SUZANO","tipo":"Cesgranrio","url":"\/dashboard\/details-assets\/2d862400-6d31-4c6c-86be-25408a6798df","coordinates":[-46.3112,-23.5448]},{"id":"b25351fd-79b9-4f3f-9ebe-c9a25517c395","title":"SP - SUMARE","tipo":"Cesgranrio","url":"\/dashboard\/details-assets\/b25351fd-79b9-4f3f-9ebe-c9a25517c395","coordinates":[-47.2728,-22.8204]},{"id":"e58dbf2e-d23e-4701-91c0-9907cee02bfc","title":"SP - SOROCABA","tipo":"Cesgranrio","url":"\/dashboard\/details-assets\/e58dbf2e-d23e-4701-91c0-9907cee02bfc","coordinates":[-47.4451,-23.4969]},{"id":"d4e3001e-51b7-4f81-9f59-d275c43074f6","title":"SP - SOCORRO","tipo":"Cesgranrio","url":"\/dashboard\/details-assets\/d4e3001e-51b7-4f81-9f59-d275c43074f6","coordinates":[-46.5251,-22.5903]},{"id":"cc76bb25-ffa8-4c20-a619-f1d074bf5098","title":"SP - SERTAOZINHO","tipo":"Cesgranrio","url":"\/dashboard\/details-assets\/cc76bb25-ffa8-4c20-a619-f1d074bf5098","coordinates":[-47.9875,-21.1316]},{"id":"87a643bb-fdb7-454f-8e0a-82b982b6702d","title":"SP - SERRANA","tipo":"Cesgranrio","url":"\/dashboard\/details-assets\/87a643bb-fdb7-454f-8e0a-82b982b6702d","coordinates":[-47.5952,-21.2043]},{"id":"a4305f5c-9de9-404c-910c-65a705990701","title":"SP - SERRA AZUL","tipo":"Cesgranrio","url":"\/dashboard\/details-assets\/a4305f5c-9de9-404c-910c-65a705990701","coordinates":[-47.5602,-21.3074]},{"id":"e16ed720-2b62-4da8-9150-e4ec4732ec28","title":"SP - SAO VICENTE","tipo":"Cesgranrio","url":"\/dashboard\/details-assets\/e16ed720-2b62-4da8-9150-e4ec4732ec28","coordinates":[-46.3883,-23.9574]},{"id":"7e0a89d9-77a8-4b86-9b71-ff5b75418adf","title":"SP - SAO SEBASTIAO","tipo":"Cesgranrio","url":"\/dashboard\/details-assets\/7e0a89d9-77a8-4b86-9b71-ff5b75418adf","coordinates":[-45.4143,-23.7951]},{"id":"2ed153e4-c40d-47ae-93d7-86ed73524eb6","title":"SP - SAO ROQUE","tipo":"Cesgranrio","url":"\/dashboard\/details-assets\/2ed153e4-c40d-47ae-93d7-86ed73524eb6","coordinates":[-47.1357,-23.5226]},{"id":"b1fce43a-3006-4eaf-973c-d1b544b9975c","title":"SP - SAO PAULO","tipo":"Cesgranrio","url":"\/dashboard\/details-assets\/b1fce43a-3006-4eaf-973c-d1b544b9975c","coordinates":[-46.6395,-23.5329]},{"id":"f9af21c3-9d85-40c1-ae1d-1f0735b319b6","title":"SP - SAO MIGUEL ARCANJO","tipo":"Cesgranrio","url":"\/dashboard\/details-assets\/f9af21c3-9d85-40c1-ae1d-1f0735b319b6","coordinates":[-47.9935,-23.8782]},{"id":"200e4b93-39f9-41ff-a150-6ad159df0ba9","title":"SP - SAO JOSE DOS CAMPOS","tipo":"Cesgranrio","url":"\/dashboard\/details-assets\/200e4b93-39f9-41ff-a150-6ad159df0ba9","coordinates":[-45.8841,-23.1896]},{"id":"0851575b-4f77-4497-8c79-c3ce6295ba01","title":"SP - SAO MANUEL","tipo":"Cesgranrio","url":"\/dashboard\/details-assets\/0851575b-4f77-4497-8c79-c3ce6295ba01","coordinates":[-48.5723,-22.7321]},{"id":"1730d4bf-4982-41ee-902f-05e7cce8e71e","title":"SP - SAO JOSE DO RIO PRETO","tipo":"Cesgranrio","url":"\/dashboard\/details-assets\/1730d4bf-4982-41ee-902f-05e7cce8e71e","coordinates":[-49.3758,-20.8113]},{"id":"58db110f-783e-42cb-8fa0-3a9e3cefb3eb","title":"SP - SAO JOSE DO RIO PARDO","tipo":"Cesgranrio","url":"\/dashboard\/details-assets\/58db110f-783e-42cb-8fa0-3a9e3cefb3eb","coordinates":[-46.8873,-21.5953]},{"id":"2862b64d-af15-4170-80ca-aed9e3305eef","title":"SP - SAO JOAQUIM DA BARRA","tipo":"Cesgranrio","url":"\/dashboard\/details-assets\/2862b64d-af15-4170-80ca-aed9e3305eef","coordinates":[-47.8593,-20.5812]},{"id":"1373918f-18a3-4cc1-9a8b-e0869f9dcefe","title":"SP - SAO JOAO DA BOA VISTA","tipo":"Cesgranrio","url":"\/dashboard\/details-assets\/1373918f-18a3-4cc1-9a8b-e0869f9dcefe","coordinates":[-46.7944,-21.9707]},{"id":"5a6b99db-f619-4ceb-9f90-0c377e957d82","title":"SP - SAO CARLOS","tipo":"Cesgranrio","url":"\/dashboard\/details-assets\/5a6b99db-f619-4ceb-9f90-0c377e957d82","coordinates":[-47.886,-22.0174]},{"id":"7be5c763-8411-463e-9abb-e8fa4d1192d3","title":"SP - SAO CAETANO DO SUL","tipo":"Cesgranrio","url":"\/dashboard\/details-assets\/7be5c763-8411-463e-9abb-e8fa4d1192d3","coordinates":[-46.5548,-23.6229]},{"id":"7b84a6c8-e778-46f8-8012-4858f1412ff0","title":"SP - SAO BERNARDO DO CAMPO","tipo":"Cesgranrio","url":"\/dashboard\/details-assets\/7b84a6c8-e778-46f8-8012-4858f1412ff0","coordinates":[-46.5646,-23.6914]},{"id":"dd8b8974-19bb-485d-a1d3-b8b1d84efc75","title":"SP - SANTOS","tipo":"Cesgranrio","url":"\/dashboard\/details-assets\/dd8b8974-19bb-485d-a1d3-b8b1d84efc75","coordinates":[-46.335,-23.9535]},{"id":"7a6d8c07-7340-4bc8-917f-0d3fd3863b66","title":"SP - SANTO ANDRE","tipo":"Cesgranrio","url":"\/dashboard\/details-assets\/7a6d8c07-7340-4bc8-917f-0d3fd3863b66","coordinates":[-46.5432,-23.6737]},{"id":"d48deaf5-377e-4806-a615-7100c95be763","title":"SP - SANTANA DE PARNAIBA","tipo":"Cesgranrio","url":"\/dashboard\/details-assets\/d48deaf5-377e-4806-a615-7100c95be763","coordinates":[-46.9178,-23.4439]},{"id":"43d20978-4f50-498c-887f-bbdf05403ff9","title":"SP - SANTA ROSA DE VITERBO","tipo":"Cesgranrio","url":"\/dashboard\/details-assets\/43d20978-4f50-498c-887f-bbdf05403ff9","coordinates":[-47.3622,-21.4776]},{"id":"93dd3f88-2e93-4d1b-a478-7e2ebb5dc2b3","title":"SP - SANTA ISABEL","tipo":"Cesgranrio","url":"\/dashboard\/details-assets\/93dd3f88-2e93-4d1b-a478-7e2ebb5dc2b3","coordinates":[-46.2237,-23.3172]},{"id":"6d2446de-2184-4141-91f6-bfc41fde9386","title":"SP - SANTA FE DO SUL","tipo":"Cesgranrio","url":"\/dashboard\/details-assets\/6d2446de-2184-4141-91f6-bfc41fde9386","coordinates":[-50.932,-20.2083]},{"id":"2c0942a7-076d-4ca6-a8f2-547e2fb2d235","title":"SP - SANTA CRUZ DO RIO PARDO","tipo":"Cesgranrio","url":"\/dashboard\/details-assets\/2c0942a7-076d-4ca6-a8f2-547e2fb2d235","coordinates":[-49.6354,-22.8988]},{"id":"bdc3f6b2-5f16-4eae-a5d5-7630711e2122","title":"SP - SALTO DE PIRAPORA","tipo":"Cesgranrio","url":"\/dashboard\/details-assets\/bdc3f6b2-5f16-4eae-a5d5-7630711e2122","coordinates":[-47.5743,-23.6474]},{"id":"3fcc2fb6-51d1-4022-b825-2812067443e9","title":"SP - SANTA BARBARA D'OESTE","tipo":"Cesgranrio","url":"\/dashboard\/details-assets\/3fcc2fb6-51d1-4022-b825-2812067443e9","coordinates":[-47.4143,-22.7553]},{"id":"a86fab08-e394-497c-bc9a-6b9ea6cde77c","title":"SP - SALTO","tipo":"Cesgranrio","url":"\/dashboard\/details-assets\/a86fab08-e394-497c-bc9a-6b9ea6cde77c","coordinates":[-47.2931,-23.1996]},{"id":"0abbc489-f72c-4b30-9414-a832b56911bc","title":"SP - ROSANA","tipo":"Cesgranrio","url":"\/dashboard\/details-assets\/0abbc489-f72c-4b30-9414-a832b56911bc","coordinates":[-53.0603,-22.5782]},{"id":"0ab947a0-c455-4a72-937e-e61b7e6aa454","title":"SP - RIOLANDIA","tipo":"Cesgranrio","url":"\/dashboard\/details-assets\/0ab947a0-c455-4a72-937e-e61b7e6aa454","coordinates":[-49.6836,-19.9868]},{"id":"87bf0517-a049-4e33-a1e2-fc1367866dc5","title":"SP - RIO GRANDE DA SERRA","tipo":"Cesgranrio","url":"\/dashboard\/details-assets\/87bf0517-a049-4e33-a1e2-fc1367866dc5","coordinates":[-46.3971,-23.7437]},{"id":"07ee7a97-4584-426d-9e52-ee1d03dc6a55","title":"SP - RIO CLARO","tipo":"Cesgranrio","url":"\/dashboard\/details-assets\/07ee7a97-4584-426d-9e52-ee1d03dc6a55","coordinates":[-47.5546,-22.3984]},{"id":"ab3a3b1c-9453-49d6-818d-da01bcaf614c","title":"SP - RIBEIRAO PRETO","tipo":"Cesgranrio","url":"\/dashboard\/details-assets\/ab3a3b1c-9453-49d6-818d-da01bcaf614c","coordinates":[-47.8099,-21.1699]},{"id":"64387450-1653-43fe-950e-83952b1a4d1b","title":"SP - RIBEIRAO PIRES","tipo":"Cesgranrio","url":"\/dashboard\/details-assets\/64387450-1653-43fe-950e-83952b1a4d1b","coordinates":[-46.4058,-23.7067]},{"id":"a361a3e5-0b1f-4b10-b605-45b891337505","title":"SP - REGISTRO","tipo":"Cesgranrio","url":"\/dashboard\/details-assets\/a361a3e5-0b1f-4b10-b605-45b891337505","coordinates":[-47.8449,-24.4979]},{"id":"ea0ccaea-d1b7-4141-a122-49f31d01e4d4","title":"SP - REGINOPOLIS","tipo":"Cesgranrio","url":"\/dashboard\/details-assets\/ea0ccaea-d1b7-4141-a122-49f31d01e4d4","coordinates":[-49.2268,-21.8914]},{"id":"b7bb43ff-7cc0-47af-8e6a-461abe219457","title":"SP - RANCHARIA","tipo":"Cesgranrio","url":"\/dashboard\/details-assets\/b7bb43ff-7cc0-47af-8e6a-461abe219457","coordinates":[-50.893,-22.2269]},{"id":"f7bea1fd-560b-48e0-a075-ec6a9689c075","title":"SP - PRESIDENTE VENCESLAU","tipo":"Cesgranrio","url":"\/dashboard\/details-assets\/f7bea1fd-560b-48e0-a075-ec6a9689c075","coordinates":[-51.8447,-21.8732]},{"id":"875706da-ad13-4a84-b012-916cfe092b0f","title":"SP - PRESIDENTE PRUDENTE","tipo":"Cesgranrio","url":"\/dashboard\/details-assets\/875706da-ad13-4a84-b012-916cfe092b0f","coordinates":[-51.3925,-22.1207]},{"id":"9ce98280-d478-4d44-96af-5eb948640081","title":"SP - PRESIDENTE EPITACIO","tipo":"Cesgranrio","url":"\/dashboard\/details-assets\/9ce98280-d478-4d44-96af-5eb948640081","coordinates":[-52.1111,-21.7651]},{"id":"a1962df6-bb34-43b0-83ee-8f84b52a423c","title":"SP - PRESIDENTE BERNARDES","tipo":"Cesgranrio","url":"\/dashboard\/details-assets\/a1962df6-bb34-43b0-83ee-8f84b52a423c","coordinates":[-51.5565,-22.0082]},{"id":"2c508644-c3e8-4f48-b028-514078473a74","title":"SP - PRAIA GRANDE","tipo":"Cesgranrio","url":"\/dashboard\/details-assets\/2c508644-c3e8-4f48-b028-514078473a74","coordinates":[-46.4121,-24.0084]},{"id":"6d0c7586-11d9-4d30-affe-2dc7c7744449","title":"SP - PRACINHA","tipo":"Cesgranrio","url":"\/dashboard\/details-assets\/6d0c7586-11d9-4d30-affe-2dc7c7744449","coordinates":[-51.0868,-21.8496]},{"id":"c5cbf95c-50ff-4fb5-affd-ffb9841cb52e","title":"SP - POTIM","tipo":"Cesgranrio","url":"\/dashboard\/details-assets\/c5cbf95c-50ff-4fb5-affd-ffb9841cb52e","coordinates":[-45.2552,-22.8343]},{"id":"9b26b97d-500a-407d-8fec-556adf330651","title":"SP - PORTO FERREIRA","tipo":"Cesgranrio","url":"\/dashboard\/details-assets\/9b26b97d-500a-407d-8fec-556adf330651","coordinates":[-47.487,-21.8498]},{"id":"bb74822b-f97d-44e8-bd65-13262546a83f","title":"SP - PORTO FELIZ","tipo":"Cesgranrio","url":"\/dashboard\/details-assets\/bb74822b-f97d-44e8-bd65-13262546a83f","coordinates":[-47.5251,-23.2093]},{"id":"19ee196f-bebc-4058-832d-a1026995675d","title":"SP - PONTAL","tipo":"Cesgranrio","url":"\/dashboard\/details-assets\/19ee196f-bebc-4058-832d-a1026995675d","coordinates":[-48.0423,-21.0216]},{"id":"ced10b73-6607-4656-a139-7f9db58fbe9d","title":"SP - POA","tipo":"Cesgranrio","url":"\/dashboard\/details-assets\/ced10b73-6607-4656-a139-7f9db58fbe9d","coordinates":[-46.3473,-23.5333]},{"id":"1d39497e-3fbe-4221-95b9-940ccabe4d30","title":"SP - PIRASSUNUNGA","tipo":"Cesgranrio","url":"\/dashboard\/details-assets\/1d39497e-3fbe-4221-95b9-940ccabe4d30","coordinates":[-47.4257,-21.996]},{"id":"74eb6ed2-056e-49bd-98b0-8ed69eab9765","title":"SP - PIRAJUI","tipo":"Cesgranrio","url":"\/dashboard\/details-assets\/74eb6ed2-056e-49bd-98b0-8ed69eab9765","coordinates":[-49.4608,-21.999]},{"id":"aff919cd-1662-499e-8175-8111d4830eed","title":"SP - PIRAJU","tipo":"Cesgranrio","url":"\/dashboard\/details-assets\/aff919cd-1662-499e-8175-8111d4830eed","coordinates":[-49.3803,-23.1981]},{"id":"acb8b645-55f6-487e-86c8-97d0f009bce7","title":"SP - PIRACICABA","tipo":"Cesgranrio","url":"\/dashboard\/details-assets\/acb8b645-55f6-487e-86c8-97d0f009bce7","coordinates":[-47.6476,-22.7338]},{"id":"7d12ee1e-6366-4aa3-a8dd-48f791534957","title":"SP - PINDAMONHANGABA","tipo":"Cesgranrio","url":"\/dashboard\/details-assets\/7d12ee1e-6366-4aa3-a8dd-48f791534957","coordinates":[-45.4613,-22.9246]},{"id":"f6c7e1e9-aeff-4f33-9fe8-82520f90e568","title":"SP - PILAR DO SUL","tipo":"Cesgranrio","url":"\/dashboard\/details-assets\/f6c7e1e9-aeff-4f33-9fe8-82520f90e568","coordinates":[-47.7222,-23.8077]},{"id":"709a8c83-7eef-464c-9947-942e47b0342c","title":"SP - PIEDADE","tipo":"Cesgranrio","url":"\/dashboard\/details-assets\/709a8c83-7eef-464c-9947-942e47b0342c","coordinates":[-47.4256,-23.7139]},{"id":"f6c5cb0e-9472-452b-88b7-05c0acd2c9a1","title":"SP - PERUIBE","tipo":"Cesgranrio","url":"\/dashboard\/details-assets\/f6c5cb0e-9472-452b-88b7-05c0acd2c9a1","coordinates":[-47.0012,-24.312]},{"id":"121a7874-e812-42c8-bce6-aae8d4bb1bba","title":"SP - PEREIRA BARRETO","tipo":"Cesgranrio","url":"\/dashboard\/details-assets\/121a7874-e812-42c8-bce6-aae8d4bb1bba","coordinates":[-51.1123,-20.6368]},{"id":"948a235f-ab90-405c-be64-4950308ea573","title":"SP - PENAPOLIS","tipo":"Cesgranrio","url":"\/dashboard\/details-assets\/948a235f-ab90-405c-be64-4950308ea573","coordinates":[-50.0769,-21.4148]},{"id":"51052258-d998-48d3-be9d-cc10db136399","title":"SP - PEDREIRA","tipo":"Cesgranrio","url":"\/dashboard\/details-assets\/51052258-d998-48d3-be9d-cc10db136399","coordinates":[-46.8948,-22.7413]},{"id":"13d3341e-1c83-4f6d-9d93-5fb0f1def6be","title":"SP - PEDERNEIRAS","tipo":"Cesgranrio","url":"\/dashboard\/details-assets\/13d3341e-1c83-4f6d-9d93-5fb0f1def6be","coordinates":[-48.7781,-22.3511]},{"id":"3fc7f43c-093e-4813-ba6c-ef8e233be8a9","title":"SP - PAULINIA","tipo":"Cesgranrio","url":"\/dashboard\/details-assets\/3fc7f43c-093e-4813-ba6c-ef8e233be8a9","coordinates":[-47.1488,-22.7542]},{"id":"5a297dcd-c52e-4757-9bd2-eb2b32508796","title":"SP - PARAGUACU PAULISTA","tipo":"Cesgranrio","url":"\/dashboard\/details-assets\/5a297dcd-c52e-4757-9bd2-eb2b32508796","coordinates":[-50.5732,-22.4114]},{"id":"0e43b440-0fbf-4655-9b57-1a7d5581e0dd","title":"SP - PACAEMBU","tipo":"Cesgranrio","url":"\/dashboard\/details-assets\/0e43b440-0fbf-4655-9b57-1a7d5581e0dd","coordinates":[-51.2654,-21.5627]},{"id":"91f98091-1242-4cf0-ad9f-3aac3f458faa","title":"SP - OSVALDO CRUZ","tipo":"Cesgranrio","url":"\/dashboard\/details-assets\/91f98091-1242-4cf0-ad9f-3aac3f458faa","coordinates":[-50.8793,-21.7968]},{"id":"90212b10-9182-475c-9bc8-5258785d639c","title":"SP - OURINHOS","tipo":"Cesgranrio","url":"\/dashboard\/details-assets\/90212b10-9182-475c-9bc8-5258785d639c","coordinates":[-49.8697,-22.9797]},{"id":"5514a8a0-0547-4e1d-828d-130403e2aa23","title":"SP - OSASCO","tipo":"Cesgranrio","url":"\/dashboard\/details-assets\/5514a8a0-0547-4e1d-828d-130403e2aa23","coordinates":[-46.7916,-23.5324]},{"id":"0493711e-2739-4370-a3ef-448ba7967f52","title":"SP - ORLANDIA","tipo":"Cesgranrio","url":"\/dashboard\/details-assets\/0493711e-2739-4370-a3ef-448ba7967f52","coordinates":[-47.8852,-20.7169]},{"id":"950f29fa-b4fc-4fb2-a2cb-3496db27d9eb","title":"SP - OLIMPIA","tipo":"Cesgranrio","url":"\/dashboard\/details-assets\/950f29fa-b4fc-4fb2-a2cb-3496db27d9eb","coordinates":[-48.9106,-20.7366]},{"id":"7b9405a2-1418-4fd0-97c1-c4d4ad34155d","title":"SP - NOVO HORIZONTE","tipo":"Cesgranrio","url":"\/dashboard\/details-assets\/7b9405a2-1418-4fd0-97c1-c4d4ad34155d","coordinates":[-49.2234,-21.4651]},{"id":"a8397485-cec8-4457-b3d6-a258a9989a51","title":"SP - NOVA INDEPENDENCIA","tipo":"Cesgranrio","url":"\/dashboard\/details-assets\/a8397485-cec8-4457-b3d6-a258a9989a51","coordinates":[-51.4905,-21.1026]},{"id":"ba58fdc5-0d67-4ffc-bff4-e0217ce782ad","title":"SP - MONTE APRAZIVEL","tipo":"Cesgranrio","url":"\/dashboard\/details-assets\/ba58fdc5-0d67-4ffc-bff4-e0217ce782ad","coordinates":[-49.7184,-20.768]},{"id":"5dd7c2dd-423e-41fc-93ef-a3e44f7a084a","title":"SP - MONTE MOR","tipo":"Cesgranrio","url":"\/dashboard\/details-assets\/5dd7c2dd-423e-41fc-93ef-a3e44f7a084a","coordinates":[-47.3122,-22.945]},{"id":"e8f3a2b9-6d71-4f55-a398-332db2826868","title":"SP - MONTE ALTO","tipo":"Cesgranrio","url":"\/dashboard\/details-assets\/e8f3a2b9-6d71-4f55-a398-332db2826868","coordinates":[-48.4971,-21.2655]},{"id":"e65b376d-112f-4c4c-936a-75e170798010","title":"SP - MONGAGUA","tipo":"Cesgranrio","url":"\/dashboard\/details-assets\/e65b376d-112f-4c4c-936a-75e170798010","coordinates":[-46.6265,-24.0809]},{"id":"c241695d-271c-49f3-9265-45a2d86f0905","title":"SP - MOGI MIRIM","tipo":"Cesgranrio","url":"\/dashboard\/details-assets\/c241695d-271c-49f3-9265-45a2d86f0905","coordinates":[-46.9532,-22.4332]},{"id":"02033eed-a3db-4642-a6b0-596f70f7f6ee","title":"SP - MOGI GUACU","tipo":"Cesgranrio","url":"\/dashboard\/details-assets\/02033eed-a3db-4642-a6b0-596f70f7f6ee","coordinates":[-46.9428,-22.3675]},{"id":"4cead788-0719-49ce-aa24-de21816abc73","title":"SP - MOGI DAS CRUZES","tipo":"Cesgranrio","url":"\/dashboard\/details-assets\/4cead788-0719-49ce-aa24-de21816abc73","coordinates":[-46.1854,-23.5208]},{"id":"f4ff9915-0ea8-4ea2-9b1c-99e313fd6d11","title":"SP - MOCOCA","tipo":"Cesgranrio","url":"\/dashboard\/details-assets\/f4ff9915-0ea8-4ea2-9b1c-99e313fd6d11","coordinates":[-47.0024,-21.4647]},{"id":"82fd99a8-b3f3-493e-aeec-bb57f7ad785e","title":"SP - MIRASSOL","tipo":"Cesgranrio","url":"\/dashboard\/details-assets\/82fd99a8-b3f3-493e-aeec-bb57f7ad785e","coordinates":[-49.5206,-20.8169]},{"id":"955862ce-37cc-4d5c-b583-7c428fb0c0a2","title":"SP - MIRANTE DO PARANAPANEMA","tipo":"Cesgranrio","url":"\/dashboard\/details-assets\/955862ce-37cc-4d5c-b583-7c428fb0c0a2","coordinates":[-51.9084,-22.2904]},{"id":"0268f55a-0b22-40a4-9c94-f263a884a172","title":"SP - MIRANDOPOLIS","tipo":"Cesgranrio","url":"\/dashboard\/details-assets\/0268f55a-0b22-40a4-9c94-f263a884a172","coordinates":[-51.1035,-21.1313]},{"id":"53484708-41ba-4c54-9eba-f5a3307fbe7a","title":"SP - MIRACATU","tipo":"Cesgranrio","url":"\/dashboard\/details-assets\/53484708-41ba-4c54-9eba-f5a3307fbe7a","coordinates":[-47.4625,-24.2766]},{"id":"30706236-c13a-4930-955f-78b2fdff5bef","title":"SP - MAUA","tipo":"Cesgranrio","url":"\/dashboard\/details-assets\/30706236-c13a-4930-955f-78b2fdff5bef","coordinates":[-46.4613,-23.6677]},{"id":"82583313-0fc9-40f8-855b-499546e508a3","title":"SP - MATAO","tipo":"Cesgranrio","url":"\/dashboard\/details-assets\/82583313-0fc9-40f8-855b-499546e508a3","coordinates":[-48.364,-21.6025]},{"id":"7002c408-0435-4c74-9bb5-51f2518bf534","title":"SP - MARTINOPOLIS","tipo":"Cesgranrio","url":"\/dashboard\/details-assets\/7002c408-0435-4c74-9bb5-51f2518bf534","coordinates":[-51.1709,-22.1462]},{"id":"e20a7997-88df-4e13-ab6e-4366435d91a9","title":"SP - MARILIA","tipo":"Cesgranrio","url":"\/dashboard\/details-assets\/e20a7997-88df-4e13-ab6e-4366435d91a9","coordinates":[-49.9501,-22.2171]},{"id":"18b566b3-81cf-46b2-af49-973bec0a1e34","title":"SP - MARABA PAULISTA","tipo":"Cesgranrio","url":"\/dashboard\/details-assets\/18b566b3-81cf-46b2-af49-973bec0a1e34","coordinates":[-51.9617,-22.1068]},{"id":"bd35e449-c8c8-466f-aec8-73d83cac72b3","title":"SP - MAIRIPORA","tipo":"Cesgranrio","url":"\/dashboard\/details-assets\/bd35e449-c8c8-466f-aec8-73d83cac72b3","coordinates":[-46.5897,-23.3171]},{"id":"4f0fc30f-e603-42d1-9c83-66d071e37734","title":"SP - MAIRINQUE","tipo":"Cesgranrio","url":"\/dashboard\/details-assets\/4f0fc30f-e603-42d1-9c83-66d071e37734","coordinates":[-47.185,-23.5398]},{"id":"d6adba1f-2360-42cd-b054-c4839d113eaf","title":"SP - LUCELIA","tipo":"Cesgranrio","url":"\/dashboard\/details-assets\/d6adba1f-2360-42cd-b054-c4839d113eaf","coordinates":[-51.0215,-21.7182]},{"id":"3c15faf4-cc9c-4a06-b6db-478c767a7af0","title":"SP - LOUVEIRA","tipo":"Cesgranrio","url":"\/dashboard\/details-assets\/3c15faf4-cc9c-4a06-b6db-478c767a7af0","coordinates":[-46.9484,-23.0856]},{"id":"2ac1de59-967f-4310-a09b-9d5d94c3d9c1","title":"SP - LORENA","tipo":"Cesgranrio","url":"\/dashboard\/details-assets\/2ac1de59-967f-4310-a09b-9d5d94c3d9c1","coordinates":[-45.1197,-22.7334]},{"id":"b7aab205-4b98-4b10-b1fd-1abd5e2d628f","title":"SP - LINS","tipo":"Cesgranrio","url":"\/dashboard\/details-assets\/b7aab205-4b98-4b10-b1fd-1abd5e2d628f","coordinates":[-49.7526,-21.6718]},{"id":"a7477553-f7a8-482c-81d9-fc8a27b94ec1","title":"SP - LIMEIRA","tipo":"Cesgranrio","url":"\/dashboard\/details-assets\/a7477553-f7a8-482c-81d9-fc8a27b94ec1","coordinates":[-47.397,-22.566]},{"id":"0227ff14-89c4-4f97-942b-2aafd01fbcc1","title":"SP - LENCOIS PAULISTA","tipo":"Cesgranrio","url":"\/dashboard\/details-assets\/0227ff14-89c4-4f97-942b-2aafd01fbcc1","coordinates":[-48.8037,-22.6027]},{"id":"7c374edb-34db-49be-8fce-6eb766691c08","title":"SP - LEME","tipo":"Cesgranrio","url":"\/dashboard\/details-assets\/7c374edb-34db-49be-8fce-6eb766691c08","coordinates":[-47.3841,-22.1809]},{"id":"d472a767-9307-45de-a65f-2aa8b4c51f12","title":"SP - LAVINIA","tipo":"Cesgranrio","url":"\/dashboard\/details-assets\/d472a767-9307-45de-a65f-2aa8b4c51f12","coordinates":[-51.0412,-21.1639]},{"id":"975c8d3c-7c0e-43a5-97b4-bf65256e1d80","title":"SP - JUQUITIBA","tipo":"Cesgranrio","url":"\/dashboard\/details-assets\/975c8d3c-7c0e-43a5-97b4-bf65256e1d80","coordinates":[-47.0653,-23.9244]},{"id":"50d3ec69-a3d1-40c7-984d-a1ef91f08f9b","title":"SP - JUNQUEIROPOLIS","tipo":"Cesgranrio","url":"\/dashboard\/details-assets\/50d3ec69-a3d1-40c7-984d-a1ef91f08f9b","coordinates":[-51.4342,-21.5103]},{"id":"cd536d7a-b18f-445e-8887-6967fe706a25","title":"SP - JUNDIAI","tipo":"Cesgranrio","url":"\/dashboard\/details-assets\/cd536d7a-b18f-445e-8887-6967fe706a25","coordinates":[-46.8974,-23.1852]},{"id":"7148d06c-bea8-47e1-8411-4e0e50f222d7","title":"SP - JOSE BONIFACIO","tipo":"Cesgranrio","url":"\/dashboard\/details-assets\/7148d06c-bea8-47e1-8411-4e0e50f222d7","coordinates":[-49.6892,-21.0551]},{"id":"abfceec9-1114-4829-a2aa-99fae714bc21","title":"SP - JAU","tipo":"Cesgranrio","url":"\/dashboard\/details-assets\/abfceec9-1114-4829-a2aa-99fae714bc21","coordinates":[-48.5592,-22.2936]},{"id":"5b8853ab-15ec-42ac-a2ee-5dc8d356493d","title":"SP - JARDINOPOLIS","tipo":"Cesgranrio","url":"\/dashboard\/details-assets\/5b8853ab-15ec-42ac-a2ee-5dc8d356493d","coordinates":[-47.7606,-21.0176]},{"id":"056903dc-80fa-4b84-8b2c-aa1608d082dc","title":"SP - JANDIRA","tipo":"Cesgranrio","url":"\/dashboard\/details-assets\/056903dc-80fa-4b84-8b2c-aa1608d082dc","coordinates":[-46.9023,-23.5275]},{"id":"95ee7573-b05c-4bb7-a5dd-4bb3be71eb0e","title":"SP - JALES","tipo":"Cesgranrio","url":"\/dashboard\/details-assets\/95ee7573-b05c-4bb7-a5dd-4bb3be71eb0e","coordinates":[-50.5494,-20.2672]},{"id":"b3a3a913-7b68-48d9-8fd0-0884cf6eae19","title":"SP - JAGUARIUNA","tipo":"Cesgranrio","url":"\/dashboard\/details-assets\/b3a3a913-7b68-48d9-8fd0-0884cf6eae19","coordinates":[-46.9851,-22.7037]},{"id":"7b0aea2c-8995-48b1-822b-f554ef533d79","title":"SP - JACAREI","tipo":"Cesgranrio","url":"\/dashboard\/details-assets\/7b0aea2c-8995-48b1-822b-f554ef533d79","coordinates":[-45.9658,-23.2983]},{"id":"3fde8896-a4eb-4c61-888c-31f72b1276b0","title":"SP - ITUVERAVA","tipo":"Cesgranrio","url":"\/dashboard\/details-assets\/3fde8896-a4eb-4c61-888c-31f72b1276b0","coordinates":[-47.7902,-20.3355]},{"id":"d375b084-a1df-42a3-8ab1-572027c1f60a","title":"SP - JABOTICABAL","tipo":"Cesgranrio","url":"\/dashboard\/details-assets\/d375b084-a1df-42a3-8ab1-572027c1f60a","coordinates":[-48.3252,-21.252]},{"id":"bdd34eb4-420a-4d81-966e-576d27b94039","title":"SP - ITUPEVA","tipo":"Cesgranrio","url":"\/dashboard\/details-assets\/bdd34eb4-420a-4d81-966e-576d27b94039","coordinates":[-47.0593,-23.1526]},{"id":"15f65ca7-0c5e-49e4-aa10-b7a5dbc0b3fb","title":"SP - ITU","tipo":"Cesgranrio","url":"\/dashboard\/details-assets\/15f65ca7-0c5e-49e4-aa10-b7a5dbc0b3fb","coordinates":[-47.2927,-23.2544]},{"id":"f7f8a6ac-f2d1-4240-94f5-b129cf0cbcfe","title":"SP - ITIRAPINA","tipo":"Cesgranrio","url":"\/dashboard\/details-assets\/f7f8a6ac-f2d1-4240-94f5-b129cf0cbcfe","coordinates":[-47.8166,-22.2562]},{"id":"522129cc-8d04-44b1-a870-498b2204d316","title":"SP - ITATINGA","tipo":"Cesgranrio","url":"\/dashboard\/details-assets\/522129cc-8d04-44b1-a870-498b2204d316","coordinates":[-48.6157,-23.1047]},{"id":"c63bdf91-e582-451a-a465-34bbc5e2ce21","title":"SP - ITATIBA","tipo":"Cesgranrio","url":"\/dashboard\/details-assets\/c63bdf91-e582-451a-a465-34bbc5e2ce21","coordinates":[-46.8464,-23.0035]},{"id":"e818a39f-51aa-43d0-91dd-6a3c58dff68c","title":"SP - ITARARE","tipo":"Cesgranrio","url":"\/dashboard\/details-assets\/e818a39f-51aa-43d0-91dd-6a3c58dff68c","coordinates":[-49.3352,-24.1085]},{"id":"18bbfc33-7a02-41a1-b2d2-dc6434278051","title":"SP - ITAQUAQUECETUBA","tipo":"Cesgranrio","url":"\/dashboard\/details-assets\/18bbfc33-7a02-41a1-b2d2-dc6434278051","coordinates":[-46.3457,-23.4835]},{"id":"961a4204-314d-414b-a76d-e9a4f2f3fb82","title":"SP - ITAPOLIS","tipo":"Cesgranrio","url":"\/dashboard\/details-assets\/961a4204-314d-414b-a76d-e9a4f2f3fb82","coordinates":[-48.8149,-21.5942]},{"id":"48eb3969-5288-4f99-b299-c05194a8941d","title":"SP - ITAPIRA","tipo":"Cesgranrio","url":"\/dashboard\/details-assets\/48eb3969-5288-4f99-b299-c05194a8941d","coordinates":[-46.8224,-22.4357]},{"id":"42c5b4c2-9ba5-4d92-b697-e52738df2cd7","title":"SP - ITAPEVI","tipo":"Cesgranrio","url":"\/dashboard\/details-assets\/42c5b4c2-9ba5-4d92-b697-e52738df2cd7","coordinates":[-46.9327,-23.5488]},{"id":"387ea092-179d-4788-84d7-7a88a5f61682","title":"SP - ITAPETININGA","tipo":"Cesgranrio","url":"\/dashboard\/details-assets\/387ea092-179d-4788-84d7-7a88a5f61682","coordinates":[-48.0483,-23.5886]},{"id":"8f526adb-c1b8-46fc-b6b3-91dc1b0115d0","title":"SP - ITAPEVA","tipo":"Cesgranrio","url":"\/dashboard\/details-assets\/8f526adb-c1b8-46fc-b6b3-91dc1b0115d0","coordinates":[-48.8764,-23.9788]},{"id":"84805b72-164e-4861-96dd-8096c67c952b","title":"SP - ITAPECERICA DA SERRA","tipo":"Cesgranrio","url":"\/dashboard\/details-assets\/84805b72-164e-4861-96dd-8096c67c952b","coordinates":[-46.8572,-23.7161]},{"id":"bb1a0f9b-58f5-44b0-a41e-e62081a26c68","title":"SP - ITAI","tipo":"Cesgranrio","url":"\/dashboard\/details-assets\/bb1a0f9b-58f5-44b0-a41e-e62081a26c68","coordinates":[-49.092,-23.4213]},{"id":"357a82d1-9f43-4d04-a655-d485e48ea0eb","title":"SP - ITANHAEM","tipo":"Cesgranrio","url":"\/dashboard\/details-assets\/357a82d1-9f43-4d04-a655-d485e48ea0eb","coordinates":[-46.788,-24.1736]},{"id":"56016e8a-d044-4ee6-9db9-e46f5770a639","title":"SP - IRAPURU","tipo":"Cesgranrio","url":"\/dashboard\/details-assets\/56016e8a-d044-4ee6-9db9-e46f5770a639","coordinates":[-51.3472,-21.5684]},{"id":"81a912b3-b7b8-48d2-8bfa-96b42f9f70a9","title":"SP - IPERO","tipo":"Cesgranrio","url":"\/dashboard\/details-assets\/81a912b3-b7b8-48d2-8bfa-96b42f9f70a9","coordinates":[-47.6927,-23.3513]},{"id":"35b40304-4b79-4db4-ab5d-86ba44e0259b","title":"SP - INDAIATUBA","tipo":"Cesgranrio","url":"\/dashboard\/details-assets\/35b40304-4b79-4db4-ab5d-86ba44e0259b","coordinates":[-47.2101,-23.0816]},{"id":"af5eb7cf-ad8a-4c4d-9c76-11070306a320","title":"SP - ILHABELA","tipo":"Cesgranrio","url":"\/dashboard\/details-assets\/af5eb7cf-ad8a-4c4d-9c76-11070306a320","coordinates":[-45.3552,-23.7785]},{"id":"6bca07fa-13fa-40ea-9883-eb94fab7458b","title":"SP - ILHA SOLTEIRA","tipo":"Cesgranrio","url":"\/dashboard\/details-assets\/6bca07fa-13fa-40ea-9883-eb94fab7458b","coordinates":[-51.3426,-20.4326]},{"id":"f482c770-7dfd-49f9-9146-362492712f43","title":"SP - IGUAPE","tipo":"Cesgranrio","url":"\/dashboard\/details-assets\/f482c770-7dfd-49f9-9146-362492712f43","coordinates":[-47.5537,-24.699]},{"id":"6a3fc927-8801-4ec0-a6de-e2a9050a3214","title":"SP - IBIUNA","tipo":"Cesgranrio","url":"\/dashboard\/details-assets\/6a3fc927-8801-4ec0-a6de-e2a9050a3214","coordinates":[-47.223,-23.6596]},{"id":"ea77012e-7635-4842-a7d9-bda4625f1f9c","title":"SP - ICEM","tipo":"Cesgranrio","url":"\/dashboard\/details-assets\/ea77012e-7635-4842-a7d9-bda4625f1f9c","coordinates":[-49.1915,-20.3391]},{"id":"efef95ff-245b-404e-8e9c-d759abb3f8f1","title":"SP - IBITINGA","tipo":"Cesgranrio","url":"\/dashboard\/details-assets\/efef95ff-245b-404e-8e9c-d759abb3f8f1","coordinates":[-48.8319,-21.7562]},{"id":"8239896c-1c44-4396-9ff8-3c22b8d6341a","title":"SP - IARAS","tipo":"Cesgranrio","url":"\/dashboard\/details-assets\/8239896c-1c44-4396-9ff8-3c22b8d6341a","coordinates":[-49.1634,-22.8682]},{"id":"8a6cddb3-0874-4daf-91d3-dc9292a6acd8","title":"SP - IBATE","tipo":"Cesgranrio","url":"\/dashboard\/details-assets\/8a6cddb3-0874-4daf-91d3-dc9292a6acd8","coordinates":[-47.9882,-21.9584]},{"id":"1b9098bc-9259-44c1-ad9e-f37b6e4e80ed","title":"SP - GUARULHOS","tipo":"Cesgranrio","url":"\/dashboard\/details-assets\/1b9098bc-9259-44c1-ad9e-f37b6e4e80ed","coordinates":[-46.5333,-23.4538]},{"id":"9ef8f856-e17c-4439-9194-769614efe66b","title":"SP - HORTOLANDIA","tipo":"Cesgranrio","url":"\/dashboard\/details-assets\/9ef8f856-e17c-4439-9194-769614efe66b","coordinates":[-47.2143,-22.8529]},{"id":"99d3f32b-3b25-41a7-834f-d0342d03c190","title":"SP - GUARUJA","tipo":"Cesgranrio","url":"\/dashboard\/details-assets\/99d3f32b-3b25-41a7-834f-d0342d03c190","coordinates":[-46.258,-23.9888]},{"id":"db83dcac-804b-4002-8519-8bcdebf91cf8","title":"SP - GUARIBA","tipo":"Cesgranrio","url":"\/dashboard\/details-assets\/db83dcac-804b-4002-8519-8bcdebf91cf8","coordinates":[-48.2316,-21.3594]},{"id":"cf27d184-d3eb-4b29-a8de-7e672fd461cf","title":"SP - GUAREI","tipo":"Cesgranrio","url":"\/dashboard\/details-assets\/cf27d184-d3eb-4b29-a8de-7e672fd461cf","coordinates":[-48.1837,-23.3714]},{"id":"4da3ffa2-98f5-4500-943c-4e4fbb1a931d","title":"SP - GUARATINGUETA","tipo":"Cesgranrio","url":"\/dashboard\/details-assets\/4da3ffa2-98f5-4500-943c-4e4fbb1a931d","coordinates":[-45.1938,-22.8075]},{"id":"92a57616-e95e-4506-95db-71366407570a","title":"SP - GUARARAPES","tipo":"Cesgranrio","url":"\/dashboard\/details-assets\/92a57616-e95e-4506-95db-71366407570a","coordinates":[-50.6453,-21.2544]},{"id":"ae2d4dc6-0bbe-4962-9c2f-9101982cc6b3","title":"SP - GUAIRA","tipo":"Cesgranrio","url":"\/dashboard\/details-assets\/ae2d4dc6-0bbe-4962-9c2f-9101982cc6b3","coordinates":[-48.312,-20.3196]},{"id":"1c42525b-ea17-4864-b6e1-82d1ddde21f3","title":"SP - GETULINA","tipo":"Cesgranrio","url":"\/dashboard\/details-assets\/1c42525b-ea17-4864-b6e1-82d1ddde21f3","coordinates":[-49.9312,-21.7961]},{"id":"42132e8f-21a0-4489-bc75-c352161f3a2c","title":"SP - GARCA","tipo":"Cesgranrio","url":"\/dashboard\/details-assets\/42132e8f-21a0-4489-bc75-c352161f3a2c","coordinates":[-49.6546,-22.2125]},{"id":"af843023-3f1c-4262-9625-49bc59b753c9","title":"SP - FRANCO DA ROCHA","tipo":"Cesgranrio","url":"\/dashboard\/details-assets\/af843023-3f1c-4262-9625-49bc59b753c9","coordinates":[-46.729,-23.3229]},{"id":"b4a9e671-8045-44db-8737-0396fca10374","title":"SP - FRANCISCO MORATO","tipo":"Cesgranrio","url":"\/dashboard\/details-assets\/b4a9e671-8045-44db-8737-0396fca10374","coordinates":[-46.7448,-23.2792]},{"id":"530f9840-a5cd-4c89-96e2-2c7931a82f4a","title":"SP - FRANCA","tipo":"Cesgranrio","url":"\/dashboard\/details-assets\/530f9840-a5cd-4c89-96e2-2c7931a82f4a","coordinates":[-47.4039,-20.5352]},{"id":"093efab2-a3b5-4f32-8e5f-603f543ca588","title":"SP - FLORINIA","tipo":"Cesgranrio","url":"\/dashboard\/details-assets\/093efab2-a3b5-4f32-8e5f-603f543ca588","coordinates":[-50.6814,-22.868]},{"id":"ef30323f-e9ad-4221-925d-4dbae0b26f8f","title":"SP - FLORIDA PAULISTA","tipo":"Cesgranrio","url":"\/dashboard\/details-assets\/ef30323f-e9ad-4221-925d-4dbae0b26f8f","coordinates":[-51.1724,-21.6127]},{"id":"9d729d4e-d633-48e0-94cf-9d6b31ab4214","title":"SP - FERRAZ DE VASCONCELOS","tipo":"Cesgranrio","url":"\/dashboard\/details-assets\/9d729d4e-d633-48e0-94cf-9d6b31ab4214","coordinates":[-46.371,-23.5411]},{"id":"6ab443ee-9cb1-4808-9f5c-6bd72953e712","title":"SP - FERNANDOPOLIS","tipo":"Cesgranrio","url":"\/dashboard\/details-assets\/6ab443ee-9cb1-4808-9f5c-6bd72953e712","coordinates":[-50.2471,-20.2806]},{"id":"9b97fe8b-3507-48f1-a410-5261992a6b4c","title":"SP - EMBU-GUACU","tipo":"Cesgranrio","url":"\/dashboard\/details-assets\/9b97fe8b-3507-48f1-a410-5261992a6b4c","coordinates":[-46.8136,-23.8297]},{"id":"fedc8dcc-fe3b-46e6-b0ad-4bd6900cd876","title":"SP - ESPIRITO SANTO DO PINHAL","tipo":"Cesgranrio","url":"\/dashboard\/details-assets\/fedc8dcc-fe3b-46e6-b0ad-4bd6900cd876","coordinates":[-46.7477,-22.1909]},{"id":"74558e37-fecd-4622-baf8-bc4307723a46","title":"SP - EMBU DAS ARTES","tipo":"Cesgranrio","url":"\/dashboard\/details-assets\/74558e37-fecd-4622-baf8-bc4307723a46","coordinates":[-46.8579,-23.6437]},{"id":"9ae31a9a-cfba-4d9b-ba62-2485b4387b68","title":"SP - ELDORADO","tipo":"Cesgranrio","url":"\/dashboard\/details-assets\/9ae31a9a-cfba-4d9b-ba62-2485b4387b68","coordinates":[-48.1141,-24.5281]},{"id":"9bbce51d-4d27-4425-b90e-0008b30ba446","title":"SP - DRACENA","tipo":"Cesgranrio","url":"\/dashboard\/details-assets\/9bbce51d-4d27-4425-b90e-0008b30ba446","coordinates":[-51.535,-21.4843]},{"id":"e06dc1d5-2f21-4e3b-b7cc-c82ce41b3c23","title":"SP - CUBATAO","tipo":"Cesgranrio","url":"\/dashboard\/details-assets\/e06dc1d5-2f21-4e3b-b7cc-c82ce41b3c23","coordinates":[-46.424,-23.8911]},{"id":"8f7b837a-6c5c-41d2-977d-3e1e9c6f5b4f","title":"SP - DIADEMA","tipo":"Cesgranrio","url":"\/dashboard\/details-assets\/8f7b837a-6c5c-41d2-977d-3e1e9c6f5b4f","coordinates":[-46.6205,-23.6813]},{"id":"23d1d2ad-e754-4162-9e26-7b45887b57d4","title":"SP - CRUZEIRO","tipo":"Cesgranrio","url":"\/dashboard\/details-assets\/23d1d2ad-e754-4162-9e26-7b45887b57d4","coordinates":[-44.969,-22.5728]},{"id":"92658519-c1e3-40d1-b38e-cbec7f5a92a7","title":"SP - COTIA","tipo":"Cesgranrio","url":"\/dashboard\/details-assets\/92658519-c1e3-40d1-b38e-cbec7f5a92a7","coordinates":[-46.919,-23.6022]},{"id":"737e5cff-80fe-43dd-8db5-892716ad97bb","title":"SP - COSMOPOLIS","tipo":"Cesgranrio","url":"\/dashboard\/details-assets\/737e5cff-80fe-43dd-8db5-892716ad97bb","coordinates":[-47.1926,-22.6419]},{"id":"a163f917-ef83-4ae2-8c99-d61ff3aaee8e","title":"SP - CERQUILHO","tipo":"Cesgranrio","url":"\/dashboard\/details-assets\/a163f917-ef83-4ae2-8c99-d61ff3aaee8e","coordinates":[-47.7459,-23.1665]},{"id":"814a388f-e2cd-4730-aa38-c8f854d2ac8e","title":"SP - CERQUEIRA CESAR","tipo":"Cesgranrio","url":"\/dashboard\/details-assets\/814a388f-e2cd-4730-aa38-c8f854d2ac8e","coordinates":[-49.1655,-23.038]},{"id":"c8566183-c2b3-4d15-9efb-6519fe1f2533","title":"SP - CATANDUVA","tipo":"Cesgranrio","url":"\/dashboard\/details-assets\/c8566183-c2b3-4d15-9efb-6519fe1f2533","coordinates":[-48.977,-21.1314]},{"id":"38d50c9e-de6d-40d0-83d4-716875804c4c","title":"SP - CASA BRANCA","tipo":"Cesgranrio","url":"\/dashboard\/details-assets\/38d50c9e-de6d-40d0-83d4-716875804c4c","coordinates":[-47.0852,-21.7708]},{"id":"c97d872d-4308-4fc1-bf85-ecc08f83eb5a","title":"SP - CARAPICUIBA","tipo":"Cesgranrio","url":"\/dashboard\/details-assets\/c97d872d-4308-4fc1-bf85-ecc08f83eb5a","coordinates":[-46.8407,-23.5235]},{"id":"4e1acded-05fb-4320-8dbe-27676e76e51b","title":"SP - CARAGUATATUBA","tipo":"Cesgranrio","url":"\/dashboard\/details-assets\/4e1acded-05fb-4320-8dbe-27676e76e51b","coordinates":[-45.4125,-23.6125]},{"id":"ac3bfede-ed52-44a6-a617-57d2d8571fb1","title":"SP - CAPIVARI","tipo":"Cesgranrio","url":"\/dashboard\/details-assets\/ac3bfede-ed52-44a6-a617-57d2d8571fb1","coordinates":[-47.5071,-22.9951]},{"id":"5c1a86bb-9868-4641-bd57-16b67fb3d330","title":"SP - CAPELA DO ALTO","tipo":"Cesgranrio","url":"\/dashboard\/details-assets\/5c1a86bb-9868-4641-bd57-16b67fb3d330","coordinates":[-47.7388,-23.4685]},{"id":"49cfed12-95e8-4d46-b3a1-e80288275d58","title":"SP - CANDIDO MOTA","tipo":"Cesgranrio","url":"\/dashboard\/details-assets\/49cfed12-95e8-4d46-b3a1-e80288275d58","coordinates":[-50.3873,-22.7471]},{"id":"0ed5db7a-b748-41d2-b222-163603365d1a","title":"SP - CAPAO BONITO","tipo":"Cesgranrio","url":"\/dashboard\/details-assets\/0ed5db7a-b748-41d2-b222-163603365d1a","coordinates":[-48.3482,-24.0113]},{"id":"70f87823-4802-4c6c-b5b1-2a5bf8ea9d98","title":"SP - CAMPOS DO JORDAO","tipo":"Cesgranrio","url":"\/dashboard\/details-assets\/70f87823-4802-4c6c-b5b1-2a5bf8ea9d98","coordinates":[-45.5833,-22.7296]},{"id":"16d31e21-dd90-447c-a29c-b4e4894489ec","title":"SP - CAMPO LIMPO PAULISTA","tipo":"Cesgranrio","url":"\/dashboard\/details-assets\/16d31e21-dd90-447c-a29c-b4e4894489ec","coordinates":[-46.7889,-23.2078]},{"id":"ab000f06-2f9c-45e1-b455-00abd02214d9","title":"SP - CAMPINAS","tipo":"Cesgranrio","url":"\/dashboard\/details-assets\/ab000f06-2f9c-45e1-b455-00abd02214d9","coordinates":[-47.0659,-22.9053]},{"id":"5850e3a4-766d-4a6b-b560-73b83a58409c","title":"SP - CAJURU","tipo":"Cesgranrio","url":"\/dashboard\/details-assets\/5850e3a4-766d-4a6b-b560-73b83a58409c","coordinates":[-47.303,-21.2749]},{"id":"eea6d557-0fa3-48b8-b65a-3ca3dbdcc46b","title":"SP - CAJATI","tipo":"Cesgranrio","url":"\/dashboard\/details-assets\/eea6d557-0fa3-48b8-b65a-3ca3dbdcc46b","coordinates":[-48.1223,-24.7324]},{"id":"24e88d68-20c4-4944-b85a-9ad82483c96a","title":"SP - CAJAMAR","tipo":"Cesgranrio","url":"\/dashboard\/details-assets\/24e88d68-20c4-4944-b85a-9ad82483c96a","coordinates":[-46.8781,-23.355]},{"id":"65aa3706-7208-42d5-97bd-dd10139bfec5","title":"SP - CAIEIRAS","tipo":"Cesgranrio","url":"\/dashboard\/details-assets\/65aa3706-7208-42d5-97bd-dd10139bfec5","coordinates":[-46.7397,-23.3607]},{"id":"3f4eeee1-dc58-4645-a5cc-fa10a45e8b2f","title":"SP - CACHOEIRA PAULISTA","tipo":"Cesgranrio","url":"\/dashboard\/details-assets\/3f4eeee1-dc58-4645-a5cc-fa10a45e8b2f","coordinates":[-45.0154,-22.6665]},{"id":"373285b4-31f5-4470-ad2f-9607fb31d504","title":"SP - CACAPAVA","tipo":"Cesgranrio","url":"\/dashboard\/details-assets\/373285b4-31f5-4470-ad2f-9607fb31d504","coordinates":[-45.7076,-23.0992]},{"id":"d938e650-dc4f-44af-9d60-b6f6cf380445","title":"SP - CABREUVA","tipo":"Cesgranrio","url":"\/dashboard\/details-assets\/d938e650-dc4f-44af-9d60-b6f6cf380445","coordinates":[-47.1362,-23.3053]},{"id":"6ffd4806-4f56-4d81-9020-abda6a0bc616","title":"SP - BRAGANCA PAULISTA","tipo":"Cesgranrio","url":"\/dashboard\/details-assets\/6ffd4806-4f56-4d81-9020-abda6a0bc616","coordinates":[-46.5419,-22.9527]},{"id":"7a4e1243-9e00-42ef-aede-c67fca8da3ba","title":"SP - BOTUCATU","tipo":"Cesgranrio","url":"\/dashboard\/details-assets\/7a4e1243-9e00-42ef-aede-c67fca8da3ba","coordinates":[-48.4437,-22.8837]},{"id":"d57eaec5-a794-4f0f-852b-c8b64eafadd8","title":"SP - BOITUVA","tipo":"Cesgranrio","url":"\/dashboard\/details-assets\/d57eaec5-a794-4f0f-852b-c8b64eafadd8","coordinates":[-47.6786,-23.2855]},{"id":"9d61b93c-7ef1-4f8c-baf2-dae419451895","title":"SP - BIRIGUI","tipo":"Cesgranrio","url":"\/dashboard\/details-assets\/9d61b93c-7ef1-4f8c-baf2-dae419451895","coordinates":[-50.3432,-21.291]},{"id":"c346a186-04f8-491c-94c8-9641dde977fe","title":"SP - BERTIOGA","tipo":"Cesgranrio","url":"\/dashboard\/details-assets\/c346a186-04f8-491c-94c8-9641dde977fe","coordinates":[-46.1396,-23.8486]},{"id":"5dae7276-511d-4b9e-b03c-444c332fce51","title":"SP - BERNARDINO DE CAMPOS","tipo":"Cesgranrio","url":"\/dashboard\/details-assets\/5dae7276-511d-4b9e-b03c-444c332fce51","coordinates":[-49.4679,-23.0164]},{"id":"2993f0bd-55b0-455b-bc6c-bdc0537409e9","title":"SP - BEBEDOURO","tipo":"Cesgranrio","url":"\/dashboard\/details-assets\/2993f0bd-55b0-455b-bc6c-bdc0537409e9","coordinates":[-48.4791,-20.9491]},{"id":"e6945372-418a-405b-b8a9-98025dedd701","title":"SP - BAURU","tipo":"Cesgranrio","url":"\/dashboard\/details-assets\/e6945372-418a-405b-b8a9-98025dedd701","coordinates":[-49.0871,-22.3246]},{"id":"c6683ae5-bc49-4c65-8853-c1fabf06c930","title":"SP - BATATAIS","tipo":"Cesgranrio","url":"\/dashboard\/details-assets\/c6683ae5-bc49-4c65-8853-c1fabf06c930","coordinates":[-47.5921,-20.8929]},{"id":"4fd1d1ca-07b8-410b-9335-14d5f0cb3a21","title":"SP - BARUERI","tipo":"Cesgranrio","url":"\/dashboard\/details-assets\/4fd1d1ca-07b8-410b-9335-14d5f0cb3a21","coordinates":[-46.879,-23.5057]},{"id":"9b7b6e11-26ed-4006-b51a-b9ee57ecc322","title":"SP - BARRINHA","tipo":"Cesgranrio","url":"\/dashboard\/details-assets\/9b7b6e11-26ed-4006-b51a-b9ee57ecc322","coordinates":[-48.1636,-21.1864]},{"id":"5431a958-5dae-41a7-86ad-fe181a363879","title":"SP - BARRETOS","tipo":"Cesgranrio","url":"\/dashboard\/details-assets\/5431a958-5dae-41a7-86ad-fe181a363879","coordinates":[-48.5698,-20.5531]},{"id":"2340227d-5ed9-429e-868c-cba7611d1efe","title":"SP - BARRA DO TURVO","tipo":"Cesgranrio","url":"\/dashboard\/details-assets\/2340227d-5ed9-429e-868c-cba7611d1efe","coordinates":[-48.5013,-24.759]},{"id":"9e95abcc-03ce-4387-9d7d-246032430a02","title":"SP - BARRA BONITA","tipo":"Cesgranrio","url":"\/dashboard\/details-assets\/9e95abcc-03ce-4387-9d7d-246032430a02","coordinates":[-48.5583,-22.4909]},{"id":"fa54ed74-dbc2-4a3e-b254-66fcfee05237","title":"SP - BALBINOS","tipo":"Cesgranrio","url":"\/dashboard\/details-assets\/fa54ed74-dbc2-4a3e-b254-66fcfee05237","coordinates":[-49.3619,-21.8963]},{"id":"a0ba52d4-6673-4d01-b0c1-ff4ac5e2fabb","title":"SP - AVARE","tipo":"Cesgranrio","url":"\/dashboard\/details-assets\/a0ba52d4-6673-4d01-b0c1-ff4ac5e2fabb","coordinates":[-48.9251,-23.1067]},{"id":"04e2f84c-515a-4ed4-a880-c9b276718394","title":"SP - AVANHANDAVA","tipo":"Cesgranrio","url":"\/dashboard\/details-assets\/04e2f84c-515a-4ed4-a880-c9b276718394","coordinates":[-49.9509,-21.4584]},{"id":"8fa5ec62-5984-4023-a9be-ef1b43e5a682","title":"SP - AURIFLAMA","tipo":"Cesgranrio","url":"\/dashboard\/details-assets\/8fa5ec62-5984-4023-a9be-ef1b43e5a682","coordinates":[-50.5572,-20.6836]},{"id":"89244f2d-fb18-4fd7-9e33-e91328196584","title":"SP - ATIBAIA","tipo":"Cesgranrio","url":"\/dashboard\/details-assets\/89244f2d-fb18-4fd7-9e33-e91328196584","coordinates":[-46.5563,-23.1171]},{"id":"5ba95d5f-946f-421d-8d27-a6b6c9fcebd8","title":"SP - ASSIS","tipo":"Cesgranrio","url":"\/dashboard\/details-assets\/5ba95d5f-946f-421d-8d27-a6b6c9fcebd8","coordinates":[-50.4183,-22.66]},{"id":"802a556c-fb61-4c43-a57b-a3e96444b2ce","title":"SP - ARUJA","tipo":"Cesgranrio","url":"\/dashboard\/details-assets\/802a556c-fb61-4c43-a57b-a3e96444b2ce","coordinates":[-46.32,-23.3965]},{"id":"2cf52318-1792-45a1-b4e0-457d7eeb5cc9","title":"SP - ARTUR NOGUEIRA","tipo":"Cesgranrio","url":"\/dashboard\/details-assets\/2cf52318-1792-45a1-b4e0-457d7eeb5cc9","coordinates":[-47.1727,-22.5727]},{"id":"3a204ceb-f899-4bb9-b09a-aae53350cbd2","title":"SP - ARARAS","tipo":"Cesgranrio","url":"\/dashboard\/details-assets\/3a204ceb-f899-4bb9-b09a-aae53350cbd2","coordinates":[-47.3842,-22.3572]},{"id":"b0163a47-8a82-4e99-a673-ab87867eca97","title":"SP - ARARAQUARA","tipo":"Cesgranrio","url":"\/dashboard\/details-assets\/b0163a47-8a82-4e99-a673-ab87867eca97","coordinates":[-48.178,-21.7845]},{"id":"f93dc4e8-b84a-4219-a655-a4f2d35e342b","title":"SP - ARACOIABA DA SERRA","tipo":"Cesgranrio","url":"\/dashboard\/details-assets\/f93dc4e8-b84a-4219-a655-a4f2d35e342b","coordinates":[-47.6166,-23.5029]},{"id":"1bd8e4e3-f686-4381-a0dc-7d6f88e44486","title":"SP - ARACATUBA","tipo":"Cesgranrio","url":"\/dashboard\/details-assets\/1bd8e4e3-f686-4381-a0dc-7d6f88e44486","coordinates":[-50.4401,-21.2076]},{"id":"c2ab4e6c-50e4-46cf-bfda-92e0eec72426","title":"SP - APIAI","tipo":"Cesgranrio","url":"\/dashboard\/details-assets\/c2ab4e6c-50e4-46cf-bfda-92e0eec72426","coordinates":[-48.8443,-24.5108]},{"id":"d81ca6a8-6f82-4492-99fa-aaa873c45f6e","title":"SP - APARECIDA","tipo":"Cesgranrio","url":"\/dashboard\/details-assets\/d81ca6a8-6f82-4492-99fa-aaa873c45f6e","coordinates":[-45.2325,-22.8495]},{"id":"ae62110b-41d8-4e79-83fb-c1db7e3e40a4","title":"SP - ANDRADINA","tipo":"Cesgranrio","url":"\/dashboard\/details-assets\/ae62110b-41d8-4e79-83fb-c1db7e3e40a4","coordinates":[-51.3786,-20.8948]},{"id":"8f9965ff-7d88-4377-a5ba-de50c28364e8","title":"SP - AMPARO","tipo":"Cesgranrio","url":"\/dashboard\/details-assets\/8f9965ff-7d88-4377-a5ba-de50c28364e8","coordinates":[-46.772,-22.7088]},{"id":"b8f16a7b-cd9d-48c7-b96f-3ad56846cf4f","title":"SP - AMERICANA","tipo":"Cesgranrio","url":"\/dashboard\/details-assets\/b8f16a7b-cd9d-48c7-b96f-3ad56846cf4f","coordinates":[-47.3331,-22.7374]},{"id":"ad8e45f2-2e68-4dd8-8a15-e85e63114690","title":"SP - ALVARO DE CARVALHO","tipo":"Cesgranrio","url":"\/dashboard\/details-assets\/ad8e45f2-2e68-4dd8-8a15-e85e63114690","coordinates":[-49.719,-22.0841]},{"id":"3020c0a9-4895-4f3f-ac23-d78750c71b38","title":"SP - ADAMANTINA","tipo":"Cesgranrio","url":"\/dashboard\/details-assets\/3020c0a9-4895-4f3f-ac23-d78750c71b38","coordinates":[-51.0737,-21.682]},{"id":"b7a529a5-086a-4c57-a9ba-235378e8e43a","title":"SC - XAXIM","tipo":"Cesgranrio","url":"\/dashboard\/details-assets\/b7a529a5-086a-4c57-a9ba-235378e8e43a","coordinates":[-52.5374,-26.9596]},{"id":"10f9926a-dbf4-48a0-bfed-edd06e1595b4","title":"SC - XANXERE","tipo":"Cesgranrio","url":"\/dashboard\/details-assets\/10f9926a-dbf4-48a0-bfed-edd06e1595b4","coordinates":[-52.4036,-26.8747]},{"id":"5eb7a139-2ee8-4576-9dce-cdefbb1069b5","title":"SC - VIDEIRA","tipo":"Cesgranrio","url":"\/dashboard\/details-assets\/5eb7a139-2ee8-4576-9dce-cdefbb1069b5","coordinates":[-51.1543,-27.0086]},{"id":"c37dd415-835e-47ae-8150-622a6e69f8fd","title":"SC - TUBARAO","tipo":"Cesgranrio","url":"\/dashboard\/details-assets\/c37dd415-835e-47ae-8150-622a6e69f8fd","coordinates":[-49.0144,-28.4713]},{"id":"121ba270-82da-497c-806e-699bd16665cb","title":"SC - TIMBO","tipo":"Cesgranrio","url":"\/dashboard\/details-assets\/121ba270-82da-497c-806e-699bd16665cb","coordinates":[-49.269,-26.8246]},{"id":"f5f7adf4-20ac-4ea0-bf45-29534fdf63f9","title":"SC - TIJUCAS","tipo":"Cesgranrio","url":"\/dashboard\/details-assets\/f5f7adf4-20ac-4ea0-bf45-29534fdf63f9","coordinates":[-48.6322,-27.2354]},{"id":"7896593d-8cdd-4d4d-bc32-d7298bc202c4","title":"SC - TAIO","tipo":"Cesgranrio","url":"\/dashboard\/details-assets\/7896593d-8cdd-4d4d-bc32-d7298bc202c4","coordinates":[-49.9942,-27.121]},{"id":"b7903d7a-3247-4145-98ab-710dc83e0daa","title":"SC - SOMBRIO","tipo":"Cesgranrio","url":"\/dashboard\/details-assets\/b7903d7a-3247-4145-98ab-710dc83e0daa","coordinates":[-49.6328,-29.108]},{"id":"11a1224e-42d0-4c1b-aeac-e1e32fe2332c","title":"SC - SEARA","tipo":"Cesgranrio","url":"\/dashboard\/details-assets\/11a1224e-42d0-4c1b-aeac-e1e32fe2332c","coordinates":[-52.299,-27.1564]},{"id":"fc9296fa-7a62-485a-a3bb-8b83b7c2fd64","title":"SC - SAO PEDRO DE ALCANTARA","tipo":"Cesgranrio","url":"\/dashboard\/details-assets\/fc9296fa-7a62-485a-a3bb-8b83b7c2fd64","coordinates":[-48.8048,-27.5665]},{"id":"bf18acf6-dba2-409f-9ac1-71fd4393c8d4","title":"SC - SAO MIGUEL DO OESTE","tipo":"Cesgranrio","url":"\/dashboard\/details-assets\/bf18acf6-dba2-409f-9ac1-71fd4393c8d4","coordinates":[-53.5163,-26.7242]},{"id":"8f67a223-b6e6-418e-b6d8-c73684c62c79","title":"SC - SAO JOSE DO CEDRO","tipo":"Cesgranrio","url":"\/dashboard\/details-assets\/8f67a223-b6e6-418e-b6d8-c73684c62c79","coordinates":[-53.4955,-26.4561]},{"id":"9d2b9599-1762-4c4b-8e5e-2e2b8e591902","title":"SC - SAO LOURENCO DO OESTE","tipo":"Cesgranrio","url":"\/dashboard\/details-assets\/9d2b9599-1762-4c4b-8e5e-2e2b8e591902","coordinates":[-52.8498,-26.3557]},{"id":"a32d4f50-6b85-4af0-9463-6015719176dd","title":"SC - SAO JOSE","tipo":"Cesgranrio","url":"\/dashboard\/details-assets\/a32d4f50-6b85-4af0-9463-6015719176dd","coordinates":[-48.6366,-27.6136]},{"id":"4e467417-9fda-432c-90ce-32b12324ad7b","title":"SC - SAO JOAQUIM","tipo":"Cesgranrio","url":"\/dashboard\/details-assets\/4e467417-9fda-432c-90ce-32b12324ad7b","coordinates":[-49.9457,-28.2887]},{"id":"68468739-b0c4-4336-a878-73f72c1205e8","title":"SC - SAO FRANCISCO DO SUL","tipo":"Cesgranrio","url":"\/dashboard\/details-assets\/68468739-b0c4-4336-a878-73f72c1205e8","coordinates":[-48.6344,-26.2579]},{"id":"c71ea176-46b9-4719-ae13-cdaa1ca1e00e","title":"SC - SAO CRISTOVAO DO SUL","tipo":"Cesgranrio","url":"\/dashboard\/details-assets\/c71ea176-46b9-4719-ae13-cdaa1ca1e00e","coordinates":[-50.4388,-27.2666]},{"id":"d08c0254-5fa8-47b0-ae88-c22b39cf09eb","title":"SC - SAO BENTO DO SUL","tipo":"Cesgranrio","url":"\/dashboard\/details-assets\/d08c0254-5fa8-47b0-ae88-c22b39cf09eb","coordinates":[-49.3831,-26.2495]},{"id":"b9f74a1d-c54f-402a-a084-9bddf2db2cbc","title":"SC - RIO DO SUL","tipo":"Cesgranrio","url":"\/dashboard\/details-assets\/b9f74a1d-c54f-402a-a084-9bddf2db2cbc","coordinates":[-49.643,-27.2156]},{"id":"5fcd995a-3869-4cef-a9d7-0560ebcfd3fd","title":"SC - QUILOMBO","tipo":"Cesgranrio","url":"\/dashboard\/details-assets\/5fcd995a-3869-4cef-a9d7-0560ebcfd3fd","coordinates":[-52.724,-26.7264]},{"id":"9894ff57-b18f-4cd9-9290-f3b667074daf","title":"SC - PORTO UNIAO","tipo":"Cesgranrio","url":"\/dashboard\/details-assets\/9894ff57-b18f-4cd9-9290-f3b667074daf","coordinates":[-51.0759,-26.2451]},{"id":"cecd827a-bdbc-46ed-82fd-898a440e0b33","title":"SC - PALMITOS","tipo":"Cesgranrio","url":"\/dashboard\/details-assets\/cecd827a-bdbc-46ed-82fd-898a440e0b33","coordinates":[-53.1586,-27.0702]},{"id":"fa0a41ef-72db-4d92-8dd7-3582507b430a","title":"SC - PALHOCA","tipo":"Cesgranrio","url":"\/dashboard\/details-assets\/fa0a41ef-72db-4d92-8dd7-3582507b430a","coordinates":[-48.6697,-27.6455]},{"id":"742a3617-2130-4e21-b339-faab90dec38a","title":"SC - ORLEANS","tipo":"Cesgranrio","url":"\/dashboard\/details-assets\/742a3617-2130-4e21-b339-faab90dec38a","coordinates":[-49.2986,-28.3487]},{"id":"3f77a7fb-9d06-4113-a412-ba0b4971cf06","title":"SC - NAVEGANTES","tipo":"Cesgranrio","url":"\/dashboard\/details-assets\/3f77a7fb-9d06-4113-a412-ba0b4971cf06","coordinates":[-48.6546,-26.8943]},{"id":"0c12d6a8-81d4-4106-8c28-f872552e1e63","title":"SC - MARAVILHA","tipo":"Cesgranrio","url":"\/dashboard\/details-assets\/0c12d6a8-81d4-4106-8c28-f872552e1e63","coordinates":[-53.1737,-26.7665]},{"id":"bd402c9a-35e7-4ab3-9a9f-a3c43493ef86","title":"SC - LAGUNA","tipo":"Cesgranrio","url":"\/dashboard\/details-assets\/bd402c9a-35e7-4ab3-9a9f-a3c43493ef86","coordinates":[-48.7772,-28.4843]},{"id":"54f6bcb0-9bc8-4cd0-a066-d9b3a491d83a","title":"SC - MAFRA","tipo":"Cesgranrio","url":"\/dashboard\/details-assets\/54f6bcb0-9bc8-4cd0-a066-d9b3a491d83a","coordinates":[-49.8086,-26.1159]},{"id":"cab219d0-cc6b-4eed-8fbc-062378e8d3ba","title":"SC - LAGES","tipo":"Cesgranrio","url":"\/dashboard\/details-assets\/cab219d0-cc6b-4eed-8fbc-062378e8d3ba","coordinates":[-50.3259,-27.815]},{"id":"5e7e3943-39d6-4b12-af9a-b357630dd9b7","title":"SC - JOINVILLE","tipo":"Cesgranrio","url":"\/dashboard\/details-assets\/5e7e3943-39d6-4b12-af9a-b357630dd9b7","coordinates":[-48.8487,-26.3045]},{"id":"55fe8d19-b441-4ae7-b576-25754e18bc0d","title":"SC - JOACABA","tipo":"Cesgranrio","url":"\/dashboard\/details-assets\/55fe8d19-b441-4ae7-b576-25754e18bc0d","coordinates":[-51.5108,-27.1721]},{"id":"8c14367d-d69b-477f-8b76-e2676fe06409","title":"SC - JARAGUA DO SUL","tipo":"Cesgranrio","url":"\/dashboard\/details-assets\/8c14367d-d69b-477f-8b76-e2676fe06409","coordinates":[-49.0713,-26.4851]},{"id":"381dc176-74e6-437f-b77c-faad71fd0799","title":"SC - ITUPORANGA","tipo":"Cesgranrio","url":"\/dashboard\/details-assets\/381dc176-74e6-437f-b77c-faad71fd0799","coordinates":[-49.5963,-27.4101]},{"id":"348e23d5-5b4b-4028-b871-af4eaaace502","title":"SC - ITAPIRANGA","tipo":"Cesgranrio","url":"\/dashboard\/details-assets\/348e23d5-5b4b-4028-b871-af4eaaace502","coordinates":[-53.7166,-27.1659]},{"id":"59db55a3-02db-4fa2-807a-ed0c7cb2f11d","title":"SC - ITAPEMA","tipo":"Cesgranrio","url":"\/dashboard\/details-assets\/59db55a3-02db-4fa2-807a-ed0c7cb2f11d","coordinates":[-48.616,-27.0861]},{"id":"38fbf632-51a1-41d0-973a-a22604ee7bf6","title":"SC - INDAIAL","tipo":"Cesgranrio","url":"\/dashboard\/details-assets\/38fbf632-51a1-41d0-973a-a22604ee7bf6","coordinates":[-49.2354,-26.8992]},{"id":"c1d1a232-1f41-4b04-b302-57af849058fc","title":"SC - ITAJAI","tipo":"Cesgranrio","url":"\/dashboard\/details-assets\/c1d1a232-1f41-4b04-b302-57af849058fc","coordinates":[-48.6705,-26.9101]},{"id":"6ccdb305-5553-4fd5-b111-79db5a7961ad","title":"SC - IMBITUBA","tipo":"Cesgranrio","url":"\/dashboard\/details-assets\/6ccdb305-5553-4fd5-b111-79db5a7961ad","coordinates":[-48.6659,-28.2284]},{"id":"4cd4046d-b689-476d-b46d-411a66939837","title":"SC - ICARA","tipo":"Cesgranrio","url":"\/dashboard\/details-assets\/4cd4046d-b689-476d-b46d-411a66939837","coordinates":[-49.3087,-28.7132]},{"id":"b4a27a80-2905-42a7-b509-f179e0ffeec4","title":"SC - GUARAMIRIM","tipo":"Cesgranrio","url":"\/dashboard\/details-assets\/b4a27a80-2905-42a7-b509-f179e0ffeec4","coordinates":[-49.0026,-26.4688]},{"id":"069cd1ca-be53-42d4-b49e-a470156ef7f7","title":"SC - GAROPABA","tipo":"Cesgranrio","url":"\/dashboard\/details-assets\/069cd1ca-be53-42d4-b49e-a470156ef7f7","coordinates":[-48.6192,-28.0275]},{"id":"d427a5b1-0581-43a8-9341-6d3a942ff822","title":"SC - FLORIANOPOLIS","tipo":"Cesgranrio","url":"\/dashboard\/details-assets\/d427a5b1-0581-43a8-9341-6d3a942ff822","coordinates":[-48.5477,-27.5945]},{"id":"2015ca3e-2ca6-4dd5-afc7-dcfa297510d0","title":"SC - CURITIBANOS","tipo":"Cesgranrio","url":"\/dashboard\/details-assets\/2015ca3e-2ca6-4dd5-afc7-dcfa297510d0","coordinates":[-50.5816,-27.2824]},{"id":"aa04db6b-715f-443d-aed0-0aa42f40d43d","title":"SC - DIONISIO CERQUEIRA","tipo":"Cesgranrio","url":"\/dashboard\/details-assets\/aa04db6b-715f-443d-aed0-0aa42f40d43d","coordinates":[-53.6351,-26.2648]},{"id":"30116adc-9cf0-485e-bcef-aa74b8ebce42","title":"SC - CRICIUMA","tipo":"Cesgranrio","url":"\/dashboard\/details-assets\/30116adc-9cf0-485e-bcef-aa74b8ebce42","coordinates":[-49.3729,-28.6723]},{"id":"f685f357-cc96-41b3-98f9-b8aae914b9d8","title":"SC - CHAPECO","tipo":"Cesgranrio","url":"\/dashboard\/details-assets\/f685f357-cc96-41b3-98f9-b8aae914b9d8","coordinates":[-52.6152,-27.1004]},{"id":"50719d31-080b-48b0-a963-46ebc5f76fba","title":"SC - CONCORDIA","tipo":"Cesgranrio","url":"\/dashboard\/details-assets\/50719d31-080b-48b0-a963-46ebc5f76fba","coordinates":[-52.026,-27.2335]},{"id":"352c9a08-333a-4de1-afcb-7b10ed6002f5","title":"SC - CANOINHAS","tipo":"Cesgranrio","url":"\/dashboard\/details-assets\/352c9a08-333a-4de1-afcb-7b10ed6002f5","coordinates":[-50.395,-26.1766]},{"id":"e091f84b-9cb9-43ae-9683-2f361a2d84f5","title":"SC - CAMPOS NOVOS","tipo":"Cesgranrio","url":"\/dashboard\/details-assets\/e091f84b-9cb9-43ae-9683-2f361a2d84f5","coordinates":[-51.2276,-27.4002]},{"id":"78e80f68-810b-4a06-989e-29fc2295f73c","title":"SC - CAMBORIU","tipo":"Cesgranrio","url":"\/dashboard\/details-assets\/78e80f68-810b-4a06-989e-29fc2295f73c","coordinates":[-48.6503,-27.0241]},{"id":"a59b5391-9a5a-45d4-a607-98942cd3baf7","title":"SC - CACADOR","tipo":"Cesgranrio","url":"\/dashboard\/details-assets\/a59b5391-9a5a-45d4-a607-98942cd3baf7","coordinates":[-51.012,-26.7757]},{"id":"342d506c-64d1-4bf9-95af-63569e1bda0e","title":"SC - BRUSQUE","tipo":"Cesgranrio","url":"\/dashboard\/details-assets\/342d506c-64d1-4bf9-95af-63569e1bda0e","coordinates":[-48.9107,-27.0977]},{"id":"748347c2-3a9a-43d9-8327-f55b43f99cdf","title":"SC - BRACO DO NORTE","tipo":"Cesgranrio","url":"\/dashboard\/details-assets\/748347c2-3a9a-43d9-8327-f55b43f99cdf","coordinates":[-49.1701,-28.2681]},{"id":"82912ca5-3dfb-4b5e-9159-e062cd5eea81","title":"SC - BLUMENAU","tipo":"Cesgranrio","url":"\/dashboard\/details-assets\/82912ca5-3dfb-4b5e-9159-e062cd5eea81","coordinates":[-49.0709,-26.9155]},{"id":"d368c7e8-0db3-4724-9175-00b49736ce49","title":"SC - BIGUACU","tipo":"Cesgranrio","url":"\/dashboard\/details-assets\/d368c7e8-0db3-4724-9175-00b49736ce49","coordinates":[-48.6598,-27.496]},{"id":"38239df3-aa02-4f65-b3e2-1542307f63ae","title":"SC - BALNEARIO CAMBORIU","tipo":"Cesgranrio","url":"\/dashboard\/details-assets\/38239df3-aa02-4f65-b3e2-1542307f63ae","coordinates":[-48.6352,-26.9926]},{"id":"a483d556-5571-49ef-83cd-2a1c87de09c1","title":"SC - ARARANGUA","tipo":"Cesgranrio","url":"\/dashboard\/details-assets\/a483d556-5571-49ef-83cd-2a1c87de09c1","coordinates":[-49.4918,-28.9356]},{"id":"e6b5c59f-d89c-4485-8e11-631d719104cd","title":"RR - BOA VISTA","tipo":"Cesgranrio","url":"\/dashboard\/details-assets\/e6b5c59f-d89c-4485-8e11-631d719104cd","coordinates":[-60.6753,2.82384]},{"id":"e56031f3-173f-44ba-900d-24f848226b71","title":"RR - CARACARAI","tipo":"Cesgranrio","url":"\/dashboard\/details-assets\/e56031f3-173f-44ba-900d-24f848226b71","coordinates":[-61.1304,1.82766]},{"id":"98ca2f3c-e523-49a5-ba39-4dee23515af2","title":"RR - ALTO ALEGRE","tipo":"Cesgranrio","url":"\/dashboard\/details-assets\/98ca2f3c-e523-49a5-ba39-4dee23515af2","coordinates":[-61.3072,2.98858]},{"id":"aaad3759-42ec-4fdd-b600-77d2aa187f2e","title":"RO - VILHENA","tipo":"Cesgranrio","url":"\/dashboard\/details-assets\/aaad3759-42ec-4fdd-b600-77d2aa187f2e","coordinates":[-60.1488,-12.7502]},{"id":"3264f178-5577-4db3-acf1-d4cb6a701942","title":"RO - SAO MIGUEL DO GUAPORE","tipo":"Cesgranrio","url":"\/dashboard\/details-assets\/3264f178-5577-4db3-acf1-d4cb6a701942","coordinates":[-62.7192,-11.6953]},{"id":"60892fc8-ad29-4f62-b781-67e8bd26cb59","title":"RO - SAO FRANCISCO DO GUAPORE","tipo":"Cesgranrio","url":"\/dashboard\/details-assets\/60892fc8-ad29-4f62-b781-67e8bd26cb59","coordinates":[-63.568,-12.052]},{"id":"6efdb7d6-065d-4665-9533-24b29154e574","title":"RO - ROLIM DE MOURA","tipo":"Cesgranrio","url":"\/dashboard\/details-assets\/6efdb7d6-065d-4665-9533-24b29154e574","coordinates":[-61.7714,-11.7271]},{"id":"fcd1926b-d02e-4ddc-8d7b-313b9d3af7db","title":"RO - PRESIDENTE MEDICI","tipo":"Cesgranrio","url":"\/dashboard\/details-assets\/fcd1926b-d02e-4ddc-8d7b-313b9d3af7db","coordinates":[-61.8986,-11.169]},{"id":"4f243e17-eded-4ffe-adb0-1713e846ea7a","title":"RO - PORTO VELHO","tipo":"Cesgranrio","url":"\/dashboard\/details-assets\/4f243e17-eded-4ffe-adb0-1713e846ea7a","coordinates":[-63.8999,-8.76077]},{"id":"57704a1e-99b4-4907-a56f-6706a5b2f89e","title":"RO - PIMENTA BUENO","tipo":"Cesgranrio","url":"\/dashboard\/details-assets\/57704a1e-99b4-4907-a56f-6706a5b2f89e","coordinates":[-61.198,-11.672]},{"id":"784e47ad-66a3-4b32-ab7f-67b6a14b8ceb","title":"RO - OURO PRETO DO OESTE","tipo":"Cesgranrio","url":"\/dashboard\/details-assets\/784e47ad-66a3-4b32-ab7f-67b6a14b8ceb","coordinates":[-62.2565,-10.7167]},{"id":"30ce4e38-c4e9-45bb-9d3a-08c7c2fabe54","title":"RO - NOVA MAMORE","tipo":"Cesgranrio","url":"\/dashboard\/details-assets\/30ce4e38-c4e9-45bb-9d3a-08c7c2fabe54","coordinates":[-65.3346,-10.4077]},{"id":"b5a4ba2b-1a4a-4f2e-84ee-59731f642563","title":"RO - NOVA BRASILANDIA D'OESTE","tipo":"Cesgranrio","url":"\/dashboard\/details-assets\/b5a4ba2b-1a4a-4f2e-84ee-59731f642563","coordinates":[-62.3127,-11.7247]},{"id":"f79a3b72-354f-4d99-acfb-a8b2ed4a7c14","title":"RO - MIRANTE DA SERRA","tipo":"Cesgranrio","url":"\/dashboard\/details-assets\/f79a3b72-354f-4d99-acfb-a8b2ed4a7c14","coordinates":[-62.6696,-11.029]},{"id":"0514221c-0301-4542-b51a-377abc079b2a","title":"RO - MACHADINHO D'OESTE","tipo":"Cesgranrio","url":"\/dashboard\/details-assets\/0514221c-0301-4542-b51a-377abc079b2a","coordinates":[-61.9818,-9.44363]},{"id":"921a1a64-7140-4185-813b-bfbbf10f04ce","title":"RO - JI-PARANA","tipo":"Cesgranrio","url":"\/dashboard\/details-assets\/921a1a64-7140-4185-813b-bfbbf10f04ce","coordinates":[-61.9322,-10.8777]},{"id":"a7679d1b-1804-4ded-a3a0-8735d84bf523","title":"RO - JARU","tipo":"Cesgranrio","url":"\/dashboard\/details-assets\/a7679d1b-1804-4ded-a3a0-8735d84bf523","coordinates":[-62.4788,-10.4318]},{"id":"04b9e05f-f807-450e-b7c8-865505cb2721","title":"RO - GUAJARA-MIRIM","tipo":"Cesgranrio","url":"\/dashboard\/details-assets\/04b9e05f-f807-450e-b7c8-865505cb2721","coordinates":[-65.3296,-10.7889]},{"id":"30a0394c-43d5-450d-8d18-199b4c2440d2","title":"RO - ESPIGAO D'OESTE","tipo":"Cesgranrio","url":"\/dashboard\/details-assets\/30a0394c-43d5-450d-8d18-199b4c2440d2","coordinates":[-61.0252,-11.5266]},{"id":"97acd1dd-1ec5-42af-be04-843b0c417799","title":"RO - COSTA MARQUES","tipo":"Cesgranrio","url":"\/dashboard\/details-assets\/97acd1dd-1ec5-42af-be04-843b0c417799","coordinates":[-64.228,-12.4367]},{"id":"9aefc6b1-568c-4f2d-9001-b1cb7056f8a3","title":"RO - COLORADO DO OESTE","tipo":"Cesgranrio","url":"\/dashboard\/details-assets\/9aefc6b1-568c-4f2d-9001-b1cb7056f8a3","coordinates":[-60.5454,-13.1174]},{"id":"5b60b15e-bc94-455c-b325-32687472dfee","title":"RO - CACOAL","tipo":"Cesgranrio","url":"\/dashboard\/details-assets\/5b60b15e-bc94-455c-b325-32687472dfee","coordinates":[-61.4562,-11.4343]},{"id":"d558d692-9429-4c97-b2d6-eac05da794a9","title":"RO - CEREJEIRAS","tipo":"Cesgranrio","url":"\/dashboard\/details-assets\/d558d692-9429-4c97-b2d6-eac05da794a9","coordinates":[-60.8168,-13.187]},{"id":"de54ac9e-714c-4bc2-8907-f1f2556fb05b","title":"RO - BURITIS","tipo":"Cesgranrio","url":"\/dashboard\/details-assets\/de54ac9e-714c-4bc2-8907-f1f2556fb05b","coordinates":[-63.8324,-10.1943]},{"id":"a4bf796e-adbd-460b-9a15-60500acd871b","title":"RO - ARIQUEMES","tipo":"Cesgranrio","url":"\/dashboard\/details-assets\/a4bf796e-adbd-460b-9a15-60500acd871b","coordinates":[-63.0325,-9.90571]},{"id":"65df629a-5566-4be2-ab48-a5fc7f92b176","title":"RO - ALVORADA D'OESTE","tipo":"Cesgranrio","url":"\/dashboard\/details-assets\/65df629a-5566-4be2-ab48-a5fc7f92b176","coordinates":[-62.2847,-11.3463]},{"id":"b7d42bc7-3531-4430-b372-21c8a86e97f6","title":"RO - ALTA FLORESTA D'OESTE","tipo":"Cesgranrio","url":"\/dashboard\/details-assets\/b7d42bc7-3531-4430-b372-21c8a86e97f6","coordinates":[-61.9953,-11.9283]},{"id":"e3216414-65c6-4307-98de-6cc0fa623f9a","title":"RS - VERANOPOLIS","tipo":"Cesgranrio","url":"\/dashboard\/details-assets\/e3216414-65c6-4307-98de-6cc0fa623f9a","coordinates":[-51.5516,-28.9312]},{"id":"1a4b4294-b81d-41cf-a4cb-c8285a18d255","title":"RS - VIAMAO","tipo":"Cesgranrio","url":"\/dashboard\/details-assets\/1a4b4294-b81d-41cf-a4cb-c8285a18d255","coordinates":[-51.0194,-30.0819]},{"id":"f20706e3-f08f-4abc-8b1f-51573161472f","title":"RS - VENANCIO AIRES","tipo":"Cesgranrio","url":"\/dashboard\/details-assets\/f20706e3-f08f-4abc-8b1f-51573161472f","coordinates":[-52.1932,-29.6143]},{"id":"2029c820-110a-42a8-8374-a140c9165a40","title":"RS - VACARIA","tipo":"Cesgranrio","url":"\/dashboard\/details-assets\/2029c820-110a-42a8-8374-a140c9165a40","coordinates":[-50.9418,-28.5079]},{"id":"20a72905-73b2-467b-9f56-9c495466f14b","title":"RS - URUGUAIANA","tipo":"Cesgranrio","url":"\/dashboard\/details-assets\/20a72905-73b2-467b-9f56-9c495466f14b","coordinates":[-57.0853,-29.7614]},{"id":"4cb5b087-3a27-4aad-ad7b-b5ddd5188881","title":"RS - TRES PASSOS","tipo":"Cesgranrio","url":"\/dashboard\/details-assets\/4cb5b087-3a27-4aad-ad7b-b5ddd5188881","coordinates":[-53.9296,-27.4555]},{"id":"890e1f5b-f27c-4351-a07f-222b7b8b29e8","title":"RS - TRES DE MAIO","tipo":"Cesgranrio","url":"\/dashboard\/details-assets\/890e1f5b-f27c-4351-a07f-222b7b8b29e8","coordinates":[-54.2357,-27.78]},{"id":"bbf11c43-682c-4ff7-8f26-86e769a7af3b","title":"RS - TRAMANDAI","tipo":"Cesgranrio","url":"\/dashboard\/details-assets\/bbf11c43-682c-4ff7-8f26-86e769a7af3b","coordinates":[-50.1322,-29.9841]},{"id":"cbd551d5-ed7b-47de-811f-496d4d606ec0","title":"RS - TORRES","tipo":"Cesgranrio","url":"\/dashboard\/details-assets\/cbd551d5-ed7b-47de-811f-496d4d606ec0","coordinates":[-49.7333,-29.3334]},{"id":"6d82a587-16da-48bf-8213-54abfb01dcd0","title":"RS - TAQUARI","tipo":"Cesgranrio","url":"\/dashboard\/details-assets\/6d82a587-16da-48bf-8213-54abfb01dcd0","coordinates":[-51.8653,-29.7943]},{"id":"1de67ea4-8746-4746-b540-aec3456f7ec3","title":"RS - TAQUARA","tipo":"Cesgranrio","url":"\/dashboard\/details-assets\/1de67ea4-8746-4746-b540-aec3456f7ec3","coordinates":[-50.7753,-29.6505]},{"id":"c26b982a-a05c-4990-9046-a6e89e50d913","title":"RS - TAPEJARA","tipo":"Cesgranrio","url":"\/dashboard\/details-assets\/c26b982a-a05c-4990-9046-a6e89e50d913","coordinates":[-52.0097,-28.0652]},{"id":"96f09b23-def1-4281-afda-1745b588ce12","title":"RS - SOLEDADE","tipo":"Cesgranrio","url":"\/dashboard\/details-assets\/96f09b23-def1-4281-afda-1745b588ce12","coordinates":[-52.5131,-28.8306]},{"id":"af58ae7f-766c-45be-8e04-5651c1cf9d79","title":"RS - SOBRADINHO","tipo":"Cesgranrio","url":"\/dashboard\/details-assets\/af58ae7f-766c-45be-8e04-5651c1cf9d79","coordinates":[-53.0326,-29.4194]},{"id":"7d3f005c-38ca-4cd2-8503-ffb3cdd8cb1d","title":"RS - SARANDI","tipo":"Cesgranrio","url":"\/dashboard\/details-assets\/7d3f005c-38ca-4cd2-8503-ffb3cdd8cb1d","coordinates":[-52.9231,-27.942]},{"id":"727adb23-a5ae-4704-a133-e8fbccde6f09","title":"RS - SAPUCAIA DO SUL","tipo":"Cesgranrio","url":"\/dashboard\/details-assets\/727adb23-a5ae-4704-a133-e8fbccde6f09","coordinates":[-51.145,-29.8276]},{"id":"0725b6ae-a406-4866-9373-83518ef34919","title":"RS - SAPIRANGA","tipo":"Cesgranrio","url":"\/dashboard\/details-assets\/0725b6ae-a406-4866-9373-83518ef34919","coordinates":[-51.0064,-29.6349]},{"id":"6839cc97-cc67-4b5d-8d02-980fff642654","title":"RS - SAO VICENTE DO SUL","tipo":"Cesgranrio","url":"\/dashboard\/details-assets\/6839cc97-cc67-4b5d-8d02-980fff642654","coordinates":[-54.6826,-29.6882]},{"id":"8990ae3c-a8c7-43d9-9f3b-5db04d2705ba","title":"RS - SAO SEPE","tipo":"Cesgranrio","url":"\/dashboard\/details-assets\/8990ae3c-a8c7-43d9-9f3b-5db04d2705ba","coordinates":[-53.5603,-30.1643]},{"id":"3df27d9e-464a-48e7-87fb-d5eaf9fe1738","title":"RS - SAO MARCOS","tipo":"Cesgranrio","url":"\/dashboard\/details-assets\/3df27d9e-464a-48e7-87fb-d5eaf9fe1738","coordinates":[-51.0696,-28.9677]},{"id":"d52360e7-f22d-4126-bcc2-98de3789daa7","title":"RS - SAO LUIZ GONZAGA","tipo":"Cesgranrio","url":"\/dashboard\/details-assets\/d52360e7-f22d-4126-bcc2-98de3789daa7","coordinates":[-54.9559,-28.412]},{"id":"a101fae5-0a9f-4342-a651-e41a32e539e5","title":"RS - SAO LOURENCO DO SUL","tipo":"Cesgranrio","url":"\/dashboard\/details-assets\/a101fae5-0a9f-4342-a651-e41a32e539e5","coordinates":[-51.9715,-31.3564]},{"id":"d5654f94-0daa-4c41-bcd6-2f4387aede33","title":"RS - SAO JERONIMO","tipo":"Cesgranrio","url":"\/dashboard\/details-assets\/d5654f94-0daa-4c41-bcd6-2f4387aede33","coordinates":[-51.7251,-29.9716]},{"id":"5caef901-3eb4-4c88-bfb5-2f6a4f923d6e","title":"RS - SAO LEOPOLDO","tipo":"Cesgranrio","url":"\/dashboard\/details-assets\/5caef901-3eb4-4c88-bfb5-2f6a4f923d6e","coordinates":[-51.1498,-29.7545]},{"id":"10d9159a-0edf-4413-a7eb-e12ae9286ca4","title":"RS - SAO GABRIEL","tipo":"Cesgranrio","url":"\/dashboard\/details-assets\/10d9159a-0edf-4413-a7eb-e12ae9286ca4","coordinates":[-54.3217,-30.3337]},{"id":"3581d4c0-bdd5-4b81-8b6e-a839282d95c2","title":"RS - SAO FRANCISCO DE ASSIS","tipo":"Cesgranrio","url":"\/dashboard\/details-assets\/3581d4c0-bdd5-4b81-8b6e-a839282d95c2","coordinates":[-55.1253,-29.5547]},{"id":"7929cd40-e9ee-42a5-9f04-731b2f70e551","title":"RS - SAO BORJA","tipo":"Cesgranrio","url":"\/dashboard\/details-assets\/7929cd40-e9ee-42a5-9f04-731b2f70e551","coordinates":[-56.0036,-28.6578]},{"id":"eb3c3565-e0ce-46e3-8748-f4b4f48a2b7c","title":"RS - SANTO ANTONIO DA PATRULHA","tipo":"Cesgranrio","url":"\/dashboard\/details-assets\/eb3c3565-e0ce-46e3-8748-f4b4f48a2b7c","coordinates":[-50.5175,-29.8268]},{"id":"8ddef3b7-6467-47ad-9d9e-1ace05445246","title":"RS - SANTO ANGELO","tipo":"Cesgranrio","url":"\/dashboard\/details-assets\/8ddef3b7-6467-47ad-9d9e-1ace05445246","coordinates":[-54.2668,-28.3001]},{"id":"ed7a8bf2-3645-4e60-8663-956ebe9cbe0f","title":"RS - SANTIAGO","tipo":"Cesgranrio","url":"\/dashboard\/details-assets\/ed7a8bf2-3645-4e60-8663-956ebe9cbe0f","coordinates":[-54.8666,-29.1897]},{"id":"5f3a8155-9477-456e-bab3-a42d78e363fe","title":"RS - SANT'ANA DO LIVRAMENTO","tipo":"Cesgranrio","url":"\/dashboard\/details-assets\/5f3a8155-9477-456e-bab3-a42d78e363fe","coordinates":[-55.5392,-30.8773]},{"id":"4549caee-2453-4a54-bea8-ae8152afe961","title":"RS - SANTA VITORIA DO PALMAR","tipo":"Cesgranrio","url":"\/dashboard\/details-assets\/4549caee-2453-4a54-bea8-ae8152afe961","coordinates":[-53.3717,-33.525]},{"id":"e4f485fc-1481-4d40-8b4d-9bcb690595bb","title":"RS - SANTA ROSA","tipo":"Cesgranrio","url":"\/dashboard\/details-assets\/e4f485fc-1481-4d40-8b4d-9bcb690595bb","coordinates":[-54.4796,-27.8702]},{"id":"ea643acd-a1fe-40e6-9ec2-cbfcd793cc7e","title":"RS - SANTA MARIA","tipo":"Cesgranrio","url":"\/dashboard\/details-assets\/ea643acd-a1fe-40e6-9ec2-cbfcd793cc7e","coordinates":[-53.8149,-29.6868]},{"id":"abaff3ff-971e-462b-8a80-e78baba4c6b2","title":"RS - SANTA CRUZ DO SUL","tipo":"Cesgranrio","url":"\/dashboard\/details-assets\/abaff3ff-971e-462b-8a80-e78baba4c6b2","coordinates":[-52.4343,-29.722]},{"id":"0914563c-cc0e-4f27-9938-698a72214e9f","title":"RS - ROSARIO DO SUL","tipo":"Cesgranrio","url":"\/dashboard\/details-assets\/0914563c-cc0e-4f27-9938-698a72214e9f","coordinates":[-54.9221,-30.2515]},{"id":"8dbb3413-ed93-47b0-ad89-20717368c5b2","title":"RS - RIO PARDO","tipo":"Cesgranrio","url":"\/dashboard\/details-assets\/8dbb3413-ed93-47b0-ad89-20717368c5b2","coordinates":[-52.3711,-29.988]},{"id":"68b5bdd1-2aa6-480e-82df-7aa711c3c032","title":"RS - RIO GRANDE","tipo":"Cesgranrio","url":"\/dashboard\/details-assets\/68b5bdd1-2aa6-480e-82df-7aa711c3c032","coordinates":[-52.1071,-32.0349]},{"id":"2d54f2ed-fb24-4b8c-8c54-a4910fdce678","title":"RS - QUARAI","tipo":"Cesgranrio","url":"\/dashboard\/details-assets\/2d54f2ed-fb24-4b8c-8c54-a4910fdce678","coordinates":[-56.4483,-30.384]},{"id":"691f5f95-6319-4adc-bfa7-5a9343d13e02","title":"RS - PORTO ALEGRE","tipo":"Cesgranrio","url":"\/dashboard\/details-assets\/691f5f95-6319-4adc-bfa7-5a9343d13e02","coordinates":[-51.2065,-30.0318]},{"id":"47b4298f-f90f-419b-b4e5-2720d28bae3c","title":"RS - PELOTAS","tipo":"Cesgranrio","url":"\/dashboard\/details-assets\/47b4298f-f90f-419b-b4e5-2720d28bae3c","coordinates":[-52.3371,-31.7649]},{"id":"2ea4d7f9-7851-4e33-8db0-003b97a3bc2a","title":"RS - PASSO FUNDO","tipo":"Cesgranrio","url":"\/dashboard\/details-assets\/2ea4d7f9-7851-4e33-8db0-003b97a3bc2a","coordinates":[-52.4091,-28.2576]},{"id":"b5bb7df3-6b56-4817-b396-52f67bdc62e6","title":"RS - PANAMBI","tipo":"Cesgranrio","url":"\/dashboard\/details-assets\/b5bb7df3-6b56-4817-b396-52f67bdc62e6","coordinates":[-53.5023,-28.2833]},{"id":"1897eb67-3c9a-4d23-a8d4-6ac301b31394","title":"RS - PAROBE","tipo":"Cesgranrio","url":"\/dashboard\/details-assets\/1897eb67-3c9a-4d23-a8d4-6ac301b31394","coordinates":[-50.8312,-29.6243]},{"id":"8dba69a0-af71-42b6-a93e-2ed2c359b74f","title":"RS - PALMEIRA DAS MISSOES","tipo":"Cesgranrio","url":"\/dashboard\/details-assets\/8dba69a0-af71-42b6-a93e-2ed2c359b74f","coordinates":[-53.3134,-27.9007]},{"id":"bf63754d-d6a9-4369-91c0-6f984a98dbb4","title":"RS - OSORIO","tipo":"Cesgranrio","url":"\/dashboard\/details-assets\/bf63754d-d6a9-4369-91c0-6f984a98dbb4","coordinates":[-50.2667,-29.8881]},{"id":"55975cf8-fbd1-408e-ad9f-31e766bd4821","title":"RS - NOVO HAMBURGO","tipo":"Cesgranrio","url":"\/dashboard\/details-assets\/55975cf8-fbd1-408e-ad9f-31e766bd4821","coordinates":[-51.1328,-29.6875]},{"id":"27cf7a4c-8cad-459f-a080-de077cc33ad1","title":"RS - NOVA PETROPOLIS","tipo":"Cesgranrio","url":"\/dashboard\/details-assets\/27cf7a4c-8cad-459f-a080-de077cc33ad1","coordinates":[-51.1136,-29.3741]},{"id":"ea90f478-ac8a-44b7-8909-2536cf7ab1d9","title":"RS - NOVA PRATA","tipo":"Cesgranrio","url":"\/dashboard\/details-assets\/ea90f478-ac8a-44b7-8909-2536cf7ab1d9","coordinates":[-51.6113,-28.7799]},{"id":"4e2c3fed-6a80-40dc-93a9-5f24bc42dd50","title":"RS - MOSTARDAS","tipo":"Cesgranrio","url":"\/dashboard\/details-assets\/4e2c3fed-6a80-40dc-93a9-5f24bc42dd50","coordinates":[-50.9167,-31.1054]},{"id":"e96bd596-b89e-4c92-a23e-ea4272c86916","title":"RS - MONTENEGRO","tipo":"Cesgranrio","url":"\/dashboard\/details-assets\/e96bd596-b89e-4c92-a23e-ea4272c86916","coordinates":[-51.4679,-29.6824]},{"id":"0cf5bb22-d5ce-4edd-9088-b4654c1712a2","title":"RS - MARAU","tipo":"Cesgranrio","url":"\/dashboard\/details-assets\/0cf5bb22-d5ce-4edd-9088-b4654c1712a2","coordinates":[-52.1986,-28.4498]},{"id":"3fe87119-ed0a-448b-ad98-6b10e986a092","title":"RS - MACHADINHO","tipo":"Cesgranrio","url":"\/dashboard\/details-assets\/3fe87119-ed0a-448b-ad98-6b10e986a092","coordinates":[-51.6668,-27.5667]},{"id":"67953ad7-edae-4333-ad78-b600aa3ebd85","title":"RS - LAJEADO","tipo":"Cesgranrio","url":"\/dashboard\/details-assets\/67953ad7-edae-4333-ad78-b600aa3ebd85","coordinates":[-51.9644,-29.4591]},{"id":"32dd71c3-72cc-49dd-a9af-99f467cb9748","title":"RS - LAGOA VERMELHA","tipo":"Cesgranrio","url":"\/dashboard\/details-assets\/32dd71c3-72cc-49dd-a9af-99f467cb9748","coordinates":[-51.5248,-28.2093]},{"id":"a13267df-6bbd-41d1-8cc3-ff04f44df7a4","title":"RS - JAGUARI","tipo":"Cesgranrio","url":"\/dashboard\/details-assets\/a13267df-6bbd-41d1-8cc3-ff04f44df7a4","coordinates":[-54.703,-29.4936]},{"id":"edf72b2b-779f-43e2-b4e4-86b7f18bcf8f","title":"RS - JULIO DE CASTILHOS","tipo":"Cesgranrio","url":"\/dashboard\/details-assets\/edf72b2b-779f-43e2-b4e4-86b7f18bcf8f","coordinates":[-53.6772,-29.2299]},{"id":"34c6a41d-315f-4f03-9b38-66a1f477b158","title":"RS - JAGUARAO","tipo":"Cesgranrio","url":"\/dashboard\/details-assets\/34c6a41d-315f-4f03-9b38-66a1f477b158","coordinates":[-53.377,-32.5604]},{"id":"20212d4c-4df4-4562-8ec1-1335863cda08","title":"RS - IVOTI","tipo":"Cesgranrio","url":"\/dashboard\/details-assets\/20212d4c-4df4-4562-8ec1-1335863cda08","coordinates":[-51.1533,-29.5995]},{"id":"b5e3504c-3d0d-4070-8c72-899983cf5f82","title":"RS - IMBE","tipo":"Cesgranrio","url":"\/dashboard\/details-assets\/b5e3504c-3d0d-4070-8c72-899983cf5f82","coordinates":[-50.1281,-29.9753]},{"id":"18f036e2-fb40-43ad-899a-81b94acf61ba","title":"RS - ITAQUI","tipo":"Cesgranrio","url":"\/dashboard\/details-assets\/18f036e2-fb40-43ad-899a-81b94acf61ba","coordinates":[-56.5515,-29.1311]},{"id":"57d4b4ae-b6c5-4683-b069-bd5f6c7ee23e","title":"RS - IJUI","tipo":"Cesgranrio","url":"\/dashboard\/details-assets\/57d4b4ae-b6c5-4683-b069-bd5f6c7ee23e","coordinates":[-53.92,-28.388]},{"id":"5518ed63-7452-4aca-a926-c4d98701cabe","title":"RS - IGREJINHA","tipo":"Cesgranrio","url":"\/dashboard\/details-assets\/5518ed63-7452-4aca-a926-c4d98701cabe","coordinates":[-50.7919,-29.5693]},{"id":"b64421d8-8364-4388-9718-e061997e832c","title":"RS - HORIZONTINA","tipo":"Cesgranrio","url":"\/dashboard\/details-assets\/b64421d8-8364-4388-9718-e061997e832c","coordinates":[-54.3053,-27.6282]},{"id":"66655294-4464-46d5-8d6c-e931f7319274","title":"RS - GUAPORE","tipo":"Cesgranrio","url":"\/dashboard\/details-assets\/66655294-4464-46d5-8d6c-e931f7319274","coordinates":[-51.8895,-28.8399]},{"id":"99740ae4-0fc2-426f-8c8f-6ded4b942f0c","title":"RS - GUAIBA","tipo":"Cesgranrio","url":"\/dashboard\/details-assets\/99740ae4-0fc2-426f-8c8f-6ded4b942f0c","coordinates":[-51.3233,-30.1086]},{"id":"6067e662-420e-4642-ae40-56297f73315e","title":"RS - GRAVATAI","tipo":"Cesgranrio","url":"\/dashboard\/details-assets\/6067e662-420e-4642-ae40-56297f73315e","coordinates":[-50.9869,-29.9413]},{"id":"05c9f31a-b90d-4596-8b3a-a2d8df1d7933","title":"RS - GIRUA","tipo":"Cesgranrio","url":"\/dashboard\/details-assets\/05c9f31a-b90d-4596-8b3a-a2d8df1d7933","coordinates":[-54.3517,-28.0297]},{"id":"c17809b0-16e1-49f1-8469-dd2b40ad7853","title":"RS - GETULIO VARGAS","tipo":"Cesgranrio","url":"\/dashboard\/details-assets\/c17809b0-16e1-49f1-8469-dd2b40ad7853","coordinates":[-52.2294,-27.8911]},{"id":"b09bd33d-c407-4ffa-b8da-abb70f062547","title":"RS - GARIBALDI","tipo":"Cesgranrio","url":"\/dashboard\/details-assets\/b09bd33d-c407-4ffa-b8da-abb70f062547","coordinates":[-51.5352,-29.259]},{"id":"11172035-9095-49bb-86f9-86e663d1bf7b","title":"RS - FREDERICO WESTPHALEN","tipo":"Cesgranrio","url":"\/dashboard\/details-assets\/11172035-9095-49bb-86f9-86e663d1bf7b","coordinates":[-53.3958,-27.3586]},{"id":"b8e6c380-4d9e-4ad6-b3a1-a57d38bf0d2c","title":"RS - FARROUPILHA","tipo":"Cesgranrio","url":"\/dashboard\/details-assets\/b8e6c380-4d9e-4ad6-b3a1-a57d38bf0d2c","coordinates":[-51.3419,-29.2227]},{"id":"aceead6d-4a82-4b2b-aaca-eb2f272da078","title":"RS - ESTRELA","tipo":"Cesgranrio","url":"\/dashboard\/details-assets\/aceead6d-4a82-4b2b-aaca-eb2f272da078","coordinates":[-51.9495,-29.5002]},{"id":"4040a6cc-df3b-4f35-8f74-d777e4d42d7c","title":"RS - ESTANCIA VELHA","tipo":"Cesgranrio","url":"\/dashboard\/details-assets\/4040a6cc-df3b-4f35-8f74-d777e4d42d7c","coordinates":[-51.1843,-29.6535]},{"id":"d50dee65-4f78-48c8-8f65-37eb94e17558","title":"RS - ESTEIO","tipo":"Cesgranrio","url":"\/dashboard\/details-assets\/d50dee65-4f78-48c8-8f65-37eb94e17558","coordinates":[-51.1841,-29.852]},{"id":"2b2b8724-b93e-4a36-93af-49aa41dc8e5e","title":"RS - ESPUMOSO","tipo":"Cesgranrio","url":"\/dashboard\/details-assets\/2b2b8724-b93e-4a36-93af-49aa41dc8e5e","coordinates":[-52.8461,-28.7286]},{"id":"3f5b0e55-27b7-42f7-bd4e-0e76bbc268e1","title":"RS - ERECHIM","tipo":"Cesgranrio","url":"\/dashboard\/details-assets\/3f5b0e55-27b7-42f7-bd4e-0e76bbc268e1","coordinates":[-52.2697,-27.6364]},{"id":"36d56746-67b5-4ee9-aaa6-773c38f95b7f","title":"RS - ENCRUZILHADA DO SUL","tipo":"Cesgranrio","url":"\/dashboard\/details-assets\/36d56746-67b5-4ee9-aaa6-773c38f95b7f","coordinates":[-52.5204,-30.543]},{"id":"8445a77b-cf6f-4010-8384-c2f923a93fd9","title":"RS - ENCANTADO","tipo":"Cesgranrio","url":"\/dashboard\/details-assets\/8445a77b-cf6f-4010-8384-c2f923a93fd9","coordinates":[-51.8703,-29.2351]},{"id":"9c8765eb-7d05-4ca9-9d74-5158adf2bf4a","title":"RS - ELDORADO DO SUL","tipo":"Cesgranrio","url":"\/dashboard\/details-assets\/9c8765eb-7d05-4ca9-9d74-5158adf2bf4a","coordinates":[-51.6187,-30.0847]},{"id":"115b2d84-534f-4b09-a08e-988ce7bfff10","title":"RS - DOM PEDRITO","tipo":"Cesgranrio","url":"\/dashboard\/details-assets\/115b2d84-534f-4b09-a08e-988ce7bfff10","coordinates":[-54.6694,-30.9756]},{"id":"8b265190-6e1b-4152-a623-b2012d989d56","title":"RS - DOIS IRMAOS","tipo":"Cesgranrio","url":"\/dashboard\/details-assets\/8b265190-6e1b-4152-a623-b2012d989d56","coordinates":[-51.0898,-29.5836]},{"id":"ed25e974-07e2-40d4-bd73-ee843c1ddb9e","title":"RS - CRUZ ALTA","tipo":"Cesgranrio","url":"\/dashboard\/details-assets\/ed25e974-07e2-40d4-bd73-ee843c1ddb9e","coordinates":[-53.6048,-28.645]},{"id":"72fe580f-9b0b-4fc4-8f37-a25ee6b79533","title":"RS - CHARQUEADAS","tipo":"Cesgranrio","url":"\/dashboard\/details-assets\/72fe580f-9b0b-4fc4-8f37-a25ee6b79533","coordinates":[-51.6289,-29.9625]},{"id":"9cf7920a-9559-4cb9-a89a-9dc31f927619","title":"RS - CERRO LARGO","tipo":"Cesgranrio","url":"\/dashboard\/details-assets\/9cf7920a-9559-4cb9-a89a-9dc31f927619","coordinates":[-54.7428,-28.1463]},{"id":"585c63e3-4db3-4514-90f4-b590d76c330f","title":"RS - CAXIAS DO SUL","tipo":"Cesgranrio","url":"\/dashboard\/details-assets\/585c63e3-4db3-4514-90f4-b590d76c330f","coordinates":[-51.1792,-29.1629]},{"id":"a74a58d2-2c13-4f04-9aa8-c2cf8a204611","title":"RS - CARLOS BARBOSA","tipo":"Cesgranrio","url":"\/dashboard\/details-assets\/a74a58d2-2c13-4f04-9aa8-c2cf8a204611","coordinates":[-51.5028,-29.2969]},{"id":"c0f83bf7-6ce7-4db4-9515-0d66e3955dce","title":"RS - CARAZINHO","tipo":"Cesgranrio","url":"\/dashboard\/details-assets\/c0f83bf7-6ce7-4db4-9515-0d66e3955dce","coordinates":[-52.7933,-28.2958]},{"id":"c02c5083-a06e-4916-82ad-a27fde3c89ab","title":"RS - CAPAO DA CANOA","tipo":"Cesgranrio","url":"\/dashboard\/details-assets\/c02c5083-a06e-4916-82ad-a27fde3c89ab","coordinates":[-50.0282,-29.7642]},{"id":"ee85696b-0cf8-4daf-a365-d85ac08854bd","title":"RS - CAPAO DO LEAO","tipo":"Cesgranrio","url":"\/dashboard\/details-assets\/ee85696b-0cf8-4daf-a365-d85ac08854bd","coordinates":[-52.4889,-31.7565]},{"id":"16cfcbc5-2b02-4e06-b988-6ea9eef21c15","title":"RS - CANOAS","tipo":"Cesgranrio","url":"\/dashboard\/details-assets\/16cfcbc5-2b02-4e06-b988-6ea9eef21c15","coordinates":[-51.1857,-29.9128]},{"id":"bf619d50-014d-4e02-acfd-cfcd5c4c8edd","title":"RS - CANELA","tipo":"Cesgranrio","url":"\/dashboard\/details-assets\/bf619d50-014d-4e02-acfd-cfcd5c4c8edd","coordinates":[-50.8119,-29.356]},{"id":"0c1593a6-2563-4872-99ce-cf075bf941d6","title":"RS - CANGUCU","tipo":"Cesgranrio","url":"\/dashboard\/details-assets\/0c1593a6-2563-4872-99ce-cf075bf941d6","coordinates":[-52.6783,-31.396]},{"id":"6160ef34-39b0-47d4-90aa-d79c005514ea","title":"RS - CANDELARIA","tipo":"Cesgranrio","url":"\/dashboard\/details-assets\/6160ef34-39b0-47d4-90aa-d79c005514ea","coordinates":[-52.7895,-29.6684]},{"id":"874ea0be-c8f5-40d9-a21d-bf45cc714165","title":"RS - CACHOEIRINHA","tipo":"Cesgranrio","url":"\/dashboard\/details-assets\/874ea0be-c8f5-40d9-a21d-bf45cc714165","coordinates":[-51.1016,-29.9472]},{"id":"7819c6f7-f813-49eb-9419-cb1ea1c3ef11","title":"RS - CAMAQUA","tipo":"Cesgranrio","url":"\/dashboard\/details-assets\/7819c6f7-f813-49eb-9419-cb1ea1c3ef11","coordinates":[-51.8043,-30.8489]},{"id":"c2fc2b7f-f050-409d-895b-aff9bf20b52d","title":"RS - CACEQUI","tipo":"Cesgranrio","url":"\/dashboard\/details-assets\/c2fc2b7f-f050-409d-895b-aff9bf20b52d","coordinates":[-54.822,-29.8883]},{"id":"03fc992f-68a3-4f0f-bff3-7a43a7aa051a","title":"RS - CACHOEIRA DO SUL","tipo":"Cesgranrio","url":"\/dashboard\/details-assets\/03fc992f-68a3-4f0f-bff3-7a43a7aa051a","coordinates":[-52.8928,-30.033]},{"id":"2df8e736-7327-447c-b4f6-fdd0da9a007c","title":"RS - CACAPAVA DO SUL","tipo":"Cesgranrio","url":"\/dashboard\/details-assets\/2df8e736-7327-447c-b4f6-fdd0da9a007c","coordinates":[-53.4827,-30.5144]},{"id":"b66fa6fd-c14a-45ee-bbfe-b63db5b013b3","title":"RS - BUTIA","tipo":"Cesgranrio","url":"\/dashboard\/details-assets\/b66fa6fd-c14a-45ee-bbfe-b63db5b013b3","coordinates":[-51.9601,-30.1179]},{"id":"a674e14f-3717-4b9d-8614-856a76db51f0","title":"RS - BENTO GONCALVES","tipo":"Cesgranrio","url":"\/dashboard\/details-assets\/a674e14f-3717-4b9d-8614-856a76db51f0","coordinates":[-51.5165,-29.1662]},{"id":"ee179e97-c18f-454c-ba86-b3adfdd1ee2f","title":"RS - BAGE","tipo":"Cesgranrio","url":"\/dashboard\/details-assets\/ee179e97-c18f-454c-ba86-b3adfdd1ee2f","coordinates":[-54.0999,-31.3297]},{"id":"7d997530-64c1-4481-80e7-3bd704785209","title":"RS - ARROIO GRANDE","tipo":"Cesgranrio","url":"\/dashboard\/details-assets\/7d997530-64c1-4481-80e7-3bd704785209","coordinates":[-53.0862,-32.2327]},{"id":"18398997-7079-4881-b5e1-5c1660fb01ff","title":"RS - ARROIO DO MEIO","tipo":"Cesgranrio","url":"\/dashboard\/details-assets\/18398997-7079-4881-b5e1-5c1660fb01ff","coordinates":[-51.9557,-29.4014]},{"id":"5f440415-79a9-4f7b-9009-9497a9e91478","title":"RS - ALEGRETE","tipo":"Cesgranrio","url":"\/dashboard\/details-assets\/5f440415-79a9-4f7b-9009-9497a9e91478","coordinates":[-55.7949,-29.7902]},{"id":"75d898bf-f9c8-4993-a2ac-8c807d2933d0","title":"RS - ALVORADA","tipo":"Cesgranrio","url":"\/dashboard\/details-assets\/75d898bf-f9c8-4993-a2ac-8c807d2933d0","coordinates":[-51.0809,-29.9914]},{"id":"643498e9-ab20-4e82-87c4-d67ef7d46fc9","title":"RN - VERA CRUZ","tipo":"Cesgranrio","url":"\/dashboard\/details-assets\/643498e9-ab20-4e82-87c4-d67ef7d46fc9","coordinates":[-35.428,-6.04399]},{"id":"9c272293-e032-4ba3-a67c-3173283a7105","title":"RN - UMARIZAL","tipo":"Cesgranrio","url":"\/dashboard\/details-assets\/9c272293-e032-4ba3-a67c-3173283a7105","coordinates":[-37.818,-5.98238]},{"id":"dd887a80-f63e-4a24-92d9-1dd05e880728","title":"RN - TOUROS","tipo":"Cesgranrio","url":"\/dashboard\/details-assets\/dd887a80-f63e-4a24-92d9-1dd05e880728","coordinates":[-35.4621,-5.20182]},{"id":"889d46e2-a97b-406e-a17d-58c0e0dcec27","title":"RN - TIBAU","tipo":"Cesgranrio","url":"\/dashboard\/details-assets\/889d46e2-a97b-406e-a17d-58c0e0dcec27","coordinates":[-37.2554,-4.83729]},{"id":"0156046a-e63f-4e9c-a9d3-881d08c2bc96","title":"RN - SAO MIGUEL","tipo":"Cesgranrio","url":"\/dashboard\/details-assets\/0156046a-e63f-4e9c-a9d3-881d08c2bc96","coordinates":[-38.4947,-6.20283]},