[{"id":"baaefc04-77c6-485a-be40-a391d82396bf","title":"TO - WANDERLANDIA","tipo":"Cebraspe","url":"\/dashboard\/details-assets\/baaefc04-77c6-485a-be40-a391d82396bf","coordinates":[-47.96,-6.84]},{"id":"baee20ad-c567-467f-82e4-87e26aa64bf1","title":"TO - XAMBIOA","tipo":"Cebraspe","url":"\/dashboard\/details-assets\/baee20ad-c567-467f-82e4-87e26aa64bf1","coordinates":[-48.53,-6.41]},{"id":"b80e07bb-dfd3-4c8b-abb4-a671b8936f11","title":"TO - TUPIRATINS","tipo":"Cebraspe","url":"\/dashboard\/details-assets\/b80e07bb-dfd3-4c8b-abb4-a671b8936f11","coordinates":[-48.11,-8.39]},{"id":"236330e0-7b5a-4f15-bc35-30281ffe1c3e","title":"TO - TUPIRAMA","tipo":"Cebraspe","url":"\/dashboard\/details-assets\/236330e0-7b5a-4f15-bc35-30281ffe1c3e","coordinates":[-48.18,-8.97]},{"id":"97ae1d23-70f5-4f67-8f55-7d1ecefe0ade","title":"TO - TOCANTINOPOLIS","tipo":"Cebraspe","url":"\/dashboard\/details-assets\/97ae1d23-70f5-4f67-8f55-7d1ecefe0ade","coordinates":[-47.41,-6.32]},{"id":"14beea3d-c5b5-464b-b903-bedba131f73c","title":"TO - TOCANTINIA","tipo":"Cebraspe","url":"\/dashboard\/details-assets\/14beea3d-c5b5-464b-b903-bedba131f73c","coordinates":[-48.37,-9.56]},{"id":"f0bd2333-0482-4648-b177-7500bade16f9","title":"TO - TALISMA","tipo":"Cebraspe","url":"\/dashboard\/details-assets\/f0bd2333-0482-4648-b177-7500bade16f9","coordinates":[-49.09,-12.79]},{"id":"7ac2f097-85a3-4338-9bee-0c7405f1c0fb","title":"TO - TAIPAS DO TOCANTINS","tipo":"Cebraspe","url":"\/dashboard\/details-assets\/7ac2f097-85a3-4338-9bee-0c7405f1c0fb","coordinates":[-46.98,-12.18]},{"id":"f1de2073-0a9f-4e4d-add4-36b39d19eefc","title":"TO - TAGUATINGA","tipo":"Cebraspe","url":"\/dashboard\/details-assets\/f1de2073-0a9f-4e4d-add4-36b39d19eefc","coordinates":[-46.43,-12.4]},{"id":"9776b186-2a91-4378-bded-4b7c6d782b7f","title":"TO - SITIO NOVO DO TOCANTINS","tipo":"Cebraspe","url":"\/dashboard\/details-assets\/9776b186-2a91-4378-bded-4b7c6d782b7f","coordinates":[-47.63,-5.6]},{"id":"2126a511-77d1-4923-8687-b1c292aca015","title":"TO - SUCUPIRA","tipo":"Cebraspe","url":"\/dashboard\/details-assets\/2126a511-77d1-4923-8687-b1c292aca015","coordinates":[-48.97,-11.99]},{"id":"494e0786-56c0-4709-b1a1-fed36a78ef4a","title":"TO - SILVANOPOLIS","tipo":"Cebraspe","url":"\/dashboard\/details-assets\/494e0786-56c0-4709-b1a1-fed36a78ef4a","coordinates":[-48.16,-11.14]},{"id":"b7746e38-7459-4715-a174-6936bac6c1d4","title":"TO - SAO VALERIO DA NATIVIDADE","tipo":"Cebraspe","url":"\/dashboard\/details-assets\/b7746e38-7459-4715-a174-6936bac6c1d4","coordinates":[-48.23,-11.97]},{"id":"a61fd95f-023f-4621-a245-499d90597868","title":"TO - SAO SEBASTIAO DO TOCANTINS","tipo":"Cebraspe","url":"\/dashboard\/details-assets\/a61fd95f-023f-4621-a245-499d90597868","coordinates":[-48.2,-5.25]},{"id":"8b9bfcdf-fd59-44ed-86ec-ae2babfdd3ef","title":"TO - SAO MIGUEL DO TOCANTINS","tipo":"Cebraspe","url":"\/dashboard\/details-assets\/8b9bfcdf-fd59-44ed-86ec-ae2babfdd3ef","coordinates":[-47.57,-5.55]},{"id":"4301447a-a2c6-49c6-9904-1df2ef698b4b","title":"TO - SAO SALVADOR DO TOCANTINS","tipo":"Cebraspe","url":"\/dashboard\/details-assets\/4301447a-a2c6-49c6-9904-1df2ef698b4b","coordinates":[-48.23,-12.74]},{"id":"e4023711-6eab-4578-b7e9-76e948b874f8","title":"TO - SAO FELIX DO TOCANTINS","tipo":"Cebraspe","url":"\/dashboard\/details-assets\/e4023711-6eab-4578-b7e9-76e948b874f8","coordinates":[-46.65,-10.16]},{"id":"b600bd18-ccaf-48ec-b3e0-e55e88be4697","title":"TO - SAO BENTO DO TOCANTINS","tipo":"Cebraspe","url":"\/dashboard\/details-assets\/b600bd18-ccaf-48ec-b3e0-e55e88be4697","coordinates":[-48.06,-5.91]},{"id":"6d7471e8-0f5e-40ef-8035-b204a1795a0a","title":"TO - SANTA TEREZINHA DO TOCANTINS","tipo":"Cebraspe","url":"\/dashboard\/details-assets\/6d7471e8-0f5e-40ef-8035-b204a1795a0a","coordinates":[-47.67,-6.43]},{"id":"abb0acaf-bbe2-4391-bec1-9b797fa799a8","title":"TO - SANTA TEREZA DO TOCANTINS","tipo":"Cebraspe","url":"\/dashboard\/details-assets\/abb0acaf-bbe2-4391-bec1-9b797fa799a8","coordinates":[-47.8,-10.28]},{"id":"348a5b28-ee67-46d0-90d2-0163ed08f985","title":"TO - SANTA ROSA DO TOCANTINS","tipo":"Cebraspe","url":"\/dashboard\/details-assets\/348a5b28-ee67-46d0-90d2-0163ed08f985","coordinates":[-48.12,-11.44]},{"id":"2fe2a7eb-da36-4dad-8fb6-f1ee0c6eec20","title":"TO - SANTA RITA DO TOCANTINS","tipo":"Cebraspe","url":"\/dashboard\/details-assets\/2fe2a7eb-da36-4dad-8fb6-f1ee0c6eec20","coordinates":[-48.91,-10.86]},{"id":"a3c307dc-6ac9-42ef-915a-d45bfbe0e1fc","title":"TO - SANTA MARIA DO TOCANTINS","tipo":"Cebraspe","url":"\/dashboard\/details-assets\/a3c307dc-6ac9-42ef-915a-d45bfbe0e1fc","coordinates":[-47.79,-8.79]},{"id":"8b228106-ec1b-4be0-b751-00cc4227f439","title":"TO - SANTA FE DO ARAGUAIA","tipo":"Cebraspe","url":"\/dashboard\/details-assets\/8b228106-ec1b-4be0-b751-00cc4227f439","coordinates":[-48.72,-7.15]},{"id":"c5146a42-90ef-48b0-a218-a08fe30f269e","title":"TO - SAMPAIO","tipo":"Cebraspe","url":"\/dashboard\/details-assets\/c5146a42-90ef-48b0-a218-a08fe30f269e","coordinates":[-47.87,-5.34]},{"id":"bf0df4d5-d942-45c4-ba54-21e9fc5fad8c","title":"TO - SANDOLANDIA","tipo":"Cebraspe","url":"\/dashboard\/details-assets\/bf0df4d5-d942-45c4-ba54-21e9fc5fad8c","coordinates":[-49.92,-12.53]},{"id":"dac6bc9a-597c-40eb-a57d-3d92d850de8a","title":"TO - RIO SONO","tipo":"Cebraspe","url":"\/dashboard\/details-assets\/dac6bc9a-597c-40eb-a57d-3d92d850de8a","coordinates":[-47.9,-9.34]},{"id":"5bdefe78-9d3d-4263-abfc-cff75718d5fc","title":"TO - RIO DOS BOIS","tipo":"Cebraspe","url":"\/dashboard\/details-assets\/5bdefe78-9d3d-4263-abfc-cff75718d5fc","coordinates":[-48.46,-9.29]},{"id":"a44e8a3f-2167-4f00-a869-16b67b1afd8a","title":"TO - RIO DA CONCEICAO","tipo":"Cebraspe","url":"\/dashboard\/details-assets\/a44e8a3f-2167-4f00-a869-16b67b1afd8a","coordinates":[-46.88,-11.4]},{"id":"c6aebeb4-ff17-49df-bc51-3eb27e05f159","title":"TO - RIACHINHO","tipo":"Cebraspe","url":"\/dashboard\/details-assets\/c6aebeb4-ff17-49df-bc51-3eb27e05f159","coordinates":[-48.13,-6.43]},{"id":"be5873e7-c1bc-4d71-a831-0c70079f3ac2","title":"TO - RECURSOLANDIA","tipo":"Cebraspe","url":"\/dashboard\/details-assets\/be5873e7-c1bc-4d71-a831-0c70079f3ac2","coordinates":[-47.24,-8.72]},{"id":"aa76bda4-a732-45ac-a818-37de9c8e2be0","title":"TO - PUGMIL","tipo":"Cebraspe","url":"\/dashboard\/details-assets\/aa76bda4-a732-45ac-a818-37de9c8e2be0","coordinates":[-48.89,-10.42]},{"id":"00e14a43-394f-4ff1-bbe2-c342c4800bc5","title":"TO - PRESIDENTE KENNEDY","tipo":"Cebraspe","url":"\/dashboard\/details-assets\/00e14a43-394f-4ff1-bbe2-c342c4800bc5","coordinates":[-48.5,-8.53]},{"id":"2f71a8d0-301b-4552-b0a3-2e386c360f0b","title":"TO - PRAIA NORTE","tipo":"Cebraspe","url":"\/dashboard\/details-assets\/2f71a8d0-301b-4552-b0a3-2e386c360f0b","coordinates":[-47.81,-5.39]},{"id":"807318f5-1520-438e-b402-ed750e719fde","title":"TO - PORTO NACIONAL","tipo":"Cebraspe","url":"\/dashboard\/details-assets\/807318f5-1520-438e-b402-ed750e719fde","coordinates":[-48.41,-10.7]},{"id":"eeca537b-56b4-4450-bbdb-2fff7515c1a1","title":"TO - PORTO ALEGRE DO TOCANTINS","tipo":"Cebraspe","url":"\/dashboard\/details-assets\/eeca537b-56b4-4450-bbdb-2fff7515c1a1","coordinates":[-47.04,-11.6]},{"id":"c6cbf562-85e4-4372-a73a-98fdb4ba4904","title":"TO - PONTE ALTA DO TOCANTINS","tipo":"Cebraspe","url":"\/dashboard\/details-assets\/c6cbf562-85e4-4372-a73a-98fdb4ba4904","coordinates":[-47.53,-10.74]},{"id":"9c81c7eb-87e6-4b96-9b06-e48ae22ec664","title":"TO - PONTE ALTA DO BOM JESUS","tipo":"Cebraspe","url":"\/dashboard\/details-assets\/9c81c7eb-87e6-4b96-9b06-e48ae22ec664","coordinates":[-46.47,-12.09]},{"id":"5eb2a123-117f-4fc1-af11-6113952513dd","title":"TO - PIUM","tipo":"Cebraspe","url":"\/dashboard\/details-assets\/5eb2a123-117f-4fc1-af11-6113952513dd","coordinates":[-49.18,-10.44]},{"id":"255122de-a25c-4280-a2de-f7a1f1860214","title":"TO - PINDORAMA DO TOCANTINS","tipo":"Cebraspe","url":"\/dashboard\/details-assets\/255122de-a25c-4280-a2de-f7a1f1860214","coordinates":[-47.57,-11.13]},{"id":"bdbf7874-180f-4d18-a448-c452f65a168d","title":"TO - PIRAQUE","tipo":"Cebraspe","url":"\/dashboard\/details-assets\/bdbf7874-180f-4d18-a448-c452f65a168d","coordinates":[-48.29,-6.77]},{"id":"e2c402a5-e98d-41af-b2ea-380ae4048718","title":"TO - PEQUIZEIRO","tipo":"Cebraspe","url":"\/dashboard\/details-assets\/e2c402a5-e98d-41af-b2ea-380ae4048718","coordinates":[-48.93,-8.59]},{"id":"7e0de4ed-2be8-4755-bcbe-d667a4ffdcbf","title":"TO - PEDRO AFONSO","tipo":"Cebraspe","url":"\/dashboard\/details-assets\/7e0de4ed-2be8-4755-bcbe-d667a4ffdcbf","coordinates":[-48.17,-8.96]},{"id":"53920bde-1142-41da-aa27-fb02bb7ca2f8","title":"TO - PEIXE","tipo":"Cebraspe","url":"\/dashboard\/details-assets\/53920bde-1142-41da-aa27-fb02bb7ca2f8","coordinates":[-48.53,-12.02]},{"id":"8af5b608-d779-4db9-8376-3c71d7f37e0c","title":"TO - PAU D'ARCO","tipo":"Cebraspe","url":"\/dashboard\/details-assets\/8af5b608-d779-4db9-8376-3c71d7f37e0c","coordinates":[-49.37,-7.54]},{"id":"1e53725b-8668-456f-9b9c-5b38d81bfd8f","title":"TO - PARANA","tipo":"Cebraspe","url":"\/dashboard\/details-assets\/1e53725b-8668-456f-9b9c-5b38d81bfd8f","coordinates":[-47.88,-12.61]},{"id":"99ed6be9-e5f9-4781-aed1-cff22c0f7ad0","title":"TO - PARAISO DO TOCANTINS","tipo":"Cebraspe","url":"\/dashboard\/details-assets\/99ed6be9-e5f9-4781-aed1-cff22c0f7ad0","coordinates":[-48.86,-10.17]},{"id":"2eabd952-87b1-43a8-bb28-4c63d1bdfefd","title":"TO - PALMEIROPOLIS","tipo":"Cebraspe","url":"\/dashboard\/details-assets\/2eabd952-87b1-43a8-bb28-4c63d1bdfefd","coordinates":[-48.4,-13.04]},{"id":"20f65b85-509e-4bd3-8d53-db88685d7a2c","title":"TO - PALMEIRANTE","tipo":"Cebraspe","url":"\/dashboard\/details-assets\/20f65b85-509e-4bd3-8d53-db88685d7a2c","coordinates":[-47.92,-7.86]},{"id":"f2d3c277-0cb7-4bf5-a5dd-e3ec830ff537","title":"TO - PALMAS","tipo":"Cebraspe","url":"\/dashboard\/details-assets\/f2d3c277-0cb7-4bf5-a5dd-e3ec830ff537","coordinates":[-48.33,-10.16]},{"id":"179e3487-3bc8-429a-817d-0e59ac8c9417","title":"TO - OLIVEIRA DE FATIMA","tipo":"Cebraspe","url":"\/dashboard\/details-assets\/179e3487-3bc8-429a-817d-0e59ac8c9417","coordinates":[-48.9,-10.7]},{"id":"4d966aa9-cab1-48f4-8629-fd3bb15e78b1","title":"TO - NOVO JARDIM","tipo":"Cebraspe","url":"\/dashboard\/details-assets\/4d966aa9-cab1-48f4-8629-fd3bb15e78b1","coordinates":[-46.62,-11.82]},{"id":"e63fa9ea-3c64-4471-b466-79b4d0d13f93","title":"TO - NOVO ACORDO","tipo":"Cebraspe","url":"\/dashboard\/details-assets\/e63fa9ea-3c64-4471-b466-79b4d0d13f93","coordinates":[-47.67,-9.96]},{"id":"65dca6e2-7be4-4253-8cfd-c2ba1d8ce803","title":"TO - NOVO ALEGRE","tipo":"Cebraspe","url":"\/dashboard\/details-assets\/65dca6e2-7be4-4253-8cfd-c2ba1d8ce803","coordinates":[-46.57,-12.93]},{"id":"5209686c-bbe5-44df-a194-63742e12dbdc","title":"TO - NOVA ROSALANDIA","tipo":"Cebraspe","url":"\/dashboard\/details-assets\/5209686c-bbe5-44df-a194-63742e12dbdc","coordinates":[-48.91,-10.56]},{"id":"4d8e0889-3174-490b-a8a9-4be11714c037","title":"TO - NOVA OLINDA","tipo":"Cebraspe","url":"\/dashboard\/details-assets\/4d8e0889-3174-490b-a8a9-4be11714c037","coordinates":[-48.42,-7.63]},{"id":"8779c124-ce5a-4a78-a36a-5214e938bd0e","title":"TO - NAZARE","tipo":"Cebraspe","url":"\/dashboard\/details-assets\/8779c124-ce5a-4a78-a36a-5214e938bd0e","coordinates":[-47.66,-6.37]},{"id":"e50f0fbf-98ff-496f-8f7b-e2c961a0ea79","title":"TO - NATIVIDADE","tipo":"Cebraspe","url":"\/dashboard\/details-assets\/e50f0fbf-98ff-496f-8f7b-e2c961a0ea79","coordinates":[-47.72,-11.71]},{"id":"5e08f433-86f6-49b4-8a17-c5e9b31d1363","title":"TO - MURICILANDIA","tipo":"Cebraspe","url":"\/dashboard\/details-assets\/5e08f433-86f6-49b4-8a17-c5e9b31d1363","coordinates":[-48.61,-7.14]},{"id":"af518a5f-1f4d-4b83-b00b-8fd3a5999d13","title":"TO - MOSQUITO","tipo":"Cebraspe","url":"\/dashboard\/details-assets\/af518a5f-1f4d-4b83-b00b-8fd3a5999d13","coordinates":[-47.54,-6.61]},{"id":"f85e04ab-eba8-4396-a34e-f7f6fac460c8","title":"TO - MONTE SANTO DO TOCANTINS","tipo":"Cebraspe","url":"\/dashboard\/details-assets\/f85e04ab-eba8-4396-a34e-f7f6fac460c8","coordinates":[-48.99,-10]},{"id":"1033be97-b4cd-4bfc-8af1-43ce968a5ab2","title":"TO - MONTE DO CARMO","tipo":"Cebraspe","url":"\/dashboard\/details-assets\/1033be97-b4cd-4bfc-8af1-43ce968a5ab2","coordinates":[-48.1,-10.76]},{"id":"5f35f5b2-17c5-4d7d-90f1-157a8a1309fd","title":"TO - MIRANORTE","tipo":"Cebraspe","url":"\/dashboard\/details-assets\/5f35f5b2-17c5-4d7d-90f1-157a8a1309fd","coordinates":[-48.59,-9.52]},{"id":"f8418f15-1c0f-4cfb-be02-fe12c7397d53","title":"TO - MAURILANDIA DO TOCANTINS","tipo":"Cebraspe","url":"\/dashboard\/details-assets\/f8418f15-1c0f-4cfb-be02-fe12c7397d53","coordinates":[-47.5,-5.95]},{"id":"03209e97-8237-4701-af84-99874fb80a31","title":"TO - MIRACEMA DO TOCANTINS","tipo":"Cebraspe","url":"\/dashboard\/details-assets\/03209e97-8237-4701-af84-99874fb80a31","coordinates":[-48.39,-9.56]},{"id":"e1e036b8-c1e6-4117-8bef-1242094ab13b","title":"TO - MATEIROS","tipo":"Cebraspe","url":"\/dashboard\/details-assets\/e1e036b8-c1e6-4117-8bef-1242094ab13b","coordinates":[-46.42,-10.54]},{"id":"023ba477-69b7-41b3-aba0-e89302f64f01","title":"TO - MARIANOPOLIS DO TOCANTINS","tipo":"Cebraspe","url":"\/dashboard\/details-assets\/023ba477-69b7-41b3-aba0-e89302f64f01","coordinates":[-49.65,-9.79]},{"id":"486f0735-5fce-41f6-9e60-7fdc1fcf6958","title":"TO - LUZINOPOLIS","tipo":"Cebraspe","url":"\/dashboard\/details-assets\/486f0735-5fce-41f6-9e60-7fdc1fcf6958","coordinates":[-47.85,-6.18]},{"id":"818fee08-2b52-411b-b2be-d5fe4a5d4f8d","title":"TO - LIZARDA","tipo":"Cebraspe","url":"\/dashboard\/details-assets\/818fee08-2b52-411b-b2be-d5fe4a5d4f8d","coordinates":[-46.67,-9.59]},{"id":"7c8524de-5880-4f38-916d-6693109ccac6","title":"TO - LAVANDEIRA","tipo":"Cebraspe","url":"\/dashboard\/details-assets\/7c8524de-5880-4f38-916d-6693109ccac6","coordinates":[-46.5,-12.78]},{"id":"c902a92b-4992-46d3-8856-f0fb8454ac62","title":"TO - LAJEADO","tipo":"Cebraspe","url":"\/dashboard\/details-assets\/c902a92b-4992-46d3-8856-f0fb8454ac62","coordinates":[-48.35,-9.75]},{"id":"a33f4a6a-5c3b-4ffe-bb2d-39c65cc08b7c","title":"TO - LAGOA DO TOCANTINS","tipo":"Cebraspe","url":"\/dashboard\/details-assets\/a33f4a6a-5c3b-4ffe-bb2d-39c65cc08b7c","coordinates":[-47.55,-10.37]},{"id":"707fd4b7-d2f1-4331-ae6e-6313ee5f00a8","title":"TO - LAGOA DA CONFUSAO","tipo":"Cebraspe","url":"\/dashboard\/details-assets\/707fd4b7-d2f1-4331-ae6e-6313ee5f00a8","coordinates":[-49.62,-10.79]},{"id":"c3d4a1d3-5493-4ac9-813a-928552d6d9f7","title":"TO - JUARINA","tipo":"Cebraspe","url":"\/dashboard\/details-assets\/c3d4a1d3-5493-4ac9-813a-928552d6d9f7","coordinates":[-49.06,-8.11]},{"id":"5d15c2cc-fd82-4eaa-959f-6068b5e1e5e5","title":"TO - JAU DO TOCANTINS","tipo":"Cebraspe","url":"\/dashboard\/details-assets\/5d15c2cc-fd82-4eaa-959f-6068b5e1e5e5","coordinates":[-48.59,-12.65]},{"id":"7491e373-0410-44d4-8392-1bd6f1404a7a","title":"TO - ITAPORA DO TOCANTINS","tipo":"Cebraspe","url":"\/dashboard\/details-assets\/7491e373-0410-44d4-8392-1bd6f1404a7a","coordinates":[-48.68,-8.57]},{"id":"3e868dfb-7daa-4fe0-a1da-c11cce30104d","title":"TO - ITAPIRATINS","tipo":"Cebraspe","url":"\/dashboard\/details-assets\/3e868dfb-7daa-4fe0-a1da-c11cce30104d","coordinates":[-48.11,-8.38]},{"id":"9a218606-be59-4756-92cb-6c14e505e3ad","title":"TO - ITAGUATINS","tipo":"Cebraspe","url":"\/dashboard\/details-assets\/9a218606-be59-4756-92cb-6c14e505e3ad","coordinates":[-47.48,-5.76]},{"id":"ae73fc68-05ca-4666-94d3-bc51d6033beb","title":"TO - ITACAJA","tipo":"Cebraspe","url":"\/dashboard\/details-assets\/ae73fc68-05ca-4666-94d3-bc51d6033beb","coordinates":[-47.76,-8.39]},{"id":"dcc88ba2-784c-4dbf-922a-51a74f4a1179","title":"TO - GURUPI","tipo":"Cebraspe","url":"\/dashboard\/details-assets\/dcc88ba2-784c-4dbf-922a-51a74f4a1179","coordinates":[-49.06,-11.72]},{"id":"7da9d2d7-f05c-48ad-a4da-6f2f284a21f8","title":"TO - IPUEIRAS","tipo":"Cebraspe","url":"\/dashboard\/details-assets\/7da9d2d7-f05c-48ad-a4da-6f2f284a21f8","coordinates":[-48.46,-11.23]},{"id":"93c09bb4-bb4e-49ce-b185-78104a8e2fab","title":"TO - GUARAI","tipo":"Cebraspe","url":"\/dashboard\/details-assets\/93c09bb4-bb4e-49ce-b185-78104a8e2fab","coordinates":[-48.51,-8.83]},{"id":"ceaff699-b913-4f46-a6e4-60b0aa895a68","title":"TO - GOIANORTE","tipo":"Cebraspe","url":"\/dashboard\/details-assets\/ceaff699-b913-4f46-a6e4-60b0aa895a68","coordinates":[-48.93,-8.77]},{"id":"2449490f-f0e8-480e-b07a-da4c9d514d94","title":"TO - GOIATINS","tipo":"Cebraspe","url":"\/dashboard\/details-assets\/2449490f-f0e8-480e-b07a-da4c9d514d94","coordinates":[-47.31,-7.71]},{"id":"fec7d5da-bca1-4598-a636-2156d9ebc748","title":"TO - FORTALEZA DO TABOCAO","tipo":"Cebraspe","url":"\/dashboard\/details-assets\/fec7d5da-bca1-4598-a636-2156d9ebc748","coordinates":[-48.51,-9.05]},{"id":"728476e8-be6b-4c28-ac6b-dabf8fadd89a","title":"TO - FILADELFIA","tipo":"Cebraspe","url":"\/dashboard\/details-assets\/728476e8-be6b-4c28-ac6b-dabf8fadd89a","coordinates":[-47.49,-7.33]},{"id":"b0a3874d-81b8-43e3-aadf-e0e3311d0013","title":"TO - FORMOSO DO ARAGUAIA","tipo":"Cebraspe","url":"\/dashboard\/details-assets\/b0a3874d-81b8-43e3-aadf-e0e3311d0013","coordinates":[-49.52,-11.79]},{"id":"a32e410e-2622-4d6b-827b-1bb729cf2f89","title":"TO - FIGUEIROPOLIS","tipo":"Cebraspe","url":"\/dashboard\/details-assets\/a32e410e-2622-4d6b-827b-1bb729cf2f89","coordinates":[-49.17,-12.13]},{"id":"f317d0e4-d1d4-48af-a531-b7135fce3217","title":"TO - ESPERANTINA","tipo":"Cebraspe","url":"\/dashboard\/details-assets\/f317d0e4-d1d4-48af-a531-b7135fce3217","coordinates":[-48.51,-5.34]},{"id":"a8d7e70c-e8d5-405d-b5aa-21fcf7629c74","title":"TO - FATIMA","tipo":"Cebraspe","url":"\/dashboard\/details-assets\/a8d7e70c-e8d5-405d-b5aa-21fcf7629c74","coordinates":[-48.9,-10.76]},{"id":"c6c5f7a2-a5f1-4199-a10e-b14db612ab9b","title":"TO - DUERE","tipo":"Cebraspe","url":"\/dashboard\/details-assets\/c6c5f7a2-a5f1-4199-a10e-b14db612ab9b","coordinates":[-49.27,-11.34]},{"id":"e09b2252-a0ee-4c7b-b515-e4be28108057","title":"TO - DOIS IRMAOS DO TOCANTINS","tipo":"Cebraspe","url":"\/dashboard\/details-assets\/e09b2252-a0ee-4c7b-b515-e4be28108057","coordinates":[-49.06,-9.25]},{"id":"9c7fe7e4-60e0-4d3f-a67b-9be2032bf84f","title":"TO - DIVINOPOLIS DO TOCANTINS","tipo":"Cebraspe","url":"\/dashboard\/details-assets\/9c7fe7e4-60e0-4d3f-a67b-9be2032bf84f","coordinates":[-49.21,-9.8]},{"id":"f2661022-164f-4008-b833-0607d8b55895","title":"TO - DIANOPOLIS","tipo":"Cebraspe","url":"\/dashboard\/details-assets\/f2661022-164f-4008-b833-0607d8b55895","coordinates":[-46.82,-11.62]},{"id":"777186fb-cd5a-486d-b482-93bfae10fd38","title":"TO - DARCINOPOLIS","tipo":"Cebraspe","url":"\/dashboard\/details-assets\/777186fb-cd5a-486d-b482-93bfae10fd38","coordinates":[-47.76,-6.71]},{"id":"9986d435-7431-4a16-a0ef-c292e12aee64","title":"TO - CRIXAS DO TOCANTINS","tipo":"Cebraspe","url":"\/dashboard\/details-assets\/9986d435-7431-4a16-a0ef-c292e12aee64","coordinates":[-48.91,-11.1]},{"id":"e34378ad-714d-4b3c-8cdb-ce3b4c335a83","title":"TO - CRISTALANDIA","tipo":"Cebraspe","url":"\/dashboard\/details-assets\/e34378ad-714d-4b3c-8cdb-ce3b4c335a83","coordinates":[-49.19,-10.6]},{"id":"486ad206-2f19-4753-a539-750fc8865721","title":"TO - COUTO DE MAGALHAES","tipo":"Cebraspe","url":"\/dashboard\/details-assets\/486ad206-2f19-4753-a539-750fc8865721","coordinates":[-49.24,-8.28]},{"id":"d3ec2b7e-c17d-4365-84b3-8730c60a5f7a","title":"TO - CONCEICAO DO TOCANTINS","tipo":"Cebraspe","url":"\/dashboard\/details-assets\/d3ec2b7e-c17d-4365-84b3-8730c60a5f7a","coordinates":[-47.29,-12.21]},{"id":"d46dd99d-0d53-4d46-8d7b-d06f726ea51f","title":"TO - COMBINADO","tipo":"Cebraspe","url":"\/dashboard\/details-assets\/d46dd99d-0d53-4d46-8d7b-d06f726ea51f","coordinates":[-46.53,-12.79]},{"id":"b675466d-cc06-4ac7-a7f1-4a501c41fe61","title":"TO - COLMEIA","tipo":"Cebraspe","url":"\/dashboard\/details-assets\/b675466d-cc06-4ac7-a7f1-4a501c41fe61","coordinates":[-48.76,-8.72]},{"id":"93a89b60-3c83-431c-b77d-4575b5353a6a","title":"TO - COLINAS DO TOCANTINS","tipo":"Cebraspe","url":"\/dashboard\/details-assets\/93a89b60-3c83-431c-b77d-4575b5353a6a","coordinates":[-48.47,-8.05]},{"id":"919cae25-8e07-4c2d-bf6a-b586dd12f8fb","title":"TO - CHAPADA DE AREIA","tipo":"Cebraspe","url":"\/dashboard\/details-assets\/919cae25-8e07-4c2d-bf6a-b586dd12f8fb","coordinates":[-49.14,-10.14]},{"id":"1eed53bc-f713-400e-ad61-c1c0801f04f8","title":"TO - CHAPADA DA NATIVIDADE","tipo":"Cebraspe","url":"\/dashboard\/details-assets\/1eed53bc-f713-400e-ad61-c1c0801f04f8","coordinates":[-47.75,-11.61]},{"id":"d8f8e917-5e93-4d11-86b5-9a5add068527","title":"TO - CENTENARIO","tipo":"Cebraspe","url":"\/dashboard\/details-assets\/d8f8e917-5e93-4d11-86b5-9a5add068527","coordinates":[-47.33,-8.95]},{"id":"7ed579d3-b8e7-42f1-a163-c191a288bbca","title":"TO - CARRASCO BONITO","tipo":"Cebraspe","url":"\/dashboard\/details-assets\/7ed579d3-b8e7-42f1-a163-c191a288bbca","coordinates":[-48.03,-5.32]},{"id":"ce6272a3-7a53-4a51-8406-57f91267cde4","title":"TO - CASEARA","tipo":"Cebraspe","url":"\/dashboard\/details-assets\/ce6272a3-7a53-4a51-8406-57f91267cde4","coordinates":[-49.95,-9.27]},{"id":"27462e68-dfa9-4632-8f12-f80a0d923ad9","title":"TO - CARMOLANDIA","tipo":"Cebraspe","url":"\/dashboard\/details-assets\/27462e68-dfa9-4632-8f12-f80a0d923ad9","coordinates":[-48.39,-7.03]},{"id":"5750b5ad-c81c-43cf-870b-24bd4c1c9410","title":"TO - CARIRI DO TOCANTINS","tipo":"Cebraspe","url":"\/dashboard\/details-assets\/5750b5ad-c81c-43cf-870b-24bd4c1c9410","coordinates":[-49.16,-11.89]},{"id":"2d620e3f-3e26-40db-9591-f5f2c9d42142","title":"TO - CAMPOS LINDOS","tipo":"Cebraspe","url":"\/dashboard\/details-assets\/2d620e3f-3e26-40db-9591-f5f2c9d42142","coordinates":[-46.86,-7.99]},{"id":"32e1616d-f341-48db-a56a-948a70f111ca","title":"TO - CACHOEIRINHA","tipo":"Cebraspe","url":"\/dashboard\/details-assets\/32e1616d-f341-48db-a56a-948a70f111ca","coordinates":[-47.92,-6.12]},{"id":"aa8f36c3-86bf-41f1-bc01-c155e6a487b9","title":"TO - BURITI DO TOCANTINS","tipo":"Cebraspe","url":"\/dashboard\/details-assets\/aa8f36c3-86bf-41f1-bc01-c155e6a487b9","coordinates":[-48.22,-5.31]},{"id":"1bbfc706-310d-4e9d-8d74-7267e111b316","title":"TO - BREJINHO DE NAZARE","tipo":"Cebraspe","url":"\/dashboard\/details-assets\/1bbfc706-310d-4e9d-8d74-7267e111b316","coordinates":[-48.56,-11]},{"id":"324fb9c8-d444-40cd-92c7-e5ca8d59281c","title":"TO - BRASILANDIA DO TOCANTINS","tipo":"Cebraspe","url":"\/dashboard\/details-assets\/324fb9c8-d444-40cd-92c7-e5ca8d59281c","coordinates":[-48.48,-8.38]},{"id":"1217fa8c-14bc-40c0-8239-5e50e3d4eb7c","title":"TO - BOM JESUS DO TOCANTINS","tipo":"Cebraspe","url":"\/dashboard\/details-assets\/1217fa8c-14bc-40c0-8239-5e50e3d4eb7c","coordinates":[-48.16,-8.96]},{"id":"598e8979-84e3-45a1-9dd3-5d6fb412e5e7","title":"TO - BERNARDO SAYAO","tipo":"Cebraspe","url":"\/dashboard\/details-assets\/598e8979-84e3-45a1-9dd3-5d6fb412e5e7","coordinates":[-48.88,-7.87]},{"id":"78d1858e-4dc5-4ebb-b7d1-87c7c1293ea9","title":"TO - BARROLANDIA","tipo":"Cebraspe","url":"\/dashboard\/details-assets\/78d1858e-4dc5-4ebb-b7d1-87c7c1293ea9","coordinates":[-48.72,-9.83]},{"id":"2e8460c0-a717-4423-a1ef-0d541f676e92","title":"TO - BARRA DO OURO","tipo":"Cebraspe","url":"\/dashboard\/details-assets\/2e8460c0-a717-4423-a1ef-0d541f676e92","coordinates":[-47.68,-7.68]},{"id":"65c7a56c-5ce9-423c-b662-66ba2f5a4c13","title":"TO - BANDEIRANTES DO TOCANTINS","tipo":"Cebraspe","url":"\/dashboard\/details-assets\/65c7a56c-5ce9-423c-b662-66ba2f5a4c13","coordinates":[-48.58,-7.75]},{"id":"957b732a-8b3a-4852-ba1b-61c26eedb2ee","title":"TO - BABACULANDIA","tipo":"Cebraspe","url":"\/dashboard\/details-assets\/957b732a-8b3a-4852-ba1b-61c26eedb2ee","coordinates":[-47.75,-7.2]},{"id":"521a63f0-9c96-4ea5-9bff-3987cf4f0cb4","title":"TO - AXIXA DO TOCANTINS","tipo":"Cebraspe","url":"\/dashboard\/details-assets\/521a63f0-9c96-4ea5-9bff-3987cf4f0cb4","coordinates":[-47.76,-5.61]},{"id":"70f3a8e0-d587-4b90-be8c-572afd2812e5","title":"TO - AURORA DO TOCANTINS","tipo":"Cebraspe","url":"\/dashboard\/details-assets\/70f3a8e0-d587-4b90-be8c-572afd2812e5","coordinates":[-46.4,-12.71]},{"id":"70f3a8e0-d587-4b90-be8c-572afd2812e5","title":"TO - AURORA DO TOCANTINS","tipo":"Cebraspe","url":"\/dashboard\/details-assets\/70f3a8e0-d587-4b90-be8c-572afd2812e5","coordinates":[-46.4,-12.71]},{"id":"ca0facf9-6a9f-45bd-9245-990dd39b6d25","title":"TO - ARAPOEMA","tipo":"Cebraspe","url":"\/dashboard\/details-assets\/ca0facf9-6a9f-45bd-9245-990dd39b6d25","coordinates":[-49.06,-7.65]},{"id":"0f6572cd-1ba4-4703-9bc9-6fb24c7c019a","title":"TO - ARRAIAS","tipo":"Cebraspe","url":"\/dashboard\/details-assets\/0f6572cd-1ba4-4703-9bc9-6fb24c7c019a","coordinates":[-46.93,-12.93]},{"id":"03b18afd-53e3-43af-b0e8-9068f49d09c6","title":"TO - ARAGUATINS","tipo":"Cebraspe","url":"\/dashboard\/details-assets\/03b18afd-53e3-43af-b0e8-9068f49d09c6","coordinates":[-48.12,-5.65]},{"id":"9c2304f1-d308-49b1-a960-667df4c105de","title":"TO - ARAGUANA","tipo":"Cebraspe","url":"\/dashboard\/details-assets\/9c2304f1-d308-49b1-a960-667df4c105de","coordinates":[-48.64,-6.58]},{"id":"ee6840d8-2aba-42e4-ac25-5465cbe509da","title":"TO - ARAGUAINA","tipo":"Cebraspe","url":"\/dashboard\/details-assets\/ee6840d8-2aba-42e4-ac25-5465cbe509da","coordinates":[-48.2,-7.19]},{"id":"9931d82a-4194-45d3-84f8-a139096bf6d2","title":"TO - ARAGUACU","tipo":"Cebraspe","url":"\/dashboard\/details-assets\/9931d82a-4194-45d3-84f8-a139096bf6d2","coordinates":[-49.82,-12.93]},{"id":"6731015c-d232-4805-9640-4e71ea6d35bd","title":"TO - ARAGUACEMA","tipo":"Cebraspe","url":"\/dashboard\/details-assets\/6731015c-d232-4805-9640-4e71ea6d35bd","coordinates":[-49.55,-8.8]},{"id":"49f52cfa-280d-44ff-8ebc-633036ec54cd","title":"TO - APARECIDA DO RIO NEGRO","tipo":"Cebraspe","url":"\/dashboard\/details-assets\/49f52cfa-280d-44ff-8ebc-633036ec54cd","coordinates":[-47.97,-9.95]},{"id":"4509261e-dcd7-4954-a1f1-fb2df01e65ca","title":"TO - ARAGOMINAS","tipo":"Cebraspe","url":"\/dashboard\/details-assets\/4509261e-dcd7-4954-a1f1-fb2df01e65ca","coordinates":[-48.52,-7.16]},{"id":"b6507c3b-8c81-41ae-bfc6-509ad9433e71","title":"TO - ANGICO","tipo":"Cebraspe","url":"\/dashboard\/details-assets\/b6507c3b-8c81-41ae-bfc6-509ad9433e71","coordinates":[-47.86,-6.39]},{"id":"06ac438f-6c90-4012-8d53-b0db78a18cf3","title":"TO - ANANAS","tipo":"Cebraspe","url":"\/dashboard\/details-assets\/06ac438f-6c90-4012-8d53-b0db78a18cf3","coordinates":[-48.07,-6.36]},{"id":"078e06d8-d2ef-4a16-99fd-b0b90daf68d8","title":"TO - ALVORADA","tipo":"Cebraspe","url":"\/dashboard\/details-assets\/078e06d8-d2ef-4a16-99fd-b0b90daf68d8","coordinates":[-49.12,-12.48]},{"id":"a0dcf82e-8366-498b-8269-56a258162541","title":"TO - ALMAS","tipo":"Cebraspe","url":"\/dashboard\/details-assets\/a0dcf82e-8366-498b-8269-56a258162541","coordinates":[-47.17,-11.57]},{"id":"50d59552-b198-45b1-b76c-7a90e0065410","title":"TO - ALIANCA DO TOCANTINS","tipo":"Cebraspe","url":"\/dashboard\/details-assets\/50d59552-b198-45b1-b76c-7a90e0065410","coordinates":[-48.93,-11.3]},{"id":"a3ee9e9e-393d-43ba-a873-f97b0f31c770","title":"TO - AGUIARNOPOLIS","tipo":"Cebraspe","url":"\/dashboard\/details-assets\/a3ee9e9e-393d-43ba-a873-f97b0f31c770","coordinates":[-47.46,-6.56]},{"id":"ddc9b787-05e9-45f0-a3b9-25b200261fe2","title":"TO - ABREULANDIA","tipo":"Cebraspe","url":"\/dashboard\/details-assets\/ddc9b787-05e9-45f0-a3b9-25b200261fe2","coordinates":[-49.15,-9.62]},{"id":"16b6454e-0fa0-4b1a-97fb-e37497b4c472","title":"SP - ZACARIAS","tipo":"Cebraspe","url":"\/dashboard\/details-assets\/16b6454e-0fa0-4b1a-97fb-e37497b4c472","coordinates":[-50.05,-21.05]},{"id":"c2451180-ddef-4351-9a15-3ea3ad055fb9","title":"SP - VOTUPORANGA","tipo":"Cebraspe","url":"\/dashboard\/details-assets\/c2451180-ddef-4351-9a15-3ea3ad055fb9","coordinates":[-49.97,-20.42]},{"id":"80ffe5c6-1ff9-4a31-91c3-0dbe43da0bf8","title":"SP - VITORIA BRASIL","tipo":"Cebraspe","url":"\/dashboard\/details-assets\/80ffe5c6-1ff9-4a31-91c3-0dbe43da0bf8","coordinates":[-50.48,-20.19]},{"id":"b0b82bcf-084d-4187-a6d6-7f0d5de80d61","title":"SP - VOTORANTIM","tipo":"Cebraspe","url":"\/dashboard\/details-assets\/b0b82bcf-084d-4187-a6d6-7f0d5de80d61","coordinates":[-47.43,-23.54]},{"id":"3924ff81-0ae7-4af8-bdc7-b1bc104e4242","title":"SP - VISTA ALEGRE DO ALTO","tipo":"Cebraspe","url":"\/dashboard\/details-assets\/3924ff81-0ae7-4af8-bdc7-b1bc104e4242","coordinates":[-48.62,-21.17]},{"id":"0866b87a-b197-420e-93e3-4f632889dcb2","title":"SP - VIRADOURO","tipo":"Cebraspe","url":"\/dashboard\/details-assets\/0866b87a-b197-420e-93e3-4f632889dcb2","coordinates":[-48.29,-20.87]},{"id":"b9d574ab-8df1-4caf-a680-4da1f464002a","title":"SP - VINHEDO","tipo":"Cebraspe","url":"\/dashboard\/details-assets\/b9d574ab-8df1-4caf-a680-4da1f464002a","coordinates":[-46.97,-23.03]},{"id":"b5d8103e-b27f-4681-b5f8-b2de7cc6c5bd","title":"SP - VERA CRUZ","tipo":"Cebraspe","url":"\/dashboard\/details-assets\/b5d8103e-b27f-4681-b5f8-b2de7cc6c5bd","coordinates":[-49.81,-22.22]},{"id":"0d610a13-8702-4521-bc49-83f322b64fcc","title":"SP - VARZEA PAULISTA","tipo":"Cebraspe","url":"\/dashboard\/details-assets\/0d610a13-8702-4521-bc49-83f322b64fcc","coordinates":[-46.82,-23.21]},{"id":"c4a6f6e9-ad2f-49fb-afc6-cd9bff28304b","title":"SP - VARGEM GRANDE PAULISTA","tipo":"Cebraspe","url":"\/dashboard\/details-assets\/c4a6f6e9-ad2f-49fb-afc6-cd9bff28304b","coordinates":[-47.02,-23.6]},{"id":"ce942006-159f-4e7d-aa36-4e3e3b854d36","title":"SP - VARGEM GRANDE DO SUL","tipo":"Cebraspe","url":"\/dashboard\/details-assets\/ce942006-159f-4e7d-aa36-4e3e3b854d36","coordinates":[-46.89,-21.83]},{"id":"d39229fb-68ce-44e7-bdd6-0c463ee5ddcf","title":"SP - VARGEM","tipo":"Cebraspe","url":"\/dashboard\/details-assets\/d39229fb-68ce-44e7-bdd6-0c463ee5ddcf","coordinates":[-46.41,-22.88]},{"id":"7e4ff68c-c745-4bcb-baec-73823f245f6b","title":"SP - VALPARAISO","tipo":"Cebraspe","url":"\/dashboard\/details-assets\/7e4ff68c-c745-4bcb-baec-73823f245f6b","coordinates":[-50.86,-21.22]},{"id":"41aa4c79-6e09-4742-83b3-bfd9bfdaa97e","title":"SP - VALENTIM GENTIL","tipo":"Cebraspe","url":"\/dashboard\/details-assets\/41aa4c79-6e09-4742-83b3-bfd9bfdaa97e","coordinates":[-50.08,-20.42]},{"id":"599ae88c-15cf-461e-9fe4-91810c6a7ceb","title":"SP - VALINHOS","tipo":"Cebraspe","url":"\/dashboard\/details-assets\/599ae88c-15cf-461e-9fe4-91810c6a7ceb","coordinates":[-46.99,-22.97]},{"id":"fccda99f-6907-451b-a910-5ef757faa58e","title":"SP - URUPES","tipo":"Cebraspe","url":"\/dashboard\/details-assets\/fccda99f-6907-451b-a910-5ef757faa58e","coordinates":[-49.29,-21.2]},{"id":"355171e5-3341-44a6-aedd-541174e6e9ff","title":"SP - URU","tipo":"Cebraspe","url":"\/dashboard\/details-assets\/355171e5-3341-44a6-aedd-541174e6e9ff","coordinates":[-49.28,-21.78]},{"id":"56b80053-0fb1-4976-8d7e-f18a2f825743","title":"SP - URANIA","tipo":"Cebraspe","url":"\/dashboard\/details-assets\/56b80053-0fb1-4976-8d7e-f18a2f825743","coordinates":[-50.64,-20.24]},{"id":"d3a3cc50-400d-406a-b0f9-8694c440557c","title":"SP - UNIAO PAULISTA","tipo":"Cebraspe","url":"\/dashboard\/details-assets\/d3a3cc50-400d-406a-b0f9-8694c440557c","coordinates":[-49.89,-20.88]},{"id":"7b118dff-b492-4fdc-803a-1127bf7eab93","title":"SP - UCHOA","tipo":"Cebraspe","url":"\/dashboard\/details-assets\/7b118dff-b492-4fdc-803a-1127bf7eab93","coordinates":[-49.17,-20.95]},{"id":"43e07d39-44b6-465b-bc4c-fc4a46d12e36","title":"SP - UBATUBA","tipo":"Cebraspe","url":"\/dashboard\/details-assets\/43e07d39-44b6-465b-bc4c-fc4a46d12e36","coordinates":[-45.07,-23.43]},{"id":"376aa0df-f2a4-42d7-82f6-77c4457cc3b8","title":"SP - UBIRAJARA","tipo":"Cebraspe","url":"\/dashboard\/details-assets\/376aa0df-f2a4-42d7-82f6-77c4457cc3b8","coordinates":[-49.66,-22.52]},{"id":"037a7e3a-8106-4ffe-985a-045e904fee9b","title":"SP - UBARANA","tipo":"Cebraspe","url":"\/dashboard\/details-assets\/037a7e3a-8106-4ffe-985a-045e904fee9b","coordinates":[-49.71,-21.16]},{"id":"10be37e5-d7ed-4ea2-93ea-1a8303ab3d15","title":"SP - TURMALINA","tipo":"Cebraspe","url":"\/dashboard\/details-assets\/10be37e5-d7ed-4ea2-93ea-1a8303ab3d15","coordinates":[-50.47,-20.05]},{"id":"1451a0ac-c612-4dc5-8c4c-f8d739111c3b","title":"SP - TURIUBA","tipo":"Cebraspe","url":"\/dashboard\/details-assets\/1451a0ac-c612-4dc5-8c4c-f8d739111c3b","coordinates":[-50.1,-20.93]},{"id":"3af41372-19b6-480d-9c69-9bea24105742","title":"SP - TUPI PAULISTA","tipo":"Cebraspe","url":"\/dashboard\/details-assets\/3af41372-19b6-480d-9c69-9bea24105742","coordinates":[-51.57,-21.38]},{"id":"079c7eec-c48a-426b-87dc-f8efb8e714ef","title":"SP - TUPA","tipo":"Cebraspe","url":"\/dashboard\/details-assets\/079c7eec-c48a-426b-87dc-f8efb8e714ef","coordinates":[-50.51,-21.93]},{"id":"fe907252-c722-4300-95ed-b01714da1231","title":"SP - TUIUTI","tipo":"Cebraspe","url":"\/dashboard\/details-assets\/fe907252-c722-4300-95ed-b01714da1231","coordinates":[-46.69,-22.81]},{"id":"a0255a89-f633-458a-8593-29a57fb3bca3","title":"SP - TRES FRONTEIRAS","tipo":"Cebraspe","url":"\/dashboard\/details-assets\/a0255a89-f633-458a-8593-29a57fb3bca3","coordinates":[-50.89,-20.23]},{"id":"15f40083-a2bb-4c8c-87a0-e3311a517d52","title":"SP - TREMEMBE","tipo":"Cebraspe","url":"\/dashboard\/details-assets\/15f40083-a2bb-4c8c-87a0-e3311a517d52","coordinates":[-45.54,-22.95]},{"id":"c9fe3678-20c8-479b-9884-27b7186b3fd9","title":"SP - TRABIJU","tipo":"Cebraspe","url":"\/dashboard\/details-assets\/c9fe3678-20c8-479b-9884-27b7186b3fd9","coordinates":[-48.33,-22.04]},{"id":"19068045-a0ad-4cae-8f95-9f3dfec3f182","title":"SP - TORRINHA","tipo":"Cebraspe","url":"\/dashboard\/details-assets\/19068045-a0ad-4cae-8f95-9f3dfec3f182","coordinates":[-48.16,-22.42]},{"id":"183dcca8-5f88-4973-8500-c4aff26a0fa3","title":"SP - TORRE DE PEDRA","tipo":"Cebraspe","url":"\/dashboard\/details-assets\/183dcca8-5f88-4973-8500-c4aff26a0fa3","coordinates":[-48.19,-23.24]},{"id":"394cc12a-8bae-4884-bd6f-607c43bdd83d","title":"SP - TIMBURI","tipo":"Cebraspe","url":"\/dashboard\/details-assets\/394cc12a-8bae-4884-bd6f-607c43bdd83d","coordinates":[-49.6,-23.2]},{"id":"e9ebc452-6c99-4ef8-928f-9b22c571a179","title":"SP - TIETE","tipo":"Cebraspe","url":"\/dashboard\/details-assets\/e9ebc452-6c99-4ef8-928f-9b22c571a179","coordinates":[-47.71,-23.1]},{"id":"fc02c88b-0b0a-4d5f-8676-a3b344769fcb","title":"SP - TERRA ROXA","tipo":"Cebraspe","url":"\/dashboard\/details-assets\/fc02c88b-0b0a-4d5f-8676-a3b344769fcb","coordinates":[-48.33,-20.78]},{"id":"d9576d98-7e23-4d91-8528-4a8bf1cfadb1","title":"SP - TEODORO SAMPAIO","tipo":"Cebraspe","url":"\/dashboard\/details-assets\/d9576d98-7e23-4d91-8528-4a8bf1cfadb1","coordinates":[-52.16,-22.53]},{"id":"96d69a9f-a5e6-46f6-8286-eab65558b10b","title":"SP - TEJUPA","tipo":"Cebraspe","url":"\/dashboard\/details-assets\/96d69a9f-a5e6-46f6-8286-eab65558b10b","coordinates":[-49.37,-23.34]},{"id":"e658d286-3b3b-4230-80ff-12d2eabd59e5","title":"SP - TATUI","tipo":"Cebraspe","url":"\/dashboard\/details-assets\/e658d286-3b3b-4230-80ff-12d2eabd59e5","coordinates":[-47.85,-23.35]},{"id":"b6093613-8227-40ad-82ab-6d037912c808","title":"SP - TAUBATE","tipo":"Cebraspe","url":"\/dashboard\/details-assets\/b6093613-8227-40ad-82ab-6d037912c808","coordinates":[-45.55,-23.02]},{"id":"fefa8b18-b8b7-4e09-81b0-3806594a1a09","title":"SP - TARUMA","tipo":"Cebraspe","url":"\/dashboard\/details-assets\/fefa8b18-b8b7-4e09-81b0-3806594a1a09","coordinates":[-50.57,-22.74]},{"id":"8aed1704-c289-455b-92e9-6a1f24546ab5","title":"SP - TAQUARIVAI","tipo":"Cebraspe","url":"\/dashboard\/details-assets\/8aed1704-c289-455b-92e9-6a1f24546ab5","coordinates":[-48.69,-23.92]},{"id":"30d8b778-6d37-4502-8eef-78607ff97ef1","title":"SP - TARABAI","tipo":"Cebraspe","url":"\/dashboard\/details-assets\/30d8b778-6d37-4502-8eef-78607ff97ef1","coordinates":[-51.55,-22.3]},{"id":"14e931c2-b321-4159-baa6-bd76d376d7ac","title":"SP - TAQUARITUBA","tipo":"Cebraspe","url":"\/dashboard\/details-assets\/14e931c2-b321-4159-baa6-bd76d376d7ac","coordinates":[-49.24,-23.53]},{"id":"791c2754-c527-413a-9077-253355cbde6e","title":"SP - TAQUARITINGA","tipo":"Cebraspe","url":"\/dashboard\/details-assets\/791c2754-c527-413a-9077-253355cbde6e","coordinates":[-48.5,-21.4]},{"id":"b2a7f3f4-8582-414c-8d49-93db37ec1625","title":"SP - TAQUARAL","tipo":"Cebraspe","url":"\/dashboard\/details-assets\/b2a7f3f4-8582-414c-8d49-93db37ec1625","coordinates":[-48.41,-21.07]},{"id":"8bf2edd2-a643-4d81-99f3-561005d1eb19","title":"SP - TAPIRATIBA","tipo":"Cebraspe","url":"\/dashboard\/details-assets\/8bf2edd2-a643-4d81-99f3-561005d1eb19","coordinates":[-46.74,-21.46]},{"id":"c496fb47-9b8f-4c80-b53b-41aef24be097","title":"SP - TAPIRAI","tipo":"Cebraspe","url":"\/dashboard\/details-assets\/c496fb47-9b8f-4c80-b53b-41aef24be097","coordinates":[-47.5,-23.96]},{"id":"d9e41673-2a8e-4970-b285-2aa985e862fb","title":"SP - TANABI","tipo":"Cebraspe","url":"\/dashboard\/details-assets\/d9e41673-2a8e-4970-b285-2aa985e862fb","coordinates":[-49.64,-20.62]},{"id":"809e8469-cb16-4066-8771-991f322ff05a","title":"SP - TAMBAU","tipo":"Cebraspe","url":"\/dashboard\/details-assets\/809e8469-cb16-4066-8771-991f322ff05a","coordinates":[-47.27,-21.7]},{"id":"edd2c87b-6be1-4af8-a1b8-7a09d77bfd99","title":"SP - TAIUVA","tipo":"Cebraspe","url":"\/dashboard\/details-assets\/edd2c87b-6be1-4af8-a1b8-7a09d77bfd99","coordinates":[-48.45,-21.12]},{"id":"b20e44f8-8c73-41fb-bb9a-32b83faeccac","title":"SP - TAIACU","tipo":"Cebraspe","url":"\/dashboard\/details-assets\/b20e44f8-8c73-41fb-bb9a-32b83faeccac","coordinates":[-48.51,-21.14]},{"id":"826653f1-65e3-4d55-bdbb-10993cb517be","title":"SP - TACIBA","tipo":"Cebraspe","url":"\/dashboard\/details-assets\/826653f1-65e3-4d55-bdbb-10993cb517be","coordinates":[-51.28,-22.39]},{"id":"e976fee5-c64c-4abd-bb8c-56776c811739","title":"SP - TAGUAI","tipo":"Cebraspe","url":"\/dashboard\/details-assets\/e976fee5-c64c-4abd-bb8c-56776c811739","coordinates":[-49.4,-23.45]},{"id":"6e493129-743d-432b-9fe3-35c7c403dda1","title":"SP - TABOAO DA SERRA","tipo":"Cebraspe","url":"\/dashboard\/details-assets\/6e493129-743d-432b-9fe3-35c7c403dda1","coordinates":[-46.75,-23.6]},{"id":"297dee07-3f31-495b-b6ca-d36ac54ad370","title":"SP - TABAPUA","tipo":"Cebraspe","url":"\/dashboard\/details-assets\/297dee07-3f31-495b-b6ca-d36ac54ad370","coordinates":[-49.03,-20.96]},{"id":"f4862eab-83fe-48f3-95d8-ade4f1bbf0bb","title":"SP - TABATINGA","tipo":"Cebraspe","url":"\/dashboard\/details-assets\/f4862eab-83fe-48f3-95d8-ade4f1bbf0bb","coordinates":[-48.68,-21.71]},{"id":"a581c0c3-ad8e-48c2-a614-7898d39d54d5","title":"SP - SUZANAPOLIS","tipo":"Cebraspe","url":"\/dashboard\/details-assets\/a581c0c3-ad8e-48c2-a614-7898d39d54d5","coordinates":[-51.02,-20.5]},{"id":"04d2cd17-8a69-4b2e-9b6b-90e18140605b","title":"SP - SUZANO","tipo":"Cebraspe","url":"\/dashboard\/details-assets\/04d2cd17-8a69-4b2e-9b6b-90e18140605b","coordinates":[-46.31,-23.54]},{"id":"76be0848-2641-48c5-8671-fdf053f8cfbd","title":"SP - SUMARE","tipo":"Cebraspe","url":"\/dashboard\/details-assets\/76be0848-2641-48c5-8671-fdf053f8cfbd","coordinates":[-47.26,-22.82]},{"id":"d2fb2993-7b97-47b6-84f6-2a3cbc00280d","title":"SP - SOROCABA","tipo":"Cebraspe","url":"\/dashboard\/details-assets\/d2fb2993-7b97-47b6-84f6-2a3cbc00280d","coordinates":[-47.45,-23.5]},{"id":"3239e54f-9458-44aa-b989-f10b161c326e","title":"SP - SUD MENUCCI","tipo":"Cebraspe","url":"\/dashboard\/details-assets\/3239e54f-9458-44aa-b989-f10b161c326e","coordinates":[-50.92,-20.69]},{"id":"fed71fef-cf33-445b-8dc2-efe14a46c764","title":"SP - SOCORRO","tipo":"Cebraspe","url":"\/dashboard\/details-assets\/fed71fef-cf33-445b-8dc2-efe14a46c764","coordinates":[-46.52,-22.59]},{"id":"7422d65e-f3e6-48be-93bc-9ec369f6b2d6","title":"SP - SILVEIRAS","tipo":"Cebraspe","url":"\/dashboard\/details-assets\/7422d65e-f3e6-48be-93bc-9ec369f6b2d6","coordinates":[-44.85,-22.66]},{"id":"726e37c8-ae2a-478c-bfe3-7ada0471ca12","title":"SP - SEVERINIA","tipo":"Cebraspe","url":"\/dashboard\/details-assets\/726e37c8-ae2a-478c-bfe3-7ada0471ca12","coordinates":[-48.8,-20.8]},{"id":"484d68da-913b-4d12-a9fc-4ab65d92bc2c","title":"SP - SETE BARRAS","tipo":"Cebraspe","url":"\/dashboard\/details-assets\/484d68da-913b-4d12-a9fc-4ab65d92bc2c","coordinates":[-47.92,-24.38]},{"id":"e81933b2-d5ff-4134-8761-7c8c8d964fdc","title":"SP - SERTAOZINHO","tipo":"Cebraspe","url":"\/dashboard\/details-assets\/e81933b2-d5ff-4134-8761-7c8c8d964fdc","coordinates":[-47.99,-21.13]},{"id":"6799e7b4-3f51-413e-8f86-57885d7d6d59","title":"SP - SERRANA","tipo":"Cebraspe","url":"\/dashboard\/details-assets\/6799e7b4-3f51-413e-8f86-57885d7d6d59","coordinates":[-47.59,-21.21]},{"id":"4fea6280-ff28-40e1-8ecd-ffa22bf546be","title":"SP - SERRA NEGRA","tipo":"Cebraspe","url":"\/dashboard\/details-assets\/4fea6280-ff28-40e1-8ecd-ffa22bf546be","coordinates":[-46.7,-22.61]},{"id":"a11af8e9-6fbc-4485-ba3a-608567294ddc","title":"SP - SERRA AZUL","tipo":"Cebraspe","url":"\/dashboard\/details-assets\/a11af8e9-6fbc-4485-ba3a-608567294ddc","coordinates":[-47.56,-21.31]},{"id":"dbe3f02c-1c0e-4abc-85e5-c0db14f7016c","title":"SP - SEBASTIANOPOLIS DO SUL","tipo":"Cebraspe","url":"\/dashboard\/details-assets\/dbe3f02c-1c0e-4abc-85e5-c0db14f7016c","coordinates":[-49.92,-20.65]},{"id":"bc00e5a3-2263-486b-b7f0-4f1c12b7c55f","title":"SP - SARUTAIA","tipo":"Cebraspe","url":"\/dashboard\/details-assets\/bc00e5a3-2263-486b-b7f0-4f1c12b7c55f","coordinates":[-49.48,-23.27]},{"id":"485e78ac-64b8-4fc6-8fff-cf347b69e4ee","title":"SP - SAO VICENTE","tipo":"Cebraspe","url":"\/dashboard\/details-assets\/485e78ac-64b8-4fc6-8fff-cf347b69e4ee","coordinates":[-46.39,-23.96]},{"id":"563bc958-f391-4e5c-bafe-c596935fe898","title":"SP - SARAPUI","tipo":"Cebraspe","url":"\/dashboard\/details-assets\/563bc958-f391-4e5c-bafe-c596935fe898","coordinates":[-47.82,-23.64]},{"id":"85878864-7d4e-48cf-9582-a051baccc538","title":"SP - SAO SIMAO","tipo":"Cebraspe","url":"\/dashboard\/details-assets\/85878864-7d4e-48cf-9582-a051baccc538","coordinates":[-47.55,-21.47]},{"id":"b4b1ae3b-09bd-4b6f-b90b-70688d70b6e1","title":"SP - SAO SEBASTIAO DA GRAMA","tipo":"Cebraspe","url":"\/dashboard\/details-assets\/b4b1ae3b-09bd-4b6f-b90b-70688d70b6e1","coordinates":[-46.82,-21.71]},{"id":"f2ee1443-75fc-4254-b517-4bbf0784cb69","title":"SP - SAO SEBASTIAO","tipo":"Cebraspe","url":"\/dashboard\/details-assets\/f2ee1443-75fc-4254-b517-4bbf0784cb69","coordinates":[-45.41,-23.76]},{"id":"eb04c0c3-d544-467c-a387-ead1575c6174","title":"SP - SAO ROQUE","tipo":"Cebraspe","url":"\/dashboard\/details-assets\/eb04c0c3-d544-467c-a387-ead1575c6174","coordinates":[-47.13,-23.52]},{"id":"aea7b465-6db6-4699-ae69-273c4d430599","title":"SP - SAO PEDRO","tipo":"Cebraspe","url":"\/dashboard\/details-assets\/aea7b465-6db6-4699-ae69-273c4d430599","coordinates":[-47.91,-22.54]},{"id":"3241906f-effc-403f-a9d6-d98463927802","title":"SP - SAO PEDRO DO TURVO","tipo":"Cebraspe","url":"\/dashboard\/details-assets\/3241906f-effc-403f-a9d6-d98463927802","coordinates":[-49.74,-22.74]},{"id":"54737760-7b2e-41a1-a84a-d00ff833d48c","title":"SP - SAO PAULO","tipo":"Cebraspe","url":"\/dashboard\/details-assets\/54737760-7b2e-41a1-a84a-d00ff833d48c","coordinates":[-46.63,-23.54]},{"id":"9bd81d76-b6a7-4d58-b4c8-cfa97876b932","title":"SP - SAO MIGUEL ARCANJO","tipo":"Cebraspe","url":"\/dashboard\/details-assets\/9bd81d76-b6a7-4d58-b4c8-cfa97876b932","coordinates":[-47.99,-23.87]},{"id":"d10f53ca-95aa-460c-a905-9434c8df2812","title":"SP - SAO MANUEL","tipo":"Cebraspe","url":"\/dashboard\/details-assets\/d10f53ca-95aa-460c-a905-9434c8df2812","coordinates":[-48.57,-22.73]},{"id":"a9a75637-cc35-48b1-bf77-8249876ae635","title":"SP - SAO LUIS DO PARAITINGA","tipo":"Cebraspe","url":"\/dashboard\/details-assets\/a9a75637-cc35-48b1-bf77-8249876ae635","coordinates":[-45.31,-23.22]},{"id":"79591dec-e102-4c5e-9559-7665f1fde6f2","title":"SP - SAO LOURENCO DA SERRA","tipo":"Cebraspe","url":"\/dashboard\/details-assets\/79591dec-e102-4c5e-9559-7665f1fde6f2","coordinates":[-46.94,-23.85]},{"id":"a021f7f7-1050-4e9d-b106-47cb4fb70c20","title":"SP - SAO JOSE DOS CAMPOS","tipo":"Cebraspe","url":"\/dashboard\/details-assets\/a021f7f7-1050-4e9d-b106-47cb4fb70c20","coordinates":[-45.88,-23.17]},{"id":"5914cf7d-a8b4-440b-88bf-6b230cd5e5cc","title":"SP - SAO JOSE DO RIO PARDO","tipo":"Cebraspe","url":"\/dashboard\/details-assets\/5914cf7d-a8b4-440b-88bf-6b230cd5e5cc","coordinates":[-46.88,-21.59]},{"id":"41ac8939-9bee-4919-8508-cce9cbd6f05b","title":"SP - SAO JOSE DO RIO PRETO","tipo":"Cebraspe","url":"\/dashboard\/details-assets\/41ac8939-9bee-4919-8508-cce9cbd6f05b","coordinates":[-49.37,-20.82]},{"id":"f316a5e6-2418-4e3c-9abd-2129882fca3a","title":"SP - SAO JOSE DO BARREIRO","tipo":"Cebraspe","url":"\/dashboard\/details-assets\/f316a5e6-2418-4e3c-9abd-2129882fca3a","coordinates":[-44.57,-22.64]},{"id":"b22f9766-1f08-40f7-9f6e-f1dd7cca181e","title":"SP - SAO JOSE DA BELA VISTA","tipo":"Cebraspe","url":"\/dashboard\/details-assets\/b22f9766-1f08-40f7-9f6e-f1dd7cca181e","coordinates":[-47.64,-20.59]},{"id":"f1fab636-2f6b-434e-baa4-7c670c37df34","title":"SP - SAO JOAO DO PAU D'ALHO","tipo":"Cebraspe","url":"\/dashboard\/details-assets\/f1fab636-2f6b-434e-baa4-7c670c37df34","coordinates":[-51.66,-21.26]},{"id":"ab7781cc-7ca3-4606-94fd-7b42ef3a184c","title":"SP - SAO JOAQUIM DA BARRA","tipo":"Cebraspe","url":"\/dashboard\/details-assets\/ab7781cc-7ca3-4606-94fd-7b42ef3a184c","coordinates":[-47.85,-20.58]},{"id":"fb731ec4-1bfd-48d5-b29c-0f5e54901d0a","title":"SP - SAO JOAO DE IRACEMA","tipo":"Cebraspe","url":"\/dashboard\/details-assets\/fb731ec4-1bfd-48d5-b29c-0f5e54901d0a","coordinates":[-50.35,-20.51]},{"id":"f1a55f66-6496-49c4-87a0-3e131988b2f4","title":"SP - SAO JOAO DAS DUAS PONTES","tipo":"Cebraspe","url":"\/dashboard\/details-assets\/f1a55f66-6496-49c4-87a0-3e131988b2f4","coordinates":[-50.37,-20.38]},{"id":"c369d7c9-e642-4477-a39a-6e6f00074ff7","title":"SP - SAO JOAO DA BOA VISTA","tipo":"Cebraspe","url":"\/dashboard\/details-assets\/c369d7c9-e642-4477-a39a-6e6f00074ff7","coordinates":[-46.79,-21.96]},{"id":"86e57305-540a-4921-a258-0c79f395588f","title":"SP - SAO CARLOS","tipo":"Cebraspe","url":"\/dashboard\/details-assets\/86e57305-540a-4921-a258-0c79f395588f","coordinates":[-47.89,-22.01]},{"id":"cf18718f-7f68-4113-af55-3d53eafcc263","title":"SP - SAO FRANCISCO","tipo":"Cebraspe","url":"\/dashboard\/details-assets\/cf18718f-7f68-4113-af55-3d53eafcc263","coordinates":[-50.69,-20.35]},{"id":"2253776b-cb78-4d62-95a9-77e781984b37","title":"SP - SAO CAETANO DO SUL","tipo":"Cebraspe","url":"\/dashboard\/details-assets\/2253776b-cb78-4d62-95a9-77e781984b37","coordinates":[-46.55,-23.62]},{"id":"35c4ee54-c3b4-40e4-8882-e5c2e8e9f247","title":"SP - SAO BERNARDO DO CAMPO","tipo":"Cebraspe","url":"\/dashboard\/details-assets\/35c4ee54-c3b4-40e4-8882-e5c2e8e9f247","coordinates":[-46.56,-23.69]},{"id":"0a475453-0ba6-43a0-8afc-d02d78b4f175","title":"SP - SANTOS","tipo":"Cebraspe","url":"\/dashboard\/details-assets\/0a475453-0ba6-43a0-8afc-d02d78b4f175","coordinates":[-46.33,-23.96]},{"id":"44fcd544-295f-49c3-acd4-844ccb7d6870","title":"SP - SAO BENTO DO SAPUCAI","tipo":"Cebraspe","url":"\/dashboard\/details-assets\/44fcd544-295f-49c3-acd4-844ccb7d6870","coordinates":[-45.73,-22.68]},{"id":"ebf01ed7-84d1-4c86-a35d-ff5bdaf015d4","title":"SP - SANTO EXPEDITO","tipo":"Cebraspe","url":"\/dashboard\/details-assets\/ebf01ed7-84d1-4c86-a35d-ff5bdaf015d4","coordinates":[-51.39,-21.85]},{"id":"60008b1a-f4f3-43d0-8805-5b71f4ad11d4","title":"SP - SANTOPOLIS DO AGUAPEI","tipo":"Cebraspe","url":"\/dashboard\/details-assets\/60008b1a-f4f3-43d0-8805-5b71f4ad11d4","coordinates":[-50.5,-21.63]},{"id":"5ac1ae66-4830-4ad4-b3a2-c53815c44f04","title":"SP - SANTO ANTONIO DO JARDIM","tipo":"Cebraspe","url":"\/dashboard\/details-assets\/5ac1ae66-4830-4ad4-b3a2-c53815c44f04","coordinates":[-46.68,-22.11]},{"id":"5d7bbd3f-7f33-42c5-a063-732f7742868c","title":"SP - SANTO ANTONIO DO PINHAL","tipo":"Cebraspe","url":"\/dashboard\/details-assets\/5d7bbd3f-7f33-42c5-a063-732f7742868c","coordinates":[-45.66,-22.82]},{"id":"b74baf2b-260f-4833-8e9e-b290be7aa0d2","title":"SP - SANTO ANTONIO DO ARACANGUA","tipo":"Cebraspe","url":"\/dashboard\/details-assets\/b74baf2b-260f-4833-8e9e-b290be7aa0d2","coordinates":[-50.49,-20.93]},{"id":"0dd9a782-fb05-4f62-83f7-0699a33cb84b","title":"SP - SANTO ANTONIO DE POSSE","tipo":"Cebraspe","url":"\/dashboard\/details-assets\/0dd9a782-fb05-4f62-83f7-0699a33cb84b","coordinates":[-46.91,-22.6]},{"id":"e672e545-baf7-44fc-acd0-f0f72ef37f13","title":"SP - SANTO ANTONIO DA ALEGRIA","tipo":"Cebraspe","url":"\/dashboard\/details-assets\/e672e545-baf7-44fc-acd0-f0f72ef37f13","coordinates":[-47.15,-21.08]},{"id":"cd63d088-92f0-44ba-8aa3-7dfcf3d5ed13","title":"SP - SANTO ANASTACIO","tipo":"Cebraspe","url":"\/dashboard\/details-assets\/cd63d088-92f0-44ba-8aa3-7dfcf3d5ed13","coordinates":[-51.65,-21.97]},{"id":"06cc9b0a-4b16-4dbc-b997-d0349bc538b6","title":"SP - SANTO ANDRE","tipo":"Cebraspe","url":"\/dashboard\/details-assets\/06cc9b0a-4b16-4dbc-b997-d0349bc538b6","coordinates":[-46.53,-23.66]},{"id":"2d6a404f-f2c2-4f9b-9f74-56fb30eaf466","title":"SP - SANTANA DE PARNAIBA","tipo":"Cebraspe","url":"\/dashboard\/details-assets\/2d6a404f-f2c2-4f9b-9f74-56fb30eaf466","coordinates":[-46.91,-23.44]},{"id":"335ef70a-40e1-42da-a0a9-79ca732afef0","title":"SP - SANTA SALETE","tipo":"Cebraspe","url":"\/dashboard\/details-assets\/335ef70a-40e1-42da-a0a9-79ca732afef0","coordinates":[-50.68,-20.24]},{"id":"c90f8c09-a373-44f9-9627-4787a620422f","title":"SP - SANTANA DA PONTE PENSA","tipo":"Cebraspe","url":"\/dashboard\/details-assets\/c90f8c09-a373-44f9-9627-4787a620422f","coordinates":[-50.79,-20.25]},{"id":"79234bf2-8edf-45f4-9281-6f73b2974201","title":"SP - SANTA ROSA DE VITERBO","tipo":"Cebraspe","url":"\/dashboard\/details-assets\/79234bf2-8edf-45f4-9281-6f73b2974201","coordinates":[-47.36,-21.47]},{"id":"807cbdd5-fec6-4406-b36c-377a1ec262b1","title":"SP - SANTA RITA D'OESTE","tipo":"Cebraspe","url":"\/dashboard\/details-assets\/807cbdd5-fec6-4406-b36c-377a1ec262b1","coordinates":[-50.83,-20.14]},{"id":"66d42d50-f6c8-483b-bbd2-c8cdd7c3f6db","title":"SP - SANTA RITA DO PASSA QUATRO","tipo":"Cebraspe","url":"\/dashboard\/details-assets\/66d42d50-f6c8-483b-bbd2-c8cdd7c3f6db","coordinates":[-47.47,-21.71]},{"id":"6670d9a2-3047-40c6-82b6-f3874fbf382e","title":"SP - SANTA MERCEDES","tipo":"Cebraspe","url":"\/dashboard\/details-assets\/6670d9a2-3047-40c6-82b6-f3874fbf382e","coordinates":[-51.75,-21.35]},{"id":"adb8c749-9b6d-4674-aa3d-9e9d83fc6044","title":"SP - SANTA MARIA DA SERRA","tipo":"Cebraspe","url":"\/dashboard\/details-assets\/adb8c749-9b6d-4674-aa3d-9e9d83fc6044","coordinates":[-48.16,-22.56]},{"id":"9b800a86-f2fe-41e7-9d92-b6976b99e061","title":"SP - SANTA LUCIA","tipo":"Cebraspe","url":"\/dashboard\/details-assets\/9b800a86-f2fe-41e7-9d92-b6976b99e061","coordinates":[-48.08,-21.68]},{"id":"661429fb-9913-4c1f-95e2-2034b8d21225","title":"SP - SANTA ISABEL","tipo":"Cebraspe","url":"\/dashboard\/details-assets\/661429fb-9913-4c1f-95e2-2034b8d21225","coordinates":[-46.22,-23.31]},{"id":"f5d47351-4457-4432-b9d4-e7719f71a0b1","title":"SP - SANTA GERTRUDES","tipo":"Cebraspe","url":"\/dashboard\/details-assets\/f5d47351-4457-4432-b9d4-e7719f71a0b1","coordinates":[-47.53,-22.45]},{"id":"6172d08a-470c-452f-b977-912cc09d3b6a","title":"SP - SANTA FE DO SUL","tipo":"Cebraspe","url":"\/dashboard\/details-assets\/6172d08a-470c-452f-b977-912cc09d3b6a","coordinates":[-50.92,-20.21]},{"id":"d033ecac-7b82-48bf-947b-7152a34ec3c6","title":"SP - SANTA ERNESTINA","tipo":"Cebraspe","url":"\/dashboard\/details-assets\/d033ecac-7b82-48bf-947b-7152a34ec3c6","coordinates":[-48.39,-21.46]},{"id":"10c76c0b-fed7-4898-9c17-4231805e8146","title":"SP - SANTA CRUZ DO RIO PARDO","tipo":"Cebraspe","url":"\/dashboard\/details-assets\/10c76c0b-fed7-4898-9c17-4231805e8146","coordinates":[-49.63,-22.89]},{"id":"f70bcf7b-d575-4efd-8a6d-8e4f32a97ad7","title":"SP - SANTA CRUZ DAS PALMEIRAS","tipo":"Cebraspe","url":"\/dashboard\/details-assets\/f70bcf7b-d575-4efd-8a6d-8e4f32a97ad7","coordinates":[-47.24,-21.82]},{"id":"871c50bf-d417-436a-9b4e-78ec52981faf","title":"SP - SANTA CRUZ DA ESPERANCA","tipo":"Cebraspe","url":"\/dashboard\/details-assets\/871c50bf-d417-436a-9b4e-78ec52981faf","coordinates":[-47.43,-21.29]},{"id":"bda5b9e6-5fdc-4a96-9005-1244134e3acc","title":"SP - SANTA CRUZ DA CONCEICAO","tipo":"Cebraspe","url":"\/dashboard\/details-assets\/bda5b9e6-5fdc-4a96-9005-1244134e3acc","coordinates":[-47.45,-22.14]},{"id":"67df3c15-653e-4a7c-a0f5-c6282a6dbd61","title":"SP - SANTA CLARA D'OESTE","tipo":"Cebraspe","url":"\/dashboard\/details-assets\/67df3c15-653e-4a7c-a0f5-c6282a6dbd61","coordinates":[-50.95,-20.08]},{"id":"075525d6-236b-4210-ba10-5309bcc6bc12","title":"SP - SANTA BRANCA","tipo":"Cebraspe","url":"\/dashboard\/details-assets\/075525d6-236b-4210-ba10-5309bcc6bc12","coordinates":[-45.88,-23.39]},{"id":"69c32c4c-5e39-40ce-b40e-c6b878af6f73","title":"SP - SANTA BARBARA D'OESTE","tipo":"Cebraspe","url":"\/dashboard\/details-assets\/69c32c4c-5e39-40ce-b40e-c6b878af6f73","coordinates":[-47.41,-22.75]},{"id":"e0efc2bb-c0d3-4e03-a4c7-5630a08402b9","title":"SP - SANTA ALBERTINA","tipo":"Cebraspe","url":"\/dashboard\/details-assets\/e0efc2bb-c0d3-4e03-a4c7-5630a08402b9","coordinates":[-50.72,-20.03]},{"id":"07e7f21f-241d-4fe3-b535-8d01576eb1f1","title":"SP - SANTA ADELIA","tipo":"Cebraspe","url":"\/dashboard\/details-assets\/07e7f21f-241d-4fe3-b535-8d01576eb1f1","coordinates":[-48.8,-21.24]},{"id":"7514fff0-e991-4fe8-b119-ba3d76ec4bd6","title":"SP - SANDOVALINA","tipo":"Cebraspe","url":"\/dashboard\/details-assets\/7514fff0-e991-4fe8-b119-ba3d76ec4bd6","coordinates":[-51.76,-22.45]},{"id":"5a2d4cff-48b6-41b2-8cdb-834adc5e08e8","title":"SP - SALTO DE PIRAPORA","tipo":"Cebraspe","url":"\/dashboard\/details-assets\/5a2d4cff-48b6-41b2-8cdb-834adc5e08e8","coordinates":[-47.57,-23.64]},{"id":"33d55d9b-3793-43f2-9402-b7774e06d44f","title":"SP - SALTO GRANDE","tipo":"Cebraspe","url":"\/dashboard\/details-assets\/33d55d9b-3793-43f2-9402-b7774e06d44f","coordinates":[-49.98,-22.89]},{"id":"66635526-aa43-4db9-b15e-20252ab8f10e","title":"SP - SALTO","tipo":"Cebraspe","url":"\/dashboard\/details-assets\/66635526-aa43-4db9-b15e-20252ab8f10e","coordinates":[-47.28,-23.2]},{"id":"38ae5fce-f9bb-4ba3-b15e-b1c56d431b93","title":"SP - SALMOURAO","tipo":"Cebraspe","url":"\/dashboard\/details-assets\/38ae5fce-f9bb-4ba3-b15e-b1c56d431b93","coordinates":[-50.86,-21.62]},{"id":"a480482e-cd63-42c9-af4a-cab40d281c0f","title":"SP - SALTINHO","tipo":"Cebraspe","url":"\/dashboard\/details-assets\/a480482e-cd63-42c9-af4a-cab40d281c0f","coordinates":[-47.67,-22.84]},{"id":"f203eb7d-d810-4b49-be40-bc48b6c184dd","title":"SP - SALESOPOLIS","tipo":"Cebraspe","url":"\/dashboard\/details-assets\/f203eb7d-d810-4b49-be40-bc48b6c184dd","coordinates":[-45.84,-23.53]},{"id":"63f0d2ea-66cb-4499-a3b0-4494bdcb7e64","title":"SP - SALES OLIVEIRA","tipo":"Cebraspe","url":"\/dashboard\/details-assets\/63f0d2ea-66cb-4499-a3b0-4494bdcb7e64","coordinates":[-47.83,-20.77]},{"id":"7926c868-cac7-47e9-ac0f-0714b8249afb","title":"SP - SAGRES","tipo":"Cebraspe","url":"\/dashboard\/details-assets\/7926c868-cac7-47e9-ac0f-0714b8249afb","coordinates":[-50.95,-21.88]},{"id":"d45757e9-a5d6-4220-bc30-4281fdc86bfe","title":"SP - SALES","tipo":"Cebraspe","url":"\/dashboard\/details-assets\/d45757e9-a5d6-4220-bc30-4281fdc86bfe","coordinates":[-49.48,-21.34]},{"id":"dfc0718e-40e4-4bd4-8321-9f22a27f78f1","title":"SP - SABINO","tipo":"Cebraspe","url":"\/dashboard\/details-assets\/dfc0718e-40e4-4bd4-8321-9f22a27f78f1","coordinates":[-49.57,-21.46]},{"id":"5d193ef8-23d5-4be2-b06a-a8347371a08e","title":"SP - RUBINEIA","tipo":"Cebraspe","url":"\/dashboard\/details-assets\/5d193ef8-23d5-4be2-b06a-a8347371a08e","coordinates":[-51,-20.17]},{"id":"8e37e4e4-25de-4308-9f14-f0dfd3f64a25","title":"SP - RUBIACEA","tipo":"Cebraspe","url":"\/dashboard\/details-assets\/8e37e4e4-25de-4308-9f14-f0dfd3f64a25","coordinates":[-50.72,-21.3]},{"id":"3b136820-4c6c-489a-ae62-96f5772e6866","title":"SP - ROSEIRA","tipo":"Cebraspe","url":"\/dashboard\/details-assets\/3b136820-4c6c-489a-ae62-96f5772e6866","coordinates":[-45.3,-22.89]},{"id":"1ec0a735-82de-4df9-842a-390b6fe6f05b","title":"SP - ROSANA","tipo":"Cebraspe","url":"\/dashboard\/details-assets\/1ec0a735-82de-4df9-842a-390b6fe6f05b","coordinates":[-53.05,-22.58]},{"id":"d5f78fff-a84c-48fd-b154-f9a0e5b1ccec","title":"SP - RIVERSUL","tipo":"Cebraspe","url":"\/dashboard\/details-assets\/d5f78fff-a84c-48fd-b154-f9a0e5b1ccec","coordinates":[-49.42,-23.82]},{"id":"e1a6c24b-8b64-4b71-acff-dfc6ed55257e","title":"SP - RIOLANDIA","tipo":"Cebraspe","url":"\/dashboard\/details-assets\/e1a6c24b-8b64-4b71-acff-dfc6ed55257e","coordinates":[-49.68,-19.99]},{"id":"0c76531b-9298-4fc1-b20a-34c347248328","title":"SP - RIO DAS PEDRAS","tipo":"Cebraspe","url":"\/dashboard\/details-assets\/0c76531b-9298-4fc1-b20a-34c347248328","coordinates":[-47.6,-22.84]},{"id":"58c35d53-565a-44c4-b1b8-fb0da211dec6","title":"SP - RIO GRANDE DA SERRA","tipo":"Cebraspe","url":"\/dashboard\/details-assets\/58c35d53-565a-44c4-b1b8-fb0da211dec6","coordinates":[-46.39,-23.74]},{"id":"b385554f-6715-420b-8b01-007663d14861","title":"SP - RIO CLARO","tipo":"Cebraspe","url":"\/dashboard\/details-assets\/b385554f-6715-420b-8b01-007663d14861","coordinates":[-47.56,-22.41]},{"id":"326471e7-b1f7-4d67-867e-32899b91ce3b","title":"SP - RINOPOLIS","tipo":"Cebraspe","url":"\/dashboard\/details-assets\/326471e7-b1f7-4d67-867e-32899b91ce3b","coordinates":[-50.72,-21.72]},{"id":"bd8aa369-6352-4ccd-b67a-39c40a9ec38c","title":"SP - RIFAINA","tipo":"Cebraspe","url":"\/dashboard\/details-assets\/bd8aa369-6352-4ccd-b67a-39c40a9ec38c","coordinates":[-47.42,-20.08]},{"id":"e2a4c3e8-4c1a-4d1b-9770-7404cef6df86","title":"SP - RINCAO","tipo":"Cebraspe","url":"\/dashboard\/details-assets\/e2a4c3e8-4c1a-4d1b-9770-7404cef6df86","coordinates":[-48.07,-21.58]},{"id":"d6b39bec-9218-4c84-aa56-6bded2953966","title":"SP - RIBEIRAO PRETO","tipo":"Cebraspe","url":"\/dashboard\/details-assets\/d6b39bec-9218-4c84-aa56-6bded2953966","coordinates":[-47.81,-21.17]},{"id":"986b57f6-7823-4109-a638-2cee65be3f9d","title":"SP - RIBEIRAO PIRES","tipo":"Cebraspe","url":"\/dashboard\/details-assets\/986b57f6-7823-4109-a638-2cee65be3f9d","coordinates":[-46.41,-23.71]},{"id":"ab4efa62-3ba4-4114-a7b1-70f99d588bf9","title":"SP - RIBEIRAO GRANDE","tipo":"Cebraspe","url":"\/dashboard\/details-assets\/ab4efa62-3ba4-4114-a7b1-70f99d588bf9","coordinates":[-48.36,-24.09]},{"id":"17ec49cc-a63b-4c33-b7d8-f03de8c955b8","title":"SP - RIBEIRAO DOS INDIOS","tipo":"Cebraspe","url":"\/dashboard\/details-assets\/17ec49cc-a63b-4c33-b7d8-f03de8c955b8","coordinates":[-51.6,-21.83]},{"id":"738e824f-d3db-4193-b8b3-d6474507dca1","title":"SP - RIBEIRAO DO SUL","tipo":"Cebraspe","url":"\/dashboard\/details-assets\/738e824f-d3db-4193-b8b3-d6474507dca1","coordinates":[-49.93,-22.78]},{"id":"91a16af6-5298-411c-a896-4ac9ab148833","title":"SP - RIBEIRAO CORRENTE","tipo":"Cebraspe","url":"\/dashboard\/details-assets\/91a16af6-5298-411c-a896-4ac9ab148833","coordinates":[-47.59,-20.45]},{"id":"50030f07-a95f-4c19-baf7-f7e72cdfaa2f","title":"SP - RIBEIRAO BRANCO","tipo":"Cebraspe","url":"\/dashboard\/details-assets\/50030f07-a95f-4c19-baf7-f7e72cdfaa2f","coordinates":[-48.76,-24.22]},{"id":"ef86701b-47c1-441e-b622-3c8cf3d57d4a","title":"SP - RIBEIRAO BONITO","tipo":"Cebraspe","url":"\/dashboard\/details-assets\/ef86701b-47c1-441e-b622-3c8cf3d57d4a","coordinates":[-48.17,-22.06]},{"id":"e4c3f6fd-c5eb-4531-bf91-fde2a8b7bf66","title":"SP - RIBEIRA","tipo":"Cebraspe","url":"\/dashboard\/details-assets\/e4c3f6fd-c5eb-4531-bf91-fde2a8b7bf66","coordinates":[-49,-24.65]},{"id":"8a2f0795-7b30-4432-874b-5db055f0c627","title":"SP - RESTINGA","tipo":"Cebraspe","url":"\/dashboard\/details-assets\/8a2f0795-7b30-4432-874b-5db055f0c627","coordinates":[-47.48,-20.6]},{"id":"64e2c4b4-54a7-4ef9-ad43-0474db4c4729","title":"SP - REGISTRO","tipo":"Cebraspe","url":"\/dashboard\/details-assets\/64e2c4b4-54a7-4ef9-ad43-0474db4c4729","coordinates":[-47.84,-24.48]},{"id":"24917d0f-7bf4-446c-a300-bbe156fcd2e3","title":"SP - REGINOPOLIS","tipo":"Cebraspe","url":"\/dashboard\/details-assets\/24917d0f-7bf4-446c-a300-bbe156fcd2e3","coordinates":[-49.22,-21.88]},{"id":"215c2268-fe5a-47c4-ba1b-3175edc18658","title":"SP - REDENCAO DA SERRA","tipo":"Cebraspe","url":"\/dashboard\/details-assets\/215c2268-fe5a-47c4-ba1b-3175edc18658","coordinates":[-45.53,-23.26]},{"id":"decda8c5-0fd6-4c0d-ad4a-1c5272161e08","title":"SP - REGENTE FEIJO","tipo":"Cebraspe","url":"\/dashboard\/details-assets\/decda8c5-0fd6-4c0d-ad4a-1c5272161e08","coordinates":[-51.3,-22.22]},{"id":"41009fa4-8d5b-4c35-b5be-14d6ffedb482","title":"SP - RANCHARIA","tipo":"Cebraspe","url":"\/dashboard\/details-assets\/41009fa4-8d5b-4c35-b5be-14d6ffedb482","coordinates":[-50.89,-22.22]},{"id":"b52ae1ae-7334-44df-ac11-9702b662fdd6","title":"SP - RAFARD","tipo":"Cebraspe","url":"\/dashboard\/details-assets\/b52ae1ae-7334-44df-ac11-9702b662fdd6","coordinates":[-47.52,-23.01]},{"id":"8ae23b12-c67a-488b-9a2e-2fde4d20a647","title":"SP - QUINTANA","tipo":"Cebraspe","url":"\/dashboard\/details-assets\/8ae23b12-c67a-488b-9a2e-2fde4d20a647","coordinates":[-50.3,-22.07]},{"id":"6d5c31a8-e712-46c5-88fb-c5cc7d16e238","title":"SP - QUELUZ","tipo":"Cebraspe","url":"\/dashboard\/details-assets\/6d5c31a8-e712-46c5-88fb-c5cc7d16e238","coordinates":[-44.77,-22.53]},{"id":"76b4716a-c6a0-4895-9687-c19728dfe00a","title":"SP - QUEIROZ","tipo":"Cebraspe","url":"\/dashboard\/details-assets\/76b4716a-c6a0-4895-9687-c19728dfe00a","coordinates":[-50.24,-21.79]},{"id":"893b5f19-6a84-475a-87e2-531ef94cb3c7","title":"SP - QUATA","tipo":"Cebraspe","url":"\/dashboard\/details-assets\/893b5f19-6a84-475a-87e2-531ef94cb3c7","coordinates":[-50.69,-22.24]},{"id":"bf03fea4-1a28-4b92-bd31-6f6555055ea4","title":"SP - QUADRA","tipo":"Cebraspe","url":"\/dashboard\/details-assets\/bf03fea4-1a28-4b92-bd31-6f6555055ea4","coordinates":[-48.05,-23.29]},{"id":"c0d9b7d7-82d4-4429-8df1-bea9244bc23e","title":"SP - PROMISSAO","tipo":"Cebraspe","url":"\/dashboard\/details-assets\/c0d9b7d7-82d4-4429-8df1-bea9244bc23e","coordinates":[-49.85,-21.53]},{"id":"54f15468-cbfe-4bba-961c-ce730fe6e38a","title":"SP - PRESIDENTE VENCESLAU","tipo":"Cebraspe","url":"\/dashboard\/details-assets\/54f15468-cbfe-4bba-961c-ce730fe6e38a","coordinates":[-51.84,-21.87]},{"id":"13ec2b2b-3489-404e-a440-17e71e4000f6","title":"SP - PRESIDENTE PRUDENTE","tipo":"Cebraspe","url":"\/dashboard\/details-assets\/13ec2b2b-3489-404e-a440-17e71e4000f6","coordinates":[-51.38,-22.12]},{"id":"5506e219-2164-4316-9e0c-c844f825f22f","title":"SP - PRESIDENTE EPITACIO","tipo":"Cebraspe","url":"\/dashboard\/details-assets\/5506e219-2164-4316-9e0c-c844f825f22f","coordinates":[-52.11,-21.76]},{"id":"be984ea8-3d60-4d8d-96e4-164fe6823371","title":"SP - PRESIDENTE BERNARDES","tipo":"Cebraspe","url":"\/dashboard\/details-assets\/be984ea8-3d60-4d8d-96e4-164fe6823371","coordinates":[-51.55,-22]},{"id":"6ef46f13-cc65-4324-9c8b-d830037f700e","title":"SP - PRESIDENTE ALVES","tipo":"Cebraspe","url":"\/dashboard\/details-assets\/6ef46f13-cc65-4324-9c8b-d830037f700e","coordinates":[-49.43,-22.1]},{"id":"88d2c7e0-7a95-4ce4-b6e7-1e518f9f8242","title":"SP - PRAIA GRANDE","tipo":"Cebraspe","url":"\/dashboard\/details-assets\/88d2c7e0-7a95-4ce4-b6e7-1e518f9f8242","coordinates":[-46.4,-24]},{"id":"b6fb7714-a878-4fe8-accd-3097d25b8f20","title":"SP - PRATANIA","tipo":"Cebraspe","url":"\/dashboard\/details-assets\/b6fb7714-a878-4fe8-accd-3097d25b8f20","coordinates":[-48.66,-22.8]},{"id":"60943ef1-6d95-4159-a726-0020652f1b48","title":"SP - PRACINHA","tipo":"Cebraspe","url":"\/dashboard\/details-assets\/60943ef1-6d95-4159-a726-0020652f1b48","coordinates":[-51.08,-21.85]},{"id":"904a6506-cabb-40d9-a3bd-08e641efd868","title":"SP - PRADOPOLIS","tipo":"Cebraspe","url":"\/dashboard\/details-assets\/904a6506-cabb-40d9-a3bd-08e641efd868","coordinates":[-48.06,-21.35]},{"id":"01226dcf-7ad6-4310-9c32-0bb480b9d28a","title":"SP - POTIRENDABA","tipo":"Cebraspe","url":"\/dashboard\/details-assets\/01226dcf-7ad6-4310-9c32-0bb480b9d28a","coordinates":[-49.37,-21.04]},{"id":"d71ed54e-e313-4474-bcbb-84eae04bded6","title":"SP - POTIM","tipo":"Cebraspe","url":"\/dashboard\/details-assets\/d71ed54e-e313-4474-bcbb-84eae04bded6","coordinates":[-45.25,-22.84]},{"id":"7e2d7023-d69e-4e20-9e38-e44535035dee","title":"SP - PORTO FERREIRA","tipo":"Cebraspe","url":"\/dashboard\/details-assets\/7e2d7023-d69e-4e20-9e38-e44535035dee","coordinates":[-47.47,-21.85]},{"id":"c1eafd7a-a46a-4717-b51a-62654d8b2259","title":"SP - PORTO FELIZ","tipo":"Cebraspe","url":"\/dashboard\/details-assets\/c1eafd7a-a46a-4717-b51a-62654d8b2259","coordinates":[-47.52,-23.21]},{"id":"48c61c75-c543-4f40-992a-cfbf4e8cc6a5","title":"SP - PORANGABA","tipo":"Cebraspe","url":"\/dashboard\/details-assets\/48c61c75-c543-4f40-992a-cfbf4e8cc6a5","coordinates":[-48.12,-23.17]},{"id":"346729ed-28e5-4c68-bfa1-ce28b14622e9","title":"SP - POPULINA","tipo":"Cebraspe","url":"\/dashboard\/details-assets\/346729ed-28e5-4c68-bfa1-ce28b14622e9","coordinates":[-50.53,-19.95]},{"id":"fc89a9e1-661b-450b-816e-afcd62658785","title":"SP - PONTES GESTAL","tipo":"Cebraspe","url":"\/dashboard\/details-assets\/fc89a9e1-661b-450b-816e-afcd62658785","coordinates":[-49.7,-20.16]},{"id":"ed8568ae-8e4b-4a3f-bd56-7329e990f059","title":"SP - PONTALINDA","tipo":"Cebraspe","url":"\/dashboard\/details-assets\/ed8568ae-8e4b-4a3f-bd56-7329e990f059","coordinates":[-50.52,-20.44]},{"id":"708056b6-232c-4339-a0f4-68f095a90286","title":"SP - PONTAL","tipo":"Cebraspe","url":"\/dashboard\/details-assets\/708056b6-232c-4339-a0f4-68f095a90286","coordinates":[-48.03,-21.02]},{"id":"cba8f531-466c-4ca2-bc15-4b87ca873828","title":"SP - POMPEIA","tipo":"Cebraspe","url":"\/dashboard\/details-assets\/cba8f531-466c-4ca2-bc15-4b87ca873828","coordinates":[-50.17,-22.1]},{"id":"a73f849d-2475-470c-bffa-752118f99b66","title":"SP - PONGAI","tipo":"Cebraspe","url":"\/dashboard\/details-assets\/a73f849d-2475-470c-bffa-752118f99b66","coordinates":[-49.36,-21.73]},{"id":"7819d432-701d-4cfa-87d7-e8362b0c876b","title":"SP - POLONI","tipo":"Cebraspe","url":"\/dashboard\/details-assets\/7819d432-701d-4cfa-87d7-e8362b0c876b","coordinates":[-49.82,-20.78]},{"id":"12c92583-d028-4447-815b-a93ab664d749","title":"SP - POA","tipo":"Cebraspe","url":"\/dashboard\/details-assets\/12c92583-d028-4447-815b-a93ab664d749","coordinates":[-46.34,-23.52]},{"id":"31ef46ba-aadd-4e7b-babc-e97bd219c29f","title":"SP - PLANALTO","tipo":"Cebraspe","url":"\/dashboard\/details-assets\/31ef46ba-aadd-4e7b-babc-e97bd219c29f","coordinates":[-49.92,-21.03]},{"id":"82ad2e0e-3db6-4ca9-aa84-4b5142d847e9","title":"SP - PLATINA","tipo":"Cebraspe","url":"\/dashboard\/details-assets\/82ad2e0e-3db6-4ca9-aa84-4b5142d847e9","coordinates":[-50.2,-22.63]},{"id":"eee99b7b-67fd-4cb6-b6aa-0128e473271a","title":"SP - PITANGUEIRAS","tipo":"Cebraspe","url":"\/dashboard\/details-assets\/eee99b7b-67fd-4cb6-b6aa-0128e473271a","coordinates":[-48.22,-21]},{"id":"a183e029-9fae-4ae7-b34c-f4f2bdb2eb2c","title":"SP - PIRATININGA","tipo":"Cebraspe","url":"\/dashboard\/details-assets\/a183e029-9fae-4ae7-b34c-f4f2bdb2eb2c","coordinates":[-49.13,-22.41]},{"id":"24f9cdbd-fca3-46c6-be26-06bd823b3cc7","title":"SP - PIRASSUNUNGA","tipo":"Cebraspe","url":"\/dashboard\/details-assets\/24f9cdbd-fca3-46c6-be26-06bd823b3cc7","coordinates":[-47.42,-21.99]},{"id":"d2a01dd6-391c-42c2-bd83-5f6e3d43d6d6","title":"SP - PIRAPOZINHO","tipo":"Cebraspe","url":"\/dashboard\/details-assets\/d2a01dd6-391c-42c2-bd83-5f6e3d43d6d6","coordinates":[-51.5,-22.27]},{"id":"a786a9b6-558a-4396-b369-637b172fb0ba","title":"SP - PIRAPORA DO BOM JESUS","tipo":"Cebraspe","url":"\/dashboard\/details-assets\/a786a9b6-558a-4396-b369-637b172fb0ba","coordinates":[-47,-23.39]},{"id":"5ea9156f-0857-40d2-9d80-224e73534096","title":"SP - PIRANGI","tipo":"Cebraspe","url":"\/dashboard\/details-assets\/5ea9156f-0857-40d2-9d80-224e73534096","coordinates":[-48.65,-21.09]},{"id":"a795c495-5be4-49ff-a6d0-e702a39873c0","title":"SP - PIRAJUI","tipo":"Cebraspe","url":"\/dashboard\/details-assets\/a795c495-5be4-49ff-a6d0-e702a39873c0","coordinates":[-49.45,-21.99]},{"id":"8744ef6e-b65d-4fe0-bd4b-99913443397a","title":"SP - PIRAJU","tipo":"Cebraspe","url":"\/dashboard\/details-assets\/8744ef6e-b65d-4fe0-bd4b-99913443397a","coordinates":[-49.38,-23.19]},{"id":"b59e9dde-1887-4087-9c55-53a24e1dc68a","title":"SP - PIRACICABA","tipo":"Cebraspe","url":"\/dashboard\/details-assets\/b59e9dde-1887-4087-9c55-53a24e1dc68a","coordinates":[-47.64,-22.72]},{"id":"912d8dc3-6be9-44f9-bd95-62834c6adc24","title":"SP - PIRACAIA","tipo":"Cebraspe","url":"\/dashboard\/details-assets\/912d8dc3-6be9-44f9-bd95-62834c6adc24","coordinates":[-46.35,-23.05]},{"id":"07417a6d-3c1d-4d7a-b544-514b5bc9d59e","title":"SP - PIQUEROBI","tipo":"Cebraspe","url":"\/dashboard\/details-assets\/07417a6d-3c1d-4d7a-b544-514b5bc9d59e","coordinates":[-51.72,-21.86]},{"id":"ea4e52c2-c609-41e8-8200-dc29488dd56f","title":"SP - PIQUETE","tipo":"Cebraspe","url":"\/dashboard\/details-assets\/ea4e52c2-c609-41e8-8200-dc29488dd56f","coordinates":[-45.17,-22.61]},{"id":"502081a9-e53d-4f6f-988a-cf6979d9c03d","title":"SP - PINHALZINHO","tipo":"Cebraspe","url":"\/dashboard\/details-assets\/502081a9-e53d-4f6f-988a-cf6979d9c03d","coordinates":[-46.59,-22.77]},{"id":"da8506b7-d56c-4d6a-8995-42b28f8067cd","title":"SP - PINDAMONHANGABA","tipo":"Cebraspe","url":"\/dashboard\/details-assets\/da8506b7-d56c-4d6a-8995-42b28f8067cd","coordinates":[-45.46,-22.92]},{"id":"1fdc37bc-f6c0-47d7-a2f1-748ec151ecec","title":"SP - PINDORAMA","tipo":"Cebraspe","url":"\/dashboard\/details-assets\/1fdc37bc-f6c0-47d7-a2f1-748ec151ecec","coordinates":[-48.9,-21.18]},{"id":"89ea7466-88e6-4e96-88ec-f24699f479ab","title":"SP - PIEDADE","tipo":"Cebraspe","url":"\/dashboard\/details-assets\/89ea7466-88e6-4e96-88ec-f24699f479ab","coordinates":[-47.42,-23.71]},{"id":"c1b8aca5-beb5-46db-9975-eb9430ba6c34","title":"SP - PILAR DO SUL","tipo":"Cebraspe","url":"\/dashboard\/details-assets\/c1b8aca5-beb5-46db-9975-eb9430ba6c34","coordinates":[-47.71,-23.81]},{"id":"82083c88-318b-4f7a-b15a-de8ee0055b69","title":"SP - PIACATU","tipo":"Cebraspe","url":"\/dashboard\/details-assets\/82083c88-318b-4f7a-b15a-de8ee0055b69","coordinates":[-50.59,-21.59]},{"id":"51138adf-ae39-4ca5-93a2-b7e2f0a0f060","title":"SP - PEREIRAS","tipo":"Cebraspe","url":"\/dashboard\/details-assets\/51138adf-ae39-4ca5-93a2-b7e2f0a0f060","coordinates":[-47.97,-23.07]},{"id":"56156f71-230f-4ac9-9058-f74770c5e1ab","title":"SP - PERUIBE","tipo":"Cebraspe","url":"\/dashboard\/details-assets\/56156f71-230f-4ac9-9058-f74770c5e1ab","coordinates":[-46.99,-24.32]},{"id":"d40c0895-23a0-49eb-a2d0-d682e8014c6a","title":"SP - PEREIRA BARRETO","tipo":"Cebraspe","url":"\/dashboard\/details-assets\/d40c0895-23a0-49eb-a2d0-d682e8014c6a","coordinates":[-51.1,-20.63]},{"id":"ea06b9ac-2bef-4c47-b100-9726c17133f3","title":"SP - PENAPOLIS","tipo":"Cebraspe","url":"\/dashboard\/details-assets\/ea06b9ac-2bef-4c47-b100-9726c17133f3","coordinates":[-50.07,-21.42]},{"id":"dbf480ca-64d9-4012-ae05-d17a27861bff","title":"SP - PEDRO DE TOLEDO","tipo":"Cebraspe","url":"\/dashboard\/details-assets\/dbf480ca-64d9-4012-ae05-d17a27861bff","coordinates":[-47.23,-24.27]},{"id":"7e93a185-4c5f-4d9a-be4d-f4b814ad3c75","title":"SP - PEDRINHAS PAULISTA","tipo":"Cebraspe","url":"\/dashboard\/details-assets\/7e93a185-4c5f-4d9a-be4d-f4b814ad3c75","coordinates":[-50.79,-22.81]},{"id":"359293ba-acc8-4694-9427-d0fdf7caef7d","title":"SP - PEDREIRA","tipo":"Cebraspe","url":"\/dashboard\/details-assets\/359293ba-acc8-4694-9427-d0fdf7caef7d","coordinates":[-46.9,-22.74]},{"id":"beac7690-bd29-4f14-9fcf-a86bd87a27eb","title":"SP - PEDREGULHO","tipo":"Cebraspe","url":"\/dashboard\/details-assets\/beac7690-bd29-4f14-9fcf-a86bd87a27eb","coordinates":[-47.47,-20.25]},{"id":"154a0449-5dc0-410a-ad0b-df2372a8aa20","title":"SP - PEDRANOPOLIS","tipo":"Cebraspe","url":"\/dashboard\/details-assets\/154a0449-5dc0-410a-ad0b-df2372a8aa20","coordinates":[-50.11,-20.24]},{"id":"bef1bb0f-4bdc-48e0-95c7-30324426e931","title":"SP - PEDERNEIRAS","tipo":"Cebraspe","url":"\/dashboard\/details-assets\/bef1bb0f-4bdc-48e0-95c7-30324426e931","coordinates":[-48.77,-22.35]},{"id":"b26215a2-2a30-406b-a891-2c5a2b60e7da","title":"SP - PEDRA BELA","tipo":"Cebraspe","url":"\/dashboard\/details-assets\/b26215a2-2a30-406b-a891-2c5a2b60e7da","coordinates":[-46.44,-22.79]},{"id":"afa5d2db-3237-45f6-94cd-62fc0c4e9979","title":"SP - PAULISTANIA","tipo":"Cebraspe","url":"\/dashboard\/details-assets\/afa5d2db-3237-45f6-94cd-62fc0c4e9979","coordinates":[-49.4,-22.57]},{"id":"0fecb073-dbfa-43a1-b797-afed04a86ce1","title":"SP - PAULO DE FARIA","tipo":"Cebraspe","url":"\/dashboard\/details-assets\/0fecb073-dbfa-43a1-b797-afed04a86ce1","coordinates":[-49.38,-20.03]},{"id":"926b7b52-9be2-403a-9a17-d23d5549cb8b","title":"SP - PAULINIA","tipo":"Cebraspe","url":"\/dashboard\/details-assets\/926b7b52-9be2-403a-9a17-d23d5549cb8b","coordinates":[-47.15,-22.76]},{"id":"84d01cae-f2c4-409e-b5f9-4b451502fc92","title":"SP - PAULICEIA","tipo":"Cebraspe","url":"\/dashboard\/details-assets\/84d01cae-f2c4-409e-b5f9-4b451502fc92","coordinates":[-51.83,-21.31]},{"id":"1d273975-72e7-428f-abcf-c925ecf9c99c","title":"SP - PARISI","tipo":"Cebraspe","url":"\/dashboard\/details-assets\/1d273975-72e7-428f-abcf-c925ecf9c99c","coordinates":[-50.01,-20.3]},{"id":"9b7d6fa4-eea0-4749-94a9-eb24d8e2cbda","title":"SP - PATROCINIO PAULISTA","tipo":"Cebraspe","url":"\/dashboard\/details-assets\/9b7d6fa4-eea0-4749-94a9-eb24d8e2cbda","coordinates":[-47.28,-20.63]},{"id":"d7f0ad3f-70d8-4519-87ee-01e98c803338","title":"SP - PARIQUERA-ACU","tipo":"Cebraspe","url":"\/dashboard\/details-assets\/d7f0ad3f-70d8-4519-87ee-01e98c803338","coordinates":[-47.88,-24.71]},{"id":"00290880-72d4-4b4f-a710-be83296bcac4","title":"SP - PARAPUA","tipo":"Cebraspe","url":"\/dashboard\/details-assets\/00290880-72d4-4b4f-a710-be83296bcac4","coordinates":[-50.79,-21.78]},{"id":"5ba62af4-78a2-4751-9cbf-acba230685b2","title":"SP - PARDINHO","tipo":"Cebraspe","url":"\/dashboard\/details-assets\/5ba62af4-78a2-4751-9cbf-acba230685b2","coordinates":[-48.37,-23.08]},{"id":"b50a5aec-d5a4-4f93-8aea-9ce2fa53608b","title":"SP - PARANAPANEMA","tipo":"Cebraspe","url":"\/dashboard\/details-assets\/b50a5aec-d5a4-4f93-8aea-9ce2fa53608b","coordinates":[-48.72,-23.38]},{"id":"c28c167d-46c6-46b6-ae1c-843051bbc9cf","title":"SP - PARANAPUA","tipo":"Cebraspe","url":"\/dashboard\/details-assets\/c28c167d-46c6-46b6-ae1c-843051bbc9cf","coordinates":[-50.58,-20.1]},{"id":"404f08a1-d6a9-4225-b486-bef2e7d0d69b","title":"SP - PARAISO","tipo":"Cebraspe","url":"\/dashboard\/details-assets\/404f08a1-d6a9-4225-b486-bef2e7d0d69b","coordinates":[-48.77,-21.01]},{"id":"ff17fca2-d913-4181-b14b-50449228958d","title":"SP - PARAGUACU PAULISTA","tipo":"Cebraspe","url":"\/dashboard\/details-assets\/ff17fca2-d913-4181-b14b-50449228958d","coordinates":[-50.57,-22.41]},{"id":"190a6764-d6c8-47e9-b77c-0b12a3e4e885","title":"SP - PARAIBUNA","tipo":"Cebraspe","url":"\/dashboard\/details-assets\/190a6764-d6c8-47e9-b77c-0b12a3e4e885","coordinates":[-45.66,-23.38]},{"id":"a2af917d-1886-4796-9192-c46e24286e9b","title":"SP - PANORAMA","tipo":"Cebraspe","url":"\/dashboard\/details-assets\/a2af917d-1886-4796-9192-c46e24286e9b","coordinates":[-51.86,-21.35]},{"id":"b349d922-8141-48c6-9b3c-bd3f3c7798e4","title":"SP - PALMITAL","tipo":"Cebraspe","url":"\/dashboard\/details-assets\/b349d922-8141-48c6-9b3c-bd3f3c7798e4","coordinates":[-50.21,-22.78]},{"id":"4ed08c06-f5fd-4826-965f-3e65775ce194","title":"SP - PALMEIRA D'OESTE","tipo":"Cebraspe","url":"\/dashboard\/details-assets\/4ed08c06-f5fd-4826-965f-3e65775ce194","coordinates":[-50.76,-20.41]},{"id":"0192275c-3893-413e-913d-26cb41190310","title":"SP - PALMARES PAULISTA","tipo":"Cebraspe","url":"\/dashboard\/details-assets\/0192275c-3893-413e-913d-26cb41190310","coordinates":[-48.8,-21.08]},{"id":"59a55edf-11f0-4f8d-9873-5ea9ed5da1b6","title":"SP - PALESTINA","tipo":"Cebraspe","url":"\/dashboard\/details-assets\/59a55edf-11f0-4f8d-9873-5ea9ed5da1b6","coordinates":[-49.43,-20.39]},{"id":"0dc6edba-db13-4c8d-809f-842bf4949464","title":"SP - PACAEMBU","tipo":"Cebraspe","url":"\/dashboard\/details-assets\/0dc6edba-db13-4c8d-809f-842bf4949464","coordinates":[-51.26,-21.56]},{"id":"34ce046e-bfdd-4da2-a2d2-647a5ce720e7","title":"SP - OUROESTE","tipo":"Cebraspe","url":"\/dashboard\/details-assets\/34ce046e-bfdd-4da2-a2d2-647a5ce720e7","coordinates":[-50.37,-20]},{"id":"05b9cd26-4cec-489e-b8dd-1cd1de093556","title":"SP - OURO VERDE","tipo":"Cebraspe","url":"\/dashboard\/details-assets\/05b9cd26-4cec-489e-b8dd-1cd1de093556","coordinates":[-51.7,-21.48]},{"id":"e3a35b57-d3fe-4bef-b66b-9fd4334ece90","title":"SP - OURINHOS","tipo":"Cebraspe","url":"\/dashboard\/details-assets\/e3a35b57-d3fe-4bef-b66b-9fd4334ece90","coordinates":[-49.87,-22.97]},{"id":"e9a70644-b9a4-4f42-b132-b5af4e188c86","title":"SP - OSVALDO CRUZ","tipo":"Cebraspe","url":"\/dashboard\/details-assets\/e9a70644-b9a4-4f42-b132-b5af4e188c86","coordinates":[-50.87,-21.79]},{"id":"b78014b4-c55f-4057-84dd-079bc010bf1b","title":"SP - OSCAR BRESSANE","tipo":"Cebraspe","url":"\/dashboard\/details-assets\/b78014b4-c55f-4057-84dd-079bc010bf1b","coordinates":[-50.28,-22.31]},{"id":"df41243f-1feb-4bdc-893d-05dbbaff8e6e","title":"SP - OSASCO","tipo":"Cebraspe","url":"\/dashboard\/details-assets\/df41243f-1feb-4bdc-893d-05dbbaff8e6e","coordinates":[-46.79,-23.53]},{"id":"86316d98-3084-4218-a624-5bba99c78ab2","title":"SP - ORLANDIA","tipo":"Cebraspe","url":"\/dashboard\/details-assets\/86316d98-3084-4218-a624-5bba99c78ab2","coordinates":[-47.88,-20.72]},{"id":"0249cede-6cf5-4cc6-b955-a285b87bd030","title":"SP - ORINDIUVA","tipo":"Cebraspe","url":"\/dashboard\/details-assets\/0249cede-6cf5-4cc6-b955-a285b87bd030","coordinates":[-49.35,-20.18]},{"id":"35cd2ee8-f96d-43b1-9fa4-00e924e6a77c","title":"SP - ORIENTE","tipo":"Cebraspe","url":"\/dashboard\/details-assets\/35cd2ee8-f96d-43b1-9fa4-00e924e6a77c","coordinates":[-50.09,-22.15]},{"id":"f93b1f13-cf7c-4919-889d-8cc952bd6238","title":"SP - ONDA VERDE","tipo":"Cebraspe","url":"\/dashboard\/details-assets\/f93b1f13-cf7c-4919-889d-8cc952bd6238","coordinates":[-49.29,-20.6]},{"id":"b2a15f2b-8b37-4a2f-9d63-b57a4de2e016","title":"SP - OLIMPIA","tipo":"Cebraspe","url":"\/dashboard\/details-assets\/b2a15f2b-8b37-4a2f-9d63-b57a4de2e016","coordinates":[-48.91,-20.73]},{"id":"5be9392f-c12b-4518-82dd-93669bfaca5d","title":"SP - OLEO","tipo":"Cebraspe","url":"\/dashboard\/details-assets\/5be9392f-c12b-4518-82dd-93669bfaca5d","coordinates":[-49.34,-22.94]},{"id":"e3ba3bdd-86df-47ac-9432-d5dfb180dbac","title":"SP - OCAUCU","tipo":"Cebraspe","url":"\/dashboard\/details-assets\/e3ba3bdd-86df-47ac-9432-d5dfb180dbac","coordinates":[-49.92,-22.43]},{"id":"f10a0339-567e-48cf-b6c6-4267d0b87ebe","title":"SP - NUPORANGA","tipo":"Cebraspe","url":"\/dashboard\/details-assets\/f10a0339-567e-48cf-b6c6-4267d0b87ebe","coordinates":[-47.73,-20.73]},{"id":"fe11cf5e-2ee0-45b2-8aaf-ace772527224","title":"SP - NOVO HORIZONTE","tipo":"Cebraspe","url":"\/dashboard\/details-assets\/fe11cf5e-2ee0-45b2-8aaf-ace772527224","coordinates":[-49.22,-21.46]},{"id":"5bc39412-4847-4072-a17f-3d77160ba12a","title":"SP - NOVAIS","tipo":"Cebraspe","url":"\/dashboard\/details-assets\/5bc39412-4847-4072-a17f-3d77160ba12a","coordinates":[-48.91,-20.99]},{"id":"86d4edb4-b4c5-4600-bb01-9ece1bb4863b","title":"SP - NOVA ODESSA","tipo":"Cebraspe","url":"\/dashboard\/details-assets\/86d4edb4-b4c5-4600-bb01-9ece1bb4863b","coordinates":[-47.29,-22.77]},{"id":"9992d77f-bf1a-4dd1-a3f8-0cc8cc2bbdba","title":"SP - NOVA LUZITANIA","tipo":"Cebraspe","url":"\/dashboard\/details-assets\/9992d77f-bf1a-4dd1-a3f8-0cc8cc2bbdba","coordinates":[-50.26,-20.85]},{"id":"b0a4542b-038f-4069-8cc1-b732046fc834","title":"SP - NOVA INDEPENDENCIA","tipo":"Cebraspe","url":"\/dashboard\/details-assets\/b0a4542b-038f-4069-8cc1-b732046fc834","coordinates":[-51.49,-21.1]},{"id":"d7e06510-69d2-49c4-ac1c-0d8d4246525d","title":"SP - NOVA GUATAPORANGA","tipo":"Cebraspe","url":"\/dashboard\/details-assets\/d7e06510-69d2-49c4-ac1c-0d8d4246525d","coordinates":[-51.64,-21.33]},{"id":"f9f91c59-be83-4321-90e6-e1aa1eef98ee","title":"SP - NOVA GRANADA","tipo":"Cebraspe","url":"\/dashboard\/details-assets\/f9f91c59-be83-4321-90e6-e1aa1eef98ee","coordinates":[-49.31,-20.53]},{"id":"d2e1aee2-a396-4d3a-bb37-2d99643be21b","title":"SP - NOVA EUROPA","tipo":"Cebraspe","url":"\/dashboard\/details-assets\/d2e1aee2-a396-4d3a-bb37-2d99643be21b","coordinates":[-48.56,-21.77]},{"id":"beac9f22-03cc-4b92-b5f1-7cfc0d7e93d2","title":"SP - NOVA CASTILHO","tipo":"Cebraspe","url":"\/dashboard\/details-assets\/beac9f22-03cc-4b92-b5f1-7cfc0d7e93d2","coordinates":[-50.34,-20.76]},{"id":"a586e0f0-f5bf-467f-b979-6797af40102a","title":"SP - NOVA CANAA PAULISTA","tipo":"Cebraspe","url":"\/dashboard\/details-assets\/a586e0f0-f5bf-467f-b979-6797af40102a","coordinates":[-50.94,-20.38]},{"id":"ee0e9257-f428-4b64-8091-bc025891ff82","title":"SP - NOVA CAMPINA","tipo":"Cebraspe","url":"\/dashboard\/details-assets\/ee0e9257-f428-4b64-8091-bc025891ff82","coordinates":[-48.9,-24.12]},{"id":"df1ef795-fa8d-48a8-b96d-c3f2d62f832e","title":"SP - NOVA ALIANCA","tipo":"Cebraspe","url":"\/dashboard\/details-assets\/df1ef795-fa8d-48a8-b96d-c3f2d62f832e","coordinates":[-49.49,-21.01]},{"id":"624e9803-9061-4d6b-bdae-459518b7f337","title":"SP - NIPOA","tipo":"Cebraspe","url":"\/dashboard\/details-assets\/624e9803-9061-4d6b-bdae-459518b7f337","coordinates":[-49.77,-20.91]},{"id":"faef6253-a3b6-4764-b095-2be3f37cdee1","title":"SP - NHANDEARA","tipo":"Cebraspe","url":"\/dashboard\/details-assets\/faef6253-a3b6-4764-b095-2be3f37cdee1","coordinates":[-50.03,-20.69]},{"id":"db100961-ecb0-4ea7-868f-3da86d1c4a3b","title":"SP - NEVES PAULISTA","tipo":"Cebraspe","url":"\/dashboard\/details-assets\/db100961-ecb0-4ea7-868f-3da86d1c4a3b","coordinates":[-49.63,-20.84]},{"id":"37412e56-f9e8-4357-a7c6-74f13094b8fe","title":"SP - NAZARE PAULISTA","tipo":"Cebraspe","url":"\/dashboard\/details-assets\/37412e56-f9e8-4357-a7c6-74f13094b8fe","coordinates":[-46.39,-23.18]},{"id":"6170faa2-b9d6-4a57-9344-cb06e6d89ea7","title":"SP - NATIVIDADE DA SERRA","tipo":"Cebraspe","url":"\/dashboard\/details-assets\/6170faa2-b9d6-4a57-9344-cb06e6d89ea7","coordinates":[-45.44,-23.37]},{"id":"bb3d3b4f-a1fc-43c5-868e-4d64755c7975","title":"SP - NARANDIBA","tipo":"Cebraspe","url":"\/dashboard\/details-assets\/bb3d3b4f-a1fc-43c5-868e-4d64755c7975","coordinates":[-51.52,-22.4]},{"id":"5ba3ce55-1a45-4b1a-a2f1-0e0d8ce73c29","title":"SP - NANTES","tipo":"Cebraspe","url":"\/dashboard\/details-assets\/5ba3ce55-1a45-4b1a-a2f1-0e0d8ce73c29","coordinates":[-51.23,-22.62]},{"id":"fdab7b7c-bb21-4164-869a-dd0efaac17e3","title":"SP - MURUTINGA DO SUL","tipo":"Cebraspe","url":"\/dashboard\/details-assets\/fdab7b7c-bb21-4164-869a-dd0efaac17e3","coordinates":[-51.27,-20.99]},{"id":"b3db3bde-57b3-4d3f-96d5-5ea84d5c6432","title":"SP - MOTUCA","tipo":"Cebraspe","url":"\/dashboard\/details-assets\/b3db3bde-57b3-4d3f-96d5-5ea84d5c6432","coordinates":[-48.15,-21.5]},{"id":"e956d754-44c1-4aaa-ac6c-1681a3efbb37","title":"SP - MORUNGABA","tipo":"Cebraspe","url":"\/dashboard\/details-assets\/e956d754-44c1-4aaa-ac6c-1681a3efbb37","coordinates":[-46.79,-22.88]},{"id":"9f64b3b5-886b-49b6-9e43-638385b25a81","title":"SP - MORRO AGUDO","tipo":"Cebraspe","url":"\/dashboard\/details-assets\/9f64b3b5-886b-49b6-9e43-638385b25a81","coordinates":[-48.05,-20.73]},{"id":"f1c218ab-e49a-4e3d-9f05-da264b644222","title":"SP - MONTE MOR","tipo":"Cebraspe","url":"\/dashboard\/details-assets\/f1c218ab-e49a-4e3d-9f05-da264b644222","coordinates":[-47.31,-22.94]},{"id":"da5e8800-df50-40ad-9541-1b0bc8583ee4","title":"SP - MONTEIRO LOBATO","tipo":"Cebraspe","url":"\/dashboard\/details-assets\/da5e8800-df50-40ad-9541-1b0bc8583ee4","coordinates":[-45.84,-22.95]},{"id":"c63e9970-c1d8-4ddd-8733-683f4616a588","title":"SP - MONTE AZUL PAULISTA","tipo":"Cebraspe","url":"\/dashboard\/details-assets\/c63e9970-c1d8-4ddd-8733-683f4616a588","coordinates":[-48.64,-20.9]},{"id":"23a8f52f-4410-4950-ab5c-79ae99d587b8","title":"SP - MONTE CASTELO","tipo":"Cebraspe","url":"\/dashboard\/details-assets\/23a8f52f-4410-4950-ab5c-79ae99d587b8","coordinates":[-51.56,-21.29]},{"id":"c53cf57c-6c6a-4992-97ec-5381ccc02c79","title":"SP - MONTE APRAZIVEL","tipo":"Cebraspe","url":"\/dashboard\/details-assets\/c53cf57c-6c6a-4992-97ec-5381ccc02c79","coordinates":[-49.71,-20.77]},{"id":"3aaeeea4-1e41-4fc7-96b3-93bf8c58bd88","title":"SP - MONTE ALEGRE DO SUL","tipo":"Cebraspe","url":"\/dashboard\/details-assets\/3aaeeea4-1e41-4fc7-96b3-93bf8c58bd88","coordinates":[-46.68,-22.68]},{"id":"99b171c0-022e-4759-b130-74562bbc777e","title":"SP - MONTE ALTO","tipo":"Cebraspe","url":"\/dashboard\/details-assets\/99b171c0-022e-4759-b130-74562bbc777e","coordinates":[-48.49,-21.26]},{"id":"6cdd7db3-91b0-495e-9db2-4c5e9d1bc3b8","title":"SP - MONCOES","tipo":"Cebraspe","url":"\/dashboard\/details-assets\/6cdd7db3-91b0-495e-9db2-4c5e9d1bc3b8","coordinates":[-50.09,-20.85]},{"id":"dd5fe5b5-6eef-4627-8692-0f6afcfaca14","title":"SP - MONGAGUA","tipo":"Cebraspe","url":"\/dashboard\/details-assets\/dd5fe5b5-6eef-4627-8692-0f6afcfaca14","coordinates":[-46.62,-24.08]},{"id":"16bc65bf-f616-44ef-9043-eb6297561a8c","title":"SP - MOMBUCA","tipo":"Cebraspe","url":"\/dashboard\/details-assets\/16bc65bf-f616-44ef-9043-eb6297561a8c","coordinates":[-47.56,-22.92]},{"id":"d96d3ab5-3b12-41e2-801f-62c874d69d2b","title":"SP - MOGI MIRIM","tipo":"Cebraspe","url":"\/dashboard\/details-assets\/d96d3ab5-3b12-41e2-801f-62c874d69d2b","coordinates":[-46.95,-22.43]},{"id":"4c2e8724-94f2-43d2-8a87-5378f603abe3","title":"SP - MOGI DAS CRUZES","tipo":"Cebraspe","url":"\/dashboard\/details-assets\/4c2e8724-94f2-43d2-8a87-5378f603abe3","coordinates":[-46.18,-23.52]},{"id":"26133675-8938-4030-86f0-6e68cf653891","title":"SP - MOGI GUACU","tipo":"Cebraspe","url":"\/dashboard\/details-assets\/26133675-8938-4030-86f0-6e68cf653891","coordinates":[-46.94,-22.37]},{"id":"d5c49606-1111-48f7-8ffe-4ba3e22d12a7","title":"SP - MIRASSOLANDIA","tipo":"Cebraspe","url":"\/dashboard\/details-assets\/d5c49606-1111-48f7-8ffe-4ba3e22d12a7","coordinates":[-49.46,-20.61]},{"id":"a14ada89-0474-41d0-8af4-cd6fa108445b","title":"SP - MOCOCA","tipo":"Cebraspe","url":"\/dashboard\/details-assets\/a14ada89-0474-41d0-8af4-cd6fa108445b","coordinates":[-47,-21.46]},{"id":"e7f109eb-e1f8-430b-b012-10ad9e0b92c7","title":"SP - MIRANTE DO PARANAPANEMA","tipo":"Cebraspe","url":"\/dashboard\/details-assets\/e7f109eb-e1f8-430b-b012-10ad9e0b92c7","coordinates":[-51.9,-22.29]},{"id":"fdb3224c-4cf9-4a58-b494-fb6f26820b91","title":"SP - MIRASSOL","tipo":"Cebraspe","url":"\/dashboard\/details-assets\/fdb3224c-4cf9-4a58-b494-fb6f26820b91","coordinates":[-49.52,-20.81]},{"id":"d7435579-852f-42f0-bbfb-6021ff7617dd","title":"SP - MIRANDOPOLIS","tipo":"Cebraspe","url":"\/dashboard\/details-assets\/d7435579-852f-42f0-bbfb-6021ff7617dd","coordinates":[-51.1,-21.13]},{"id":"499c706c-e928-4b46-b2eb-90f9c2c1868c","title":"SP - MIRACATU","tipo":"Cebraspe","url":"\/dashboard\/details-assets\/499c706c-e928-4b46-b2eb-90f9c2c1868c","coordinates":[-47.46,-24.28]},{"id":"64a0546e-2c14-4206-bb66-e60ec2a9bd34","title":"SP - MINEIROS DO TIETE","tipo":"Cebraspe","url":"\/dashboard\/details-assets\/64a0546e-2c14-4206-bb66-e60ec2a9bd34","coordinates":[-48.45,-22.4]},{"id":"de33931c-1f8d-410e-80ef-299661bcb7a1","title":"SP - MIRA ESTRELA","tipo":"Cebraspe","url":"\/dashboard\/details-assets\/de33931c-1f8d-410e-80ef-299661bcb7a1","coordinates":[-50.13,-19.97]},{"id":"dd78f485-2fbb-4b34-b9cb-e37a8f8683e4","title":"SP - MIGUELOPOLIS","tipo":"Cebraspe","url":"\/dashboard\/details-assets\/dd78f485-2fbb-4b34-b9cb-e37a8f8683e4","coordinates":[-48.03,-20.17]},{"id":"95dde051-93e9-4250-9447-f77610ebecf6","title":"SP - MESOPOLIS","tipo":"Cebraspe","url":"\/dashboard\/details-assets\/95dde051-93e9-4250-9447-f77610ebecf6","coordinates":[-50.63,-19.96]},{"id":"e7d2e1d2-8b8d-491c-a2f7-26b8a4f504c2","title":"SP - MERIDIANO","tipo":"Cebraspe","url":"\/dashboard\/details-assets\/e7d2e1d2-8b8d-491c-a2f7-26b8a4f504c2","coordinates":[-50.17,-20.35]},{"id":"7587e7a2-4a91-4fd9-adcc-1003293fba13","title":"SP - MENDONCA","tipo":"Cebraspe","url":"\/dashboard\/details-assets\/7587e7a2-4a91-4fd9-adcc-1003293fba13","coordinates":[-49.58,-21.16]},{"id":"d57e18ad-cb9c-4978-bd2e-7a2e367d5655","title":"SP - MAUA","tipo":"Cebraspe","url":"\/dashboard\/details-assets\/d57e18ad-cb9c-4978-bd2e-7a2e367d5655","coordinates":[-46.46,-23.66]},{"id":"1f66f594-b666-4113-99a8-24e84c21ed81","title":"SP - MATAO","tipo":"Cebraspe","url":"\/dashboard\/details-assets\/1f66f594-b666-4113-99a8-24e84c21ed81","coordinates":[-48.36,-21.6]},{"id":"19b6cab9-64d8-4ef9-8543-4b5226e4bfa6","title":"SP - MARTINOPOLIS","tipo":"Cebraspe","url":"\/dashboard\/details-assets\/19b6cab9-64d8-4ef9-8543-4b5226e4bfa6","coordinates":[-51.17,-22.14]},{"id":"2b5be118-4d47-4a1b-94a7-f681a998eab1","title":"SP - MARINOPOLIS","tipo":"Cebraspe","url":"\/dashboard\/details-assets\/2b5be118-4d47-4a1b-94a7-f681a998eab1","coordinates":[-50.82,-20.44]},{"id":"c3110588-3515-4930-8b4f-e0874ba5840c","title":"SP - MARILIA","tipo":"Cebraspe","url":"\/dashboard\/details-assets\/c3110588-3515-4930-8b4f-e0874ba5840c","coordinates":[-49.94,-22.21]},{"id":"763b306a-2183-49cb-8f15-ba30760754a8","title":"SP - MARIAPOLIS","tipo":"Cebraspe","url":"\/dashboard\/details-assets\/763b306a-2183-49cb-8f15-ba30760754a8","coordinates":[-51.18,-21.79]},{"id":"00de8fa1-5359-4df5-822b-742588951c91","title":"SP - MARACAI","tipo":"Cebraspe","url":"\/dashboard\/details-assets\/00de8fa1-5359-4df5-822b-742588951c91","coordinates":[-50.66,-22.61]},{"id":"cb19bcb5-cb6c-4021-9591-3c5a1fc1e489","title":"SP - MARAPOAMA","tipo":"Cebraspe","url":"\/dashboard\/details-assets\/cb19bcb5-cb6c-4021-9591-3c5a1fc1e489","coordinates":[-49.12,-21.25]},{"id":"74afd8c3-3a1b-4b15-99b4-9495fb21dbb7","title":"SP - MANDURI","tipo":"Cebraspe","url":"\/dashboard\/details-assets\/74afd8c3-3a1b-4b15-99b4-9495fb21dbb7","coordinates":[-49.32,-23]},{"id":"dab81e67-a3c2-4f71-892e-1cda7e6458ce","title":"SP - MARABA PAULISTA","tipo":"Cebraspe","url":"\/dashboard\/details-assets\/dab81e67-a3c2-4f71-892e-1cda7e6458ce","coordinates":[-51.96,-22.1]},{"id":"9bfb7f41-af57-45a5-98be-36f7de04c362","title":"SP - MAIRIPORA","tipo":"Cebraspe","url":"\/dashboard\/details-assets\/9bfb7f41-af57-45a5-98be-36f7de04c362","coordinates":[-46.58,-23.31]},{"id":"798a1d20-a34d-4736-8dd8-16086a79f1c7","title":"SP - MAIRINQUE","tipo":"Cebraspe","url":"\/dashboard\/details-assets\/798a1d20-a34d-4736-8dd8-16086a79f1c7","coordinates":[-47.18,-23.54]},{"id":"3aa00ebc-f544-405b-86c9-e94728df6a99","title":"SP - MACEDONIA","tipo":"Cebraspe","url":"\/dashboard\/details-assets\/3aa00ebc-f544-405b-86c9-e94728df6a99","coordinates":[-50.19,-20.14]},{"id":"8c11111e-ce05-42a4-ba7f-91b16c62734f","title":"SP - MAGDA","tipo":"Cebraspe","url":"\/dashboard\/details-assets\/8c11111e-ce05-42a4-ba7f-91b16c62734f","coordinates":[-50.22,-20.64]},{"id":"fe7e2751-3cdb-49b7-a179-270d96b16a8d","title":"SP - MACAUBAL","tipo":"Cebraspe","url":"\/dashboard\/details-assets\/fe7e2751-3cdb-49b7-a179-270d96b16a8d","coordinates":[-49.96,-20.8]},{"id":"b5e44b23-3a8c-4e9e-b636-c73a13bf86e5","title":"SP - MACATUBA","tipo":"Cebraspe","url":"\/dashboard\/details-assets\/b5e44b23-3a8c-4e9e-b636-c73a13bf86e5","coordinates":[-48.71,-22.5]},{"id":"c3d0fcd3-71ad-416f-bc91-93d3add90e6b","title":"SP - LUPERCIO","tipo":"Cebraspe","url":"\/dashboard\/details-assets\/c3d0fcd3-71ad-416f-bc91-93d3add90e6b","coordinates":[-49.81,-22.41]},{"id":"4b9d5cb2-e806-459a-9b44-6313cea96a95","title":"SP - LUTECIA","tipo":"Cebraspe","url":"\/dashboard\/details-assets\/4b9d5cb2-e806-459a-9b44-6313cea96a95","coordinates":[-50.39,-22.34]},{"id":"4225113c-7918-4fa8-9c89-71cffad4b25e","title":"SP - LUIZIANIA","tipo":"Cebraspe","url":"\/dashboard\/details-assets\/4225113c-7918-4fa8-9c89-71cffad4b25e","coordinates":[-50.32,-21.67]},{"id":"ad27ee33-2b47-4150-ae9a-dad22622be82","title":"SP - LUIS ANTONIO","tipo":"Cebraspe","url":"\/dashboard\/details-assets\/ad27ee33-2b47-4150-ae9a-dad22622be82","coordinates":[-47.7,-21.55]},{"id":"fd90a691-9a0e-4b2c-9dd8-011a80513ccb","title":"SP - LUCELIA","tipo":"Cebraspe","url":"\/dashboard\/details-assets\/fd90a691-9a0e-4b2c-9dd8-011a80513ccb","coordinates":[-51.01,-21.72]},{"id":"a6801167-0104-4209-b152-20872ebe686e","title":"SP - LUCIANOPOLIS","tipo":"Cebraspe","url":"\/dashboard\/details-assets\/a6801167-0104-4209-b152-20872ebe686e","coordinates":[-49.52,-22.43]},{"id":"252335b7-0000-4592-a4d5-3c512c4b23a2","title":"SP - LOUVEIRA","tipo":"Cebraspe","url":"\/dashboard\/details-assets\/252335b7-0000-4592-a4d5-3c512c4b23a2","coordinates":[-46.95,-23.08]},{"id":"d24326eb-adb2-41f6-b497-10a1dac177b9","title":"SP - LOURDES","tipo":"Cebraspe","url":"\/dashboard\/details-assets\/d24326eb-adb2-41f6-b497-10a1dac177b9","coordinates":[-50.22,-20.96]},{"id":"1647735f-9c2e-40ca-8193-6581593906c4","title":"SP - LORENA","tipo":"Cebraspe","url":"\/dashboard\/details-assets\/1647735f-9c2e-40ca-8193-6581593906c4","coordinates":[-45.12,-22.73]},{"id":"6f53bbd2-52cd-4957-b49c-4acedbb26416","title":"SP - LINS","tipo":"Cebraspe","url":"\/dashboard\/details-assets\/6f53bbd2-52cd-4957-b49c-4acedbb26416","coordinates":[-49.74,-21.67]},{"id":"43d4f564-d177-4bc3-9981-e497fde61f10","title":"SP - LINDOIA","tipo":"Cebraspe","url":"\/dashboard\/details-assets\/43d4f564-d177-4bc3-9981-e497fde61f10","coordinates":[-46.65,-22.52]},{"id":"1afaa52c-5587-43f3-bc40-b7fcfbeb7ef5","title":"SP - LIMEIRA","tipo":"Cebraspe","url":"\/dashboard\/details-assets\/1afaa52c-5587-43f3-bc40-b7fcfbeb7ef5","coordinates":[-47.4,-22.56]},{"id":"3f8ed21c-9fbe-43ca-b9cd-6cbfc1fefc08","title":"SP - LEME","tipo":"Cebraspe","url":"\/dashboard\/details-assets\/3f8ed21c-9fbe-43ca-b9cd-6cbfc1fefc08","coordinates":[-47.39,-22.18]},{"id":"874387f9-9669-4985-8232-d73d01b946d1","title":"SP - LENCOIS PAULISTA","tipo":"Cebraspe","url":"\/dashboard\/details-assets\/874387f9-9669-4985-8232-d73d01b946d1","coordinates":[-48.8,-22.59]},{"id":"39aed503-3a26-4182-85c2-f3b7bfaf04b3","title":"SP - LAVINIA","tipo":"Cebraspe","url":"\/dashboard\/details-assets\/39aed503-3a26-4182-85c2-f3b7bfaf04b3","coordinates":[-51.04,-21.16]},{"id":"c99c5e34-dcef-4c85-9b6e-a4d241e7c7f0","title":"SP - LAVRINHAS","tipo":"Cebraspe","url":"\/dashboard\/details-assets\/c99c5e34-dcef-4c85-9b6e-a4d241e7c7f0","coordinates":[-44.9,-22.57]},{"id":"6f754cd1-2b8a-4ab1-a323-6e7a54c2c52f","title":"SP - LARANJAL PAULISTA","tipo":"Cebraspe","url":"\/dashboard\/details-assets\/6f754cd1-2b8a-4ab1-a323-6e7a54c2c52f","coordinates":[-47.83,-23.05]},{"id":"fcd8af1e-eb32-4262-9c0e-7237f055f925","title":"SP - LAGOINHA","tipo":"Cebraspe","url":"\/dashboard\/details-assets\/fcd8af1e-eb32-4262-9c0e-7237f055f925","coordinates":[-45.19,-23.09]},{"id":"16858667-1fd3-447a-8dbc-33a5d145a843","title":"SP - JUQUITIBA","tipo":"Cebraspe","url":"\/dashboard\/details-assets\/16858667-1fd3-447a-8dbc-33a5d145a843","coordinates":[-47.06,-23.93]},{"id":"74ee00a4-2e6c-4d51-8469-e0ed340a0064","title":"SP - JUQUIA","tipo":"Cebraspe","url":"\/dashboard\/details-assets\/74ee00a4-2e6c-4d51-8469-e0ed340a0064","coordinates":[-47.63,-24.32]},{"id":"cf3a7c6b-2e2c-4731-85f8-4e90b801f1d7","title":"SP - JUNQUEIROPOLIS","tipo":"Cebraspe","url":"\/dashboard\/details-assets\/cf3a7c6b-2e2c-4731-85f8-4e90b801f1d7","coordinates":[-51.43,-21.51]},{"id":"906004b7-8716-47a3-983b-2c9acf2ea780","title":"SP - JUNDIAI","tipo":"Cebraspe","url":"\/dashboard\/details-assets\/906004b7-8716-47a3-983b-2c9acf2ea780","coordinates":[-46.88,-23.18]},{"id":"4cd39f6c-cc35-4c17-aaef-439e24e00ab7","title":"SP - JULIO MESQUITA","tipo":"Cebraspe","url":"\/dashboard\/details-assets\/4cd39f6c-cc35-4c17-aaef-439e24e00ab7","coordinates":[-49.78,-22]},{"id":"00a1280e-19b9-492d-91a2-d84d7a917081","title":"SP - JUMIRIM","tipo":"Cebraspe","url":"\/dashboard\/details-assets\/00a1280e-19b9-492d-91a2-d84d7a917081","coordinates":[-47.78,-23.08]},{"id":"74d48407-c2c6-4f8e-bd45-50d1e53e53e9","title":"SP - JOSE BONIFACIO","tipo":"Cebraspe","url":"\/dashboard\/details-assets\/74d48407-c2c6-4f8e-bd45-50d1e53e53e9","coordinates":[-49.68,-21.05]},{"id":"39ffb15d-47d8-475d-bc8a-8f25bcf863f7","title":"SP - JOAO RAMALHO","tipo":"Cebraspe","url":"\/dashboard\/details-assets\/39ffb15d-47d8-475d-bc8a-8f25bcf863f7","coordinates":[-50.76,-22.25]},{"id":"252359b5-743a-4302-bbc3-5f27a4d0ed2c","title":"SP - JERIQUARA","tipo":"Cebraspe","url":"\/dashboard\/details-assets\/252359b5-743a-4302-bbc3-5f27a4d0ed2c","coordinates":[-47.58,-20.31]},{"id":"5fe17500-8330-4298-aca9-1f7c8974ca18","title":"SP - JOANOPOLIS","tipo":"Cebraspe","url":"\/dashboard\/details-assets\/5fe17500-8330-4298-aca9-1f7c8974ca18","coordinates":[-46.27,-22.93]},{"id":"39c15446-a2ff-4edd-8f51-03729117a3ae","title":"SP - JARINU","tipo":"Cebraspe","url":"\/dashboard\/details-assets\/39c15446-a2ff-4edd-8f51-03729117a3ae","coordinates":[-46.72,-23.1]},{"id":"58d004a5-37f1-401e-8c1f-e4d74860730e","title":"SP - JAU","tipo":"Cebraspe","url":"\/dashboard\/details-assets\/58d004a5-37f1-401e-8c1f-e4d74860730e","coordinates":[-48.55,-22.29]},{"id":"8926dd89-84cd-4a72-ac35-0af7a45c2054","title":"SP - JARDINOPOLIS","tipo":"Cebraspe","url":"\/dashboard\/details-assets\/8926dd89-84cd-4a72-ac35-0af7a45c2054","coordinates":[-47.76,-21.01]},{"id":"2669bb7f-cc54-44ca-aef2-2b2db12bb5db","title":"SP - JANDIRA","tipo":"Cebraspe","url":"\/dashboard\/details-assets\/2669bb7f-cc54-44ca-aef2-2b2db12bb5db","coordinates":[-46.9,-23.52]},{"id":"85ffb22c-4cbd-4854-800b-0b2d36ed3099","title":"SP - JAMBEIRO","tipo":"Cebraspe","url":"\/dashboard\/details-assets\/85ffb22c-4cbd-4854-800b-0b2d36ed3099","coordinates":[-45.68,-23.25]},{"id":"20338e04-661d-4e4d-a1c7-57b55cfb0d0e","title":"SP - JALES","tipo":"Cebraspe","url":"\/dashboard\/details-assets\/20338e04-661d-4e4d-a1c7-57b55cfb0d0e","coordinates":[-50.54,-20.26]},{"id":"2f378c90-ea02-4300-818b-09ed3ccc64ab","title":"SP - JACUPIRANGA","tipo":"Cebraspe","url":"\/dashboard\/details-assets\/2f378c90-ea02-4300-818b-09ed3ccc64ab","coordinates":[-48,-24.69]},{"id":"349300c3-f7ff-4769-a1e1-d042f4e8cd74","title":"SP - JAGUARIUNA","tipo":"Cebraspe","url":"\/dashboard\/details-assets\/349300c3-f7ff-4769-a1e1-d042f4e8cd74","coordinates":[-46.98,-22.7]},{"id":"522df4d5-72e8-4d13-8be5-12c21e197914","title":"SP - JACI","tipo":"Cebraspe","url":"\/dashboard\/details-assets\/522df4d5-72e8-4d13-8be5-12c21e197914","coordinates":[-49.57,-20.88]},{"id":"47f8600c-3442-4433-b024-adf01bf625af","title":"SP - JACAREI","tipo":"Cebraspe","url":"\/dashboard\/details-assets\/47f8600c-3442-4433-b024-adf01bf625af","coordinates":[-45.96,-23.3]},{"id":"14c5665e-273b-478e-bf4b-54d44045d270","title":"SP - JABOTICABAL","tipo":"Cebraspe","url":"\/dashboard\/details-assets\/14c5665e-273b-478e-bf4b-54d44045d270","coordinates":[-48.32,-21.25]},{"id":"2e4ae10c-a6b1-4530-80d9-fcb3ef49232d","title":"SP - JABORANDI","tipo":"Cebraspe","url":"\/dashboard\/details-assets\/2e4ae10c-a6b1-4530-80d9-fcb3ef49232d","coordinates":[-48.41,-20.68]},{"id":"e915be67-db1a-4b66-9c33-291dbdb9ba65","title":"SP - ITUPEVA","tipo":"Cebraspe","url":"\/dashboard\/details-assets\/e915be67-db1a-4b66-9c33-291dbdb9ba65","coordinates":[-47.05,-23.15]},{"id":"b4268771-4e1d-44e4-9c8f-3eaf7ad95053","title":"SP - ITUVERAVA","tipo":"Cebraspe","url":"\/dashboard\/details-assets\/b4268771-4e1d-44e4-9c8f-3eaf7ad95053","coordinates":[-47.78,-20.33]},{"id":"c13dd0f9-d718-4b76-9362-bbc38ae9ad5f","title":"SP - ITU","tipo":"Cebraspe","url":"\/dashboard\/details-assets\/c13dd0f9-d718-4b76-9362-bbc38ae9ad5f","coordinates":[-47.29,-23.26]},{"id":"77d86051-5b8f-4343-8842-3514f922c536","title":"SP - ITOBI","tipo":"Cebraspe","url":"\/dashboard\/details-assets\/77d86051-5b8f-4343-8842-3514f922c536","coordinates":[-46.97,-21.73]},