[{"id":"1c95cb4f-b3c2-4428-b958-7bc5e8c56d0a","title":"SP - SAO PAULO","tipo":null,"url":"\/dashboard\/details-assets\/1c95cb4f-b3c2-4428-b958-7bc5e8c56d0a","coordinates":[-46.5703831821128,-23.567386499308]},{"id":"a7eeaea2-8706-4c96-a677-289c5764aba3","title":"RS - PORTO ALEGRE","tipo":null,"url":"\/dashboard\/details-assets\/a7eeaea2-8706-4c96-a677-289c5764aba3","coordinates":[-51.2176584,-30.0346471]},{"id":"711d4a31-d919-4a7f-b072-31b287015243","title":"RJ - RIO DE JANEIRO","tipo":null,"url":"\/dashboard\/details-assets\/711d4a31-d919-4a7f-b072-31b287015243","coordinates":[-43.209228515625,-22.9160255902384]},{"id":"4ca289d1-9992-4566-8b80-3343c0bb9f56","title":"PI - TERESINA","tipo":null,"url":"\/dashboard\/details-assets\/4ca289d1-9992-4566-8b80-3343c0bb9f56","coordinates":[-42.8052704582233,-5.08634195215484]},{"id":"e5541687-e004-48f1-9eb0-12747c6a5391","title":"PR - CURITIBA","tipo":null,"url":"\/dashboard\/details-assets\/e5541687-e004-48f1-9eb0-12747c6a5391","coordinates":[-49.2718478850774,-25.4329559992677]},{"id":"2b530acd-c443-4952-80e4-a3ea248caed7","title":"MG - BELO HORIZONTE","tipo":null,"url":"\/dashboard\/details-assets\/2b530acd-c443-4952-80e4-a3ea248caed7","coordinates":[-43.9264531735305,-19.9375242931696]},{"id":"0577b6f8-cf18-42f8-a462-a3de7dad195f","title":"MS - CAMPO GRANDE","tipo":null,"url":"\/dashboard\/details-assets\/0577b6f8-cf18-42f8-a462-a3de7dad195f","coordinates":[-54.6157435664588,-20.4580299872454]},{"id":"06d9428e-3138-46a9-9a71-f3ac0fc5fa07","title":"DF - BRASILIA","tipo":null,"url":"\/dashboard\/details-assets\/06d9428e-3138-46a9-9a71-f3ac0fc5fa07","coordinates":[-47.8821658,-15.7942287]},{"id":"96fd9328-fde7-4c05-9377-f32afcfeb300","title":"CE - FORTALEZA","tipo":null,"url":"\/dashboard\/details-assets\/96fd9328-fde7-4c05-9377-f32afcfeb300","coordinates":[-38.5899275550432,-3.72380503487754]},{"id":"44993cf2-8962-4e8a-892e-2b9a3b421aad","title":"AM - MANAUS","tipo":null,"url":"\/dashboard\/details-assets\/44993cf2-8962-4e8a-892e-2b9a3b421aad","coordinates":[-60.023335181061,-3.13469149109877]}]