[{"id":"1c002a48-de71-4d01-8e99-fda6dab8697d","title":"TO - XAMBIOA","tipo":null,"url":"\/dashboard\/details-assets\/1c002a48-de71-4d01-8e99-fda6dab8697d","coordinates":[-48.4387577,-6.5348814]},{"id":"cb192481-97ad-42d0-bb8b-e5947f33b580","title":"TO - WANDERLANDIA","tipo":null,"url":"\/dashboard\/details-assets\/cb192481-97ad-42d0-bb8b-e5947f33b580","coordinates":[-47.9879822890625,-6.85203354754569]},{"id":"aea1bd15-eaed-4995-9bb4-6276185a56bc","title":"TO - TALISMA","tipo":null,"url":"\/dashboard\/details-assets\/aea1bd15-eaed-4995-9bb4-6276185a56bc","coordinates":[-49.09,-12.79]},{"id":"5efffa6c-53b3-4159-b93e-a7cdf1d06930","title":"TO - TAGUATINGA","tipo":null,"url":"\/dashboard\/details-assets\/5efffa6c-53b3-4159-b93e-a7cdf1d06930","coordinates":[-46.4340888,-12.4060068]},{"id":"131df56b-5af5-4231-8c59-62f63e4bab67","title":"TO - TOCANTINOPOLIS","tipo":null,"url":"\/dashboard\/details-assets\/131df56b-5af5-4231-8c59-62f63e4bab67","coordinates":[-47.4294977,-6.324747]},{"id":"ba39cd4f-bdad-420c-81e8-c83c225aab6c","title":"TO - PORTO NACIONAL","tipo":null,"url":"\/dashboard\/details-assets\/ba39cd4f-bdad-420c-81e8-c83c225aab6c","coordinates":[-48.4084858,-10.703164]},{"id":"7673c1b0-4daa-47b5-8ae1-63f1a0a3af76","title":"TO - SANTA FE DO ARAGUAIA","tipo":null,"url":"\/dashboard\/details-assets\/7673c1b0-4daa-47b5-8ae1-63f1a0a3af76","coordinates":[-48.72,-7.15]},{"id":"b27ecb2d-b379-4e9d-b291-73037ce52155","title":"TO - PIUM","tipo":null,"url":"\/dashboard\/details-assets\/b27ecb2d-b379-4e9d-b291-73037ce52155","coordinates":[-49.1798964,-10.4427779]},{"id":"bcb52562-c0f8-44b1-9fda-e35fa9b050db","title":"TO - PARAISO DO TOCANTINS","tipo":null,"url":"\/dashboard\/details-assets\/bcb52562-c0f8-44b1-9fda-e35fa9b050db","coordinates":[-48.8749632890625,-10.1022178708894]},{"id":"d7b79a11-1a76-42fe-b5eb-eb7261c8dd62","title":"TO - PEIXE","tipo":null,"url":"\/dashboard\/details-assets\/d7b79a11-1a76-42fe-b5eb-eb7261c8dd62","coordinates":[-48.5486964,-12.0258526]},{"id":"94cbba7d-329a-42c8-ac53-7ab5efa1985a","title":"TO - PEDRO AFONSO","tipo":null,"url":"\/dashboard\/details-assets\/94cbba7d-329a-42c8-ac53-7ab5efa1985a","coordinates":[-48.1789749726562,-8.96294299493553]},{"id":"bbb74ca6-d93d-48ea-a115-57919de466d6","title":"TO - PALMAS","tipo":null,"url":"\/dashboard\/details-assets\/bbb74ca6-d93d-48ea-a115-57919de466d6","coordinates":[-48.3170359140625,-10.2302993132777]},{"id":"54dae979-d242-4bb7-b438-e8e95d9d1abe","title":"TO - PALMEIROPOLIS","tipo":null,"url":"\/dashboard\/details-assets\/54dae979-d242-4bb7-b438-e8e95d9d1abe","coordinates":[-48.4,-13.04]},{"id":"052ed8e3-aa7c-4b37-913c-140fdd0eff28","title":"TO - MIRANORTE","tipo":null,"url":"\/dashboard\/details-assets\/052ed8e3-aa7c-4b37-913c-140fdd0eff28","coordinates":[-48.5952299480469,-9.5164249529529]},{"id":"27cbc73f-2e12-4749-8530-6837582236a9","title":"TO - NOVO ALEGRE","tipo":null,"url":"\/dashboard\/details-assets\/27cbc73f-2e12-4749-8530-6837582236a9","coordinates":[-46.574058,-12.9002047]},{"id":"a482afd4-1b6b-4dea-8e2d-0b4f07a42c80","title":"TO - LAJEADO","tipo":null,"url":"\/dashboard\/details-assets\/a482afd4-1b6b-4dea-8e2d-0b4f07a42c80","coordinates":[-48.35,-9.75]},{"id":"02cbad13-0070-457f-aa2a-36a659eff188","title":"TO - MIRACEMA DO TOCANTINS","tipo":null,"url":"\/dashboard\/details-assets\/02cbad13-0070-457f-aa2a-36a659eff188","coordinates":[-48.393409,-9.5659692]},{"id":"9020bca7-4277-4975-bedf-b15918f8899f","title":"TO - LUZINOPOLIS","tipo":null,"url":"\/dashboard\/details-assets\/9020bca7-4277-4975-bedf-b15918f8899f","coordinates":[-47.8606275,-6.1900539]},{"id":"8e408528-f961-42bc-aef5-e7064506762c","title":"TO - GUARAI","tipo":null,"url":"\/dashboard\/details-assets\/8e408528-f961-42bc-aef5-e7064506762c","coordinates":[-48.511861,-8.8358375]},{"id":"3e5573b5-4ce5-45e6-90b8-a75e2946d2ea","title":"TO - GURUPI","tipo":null,"url":"\/dashboard\/details-assets\/3e5573b5-4ce5-45e6-90b8-a75e2946d2ea","coordinates":[-49.06,-11.72]},{"id":"2691bb56-928b-4b86-88d0-cdbddee4c5f4","title":"TO - DIANOPOLIS","tipo":null,"url":"\/dashboard\/details-assets\/2691bb56-928b-4b86-88d0-cdbddee4c5f4","coordinates":[-46.825933703125,-11.7480617579576]},{"id":"42fe1084-5b3c-49c8-801a-cef787f69738","title":"TO - CRISTALANDIA","tipo":null,"url":"\/dashboard\/details-assets\/42fe1084-5b3c-49c8-801a-cef787f69738","coordinates":[-49.2213807734375,-10.5799465392555]},{"id":"baca9416-7889-4024-b7e8-4797eb811d80","title":"TO - FORMOSO DO ARAGUAIA","tipo":null,"url":"\/dashboard\/details-assets\/baca9416-7889-4024-b7e8-4797eb811d80","coordinates":[-49.5366012,-11.8057599]},{"id":"78484f64-98f9-4945-8316-c8b3b7620c22","title":"TO - CARIRI DO TOCANTINS","tipo":null,"url":"\/dashboard\/details-assets\/78484f64-98f9-4945-8316-c8b3b7620c22","coordinates":[-49.1625989,-11.9598899]},{"id":"11b29466-c092-4a81-9100-f4a0d170d914","title":"TO - COLMEIA","tipo":null,"url":"\/dashboard\/details-assets\/11b29466-c092-4a81-9100-f4a0d170d914","coordinates":[-48.7689258371094,-8.71691408780074]},{"id":"eb5f3940-62c3-4893-b27c-c6dfa462b803","title":"TO - COLINAS DO TOCANTINS","tipo":null,"url":"\/dashboard\/details-assets\/eb5f3940-62c3-4893-b27c-c6dfa462b803","coordinates":[-48.4485905,-7.99054549221896]},{"id":"c6d16e85-67b0-478c-a999-a865d6d83d25","title":"TO - BARROLANDIA","tipo":null,"url":"\/dashboard\/details-assets\/c6d16e85-67b0-478c-a999-a865d6d83d25","coordinates":[-48.7285037277344,-9.82362514573541]},{"id":"bea71ec6-9497-4c2f-94b7-97bdfb4aee7d","title":"TO - BERNARDO SAYAO","tipo":null,"url":"\/dashboard\/details-assets\/bea71ec6-9497-4c2f-94b7-97bdfb4aee7d","coordinates":[-48.8945273,-7.8818515]},{"id":"8897ea21-3d3d-4d70-ba78-3c479d78fa26","title":"TO - BABACULANDIA","tipo":null,"url":"\/dashboard\/details-assets\/8897ea21-3d3d-4d70-ba78-3c479d78fa26","coordinates":[-47.759016,-7.2032092]},{"id":"ae04bf56-b1af-47f8-bf03-4b2f970197e9","title":"TO - AUGUSTINOPOLIS","tipo":null,"url":"\/dashboard\/details-assets\/ae04bf56-b1af-47f8-bf03-4b2f970197e9","coordinates":[-47.88,-5.46]},{"id":"c7da161f-1cd4-4189-b70e-b16f0fdbb4f7","title":"TO - ARAPOEMA","tipo":null,"url":"\/dashboard\/details-assets\/c7da161f-1cd4-4189-b70e-b16f0fdbb4f7","coordinates":[-49.06,-7.65]},{"id":"0ce3e4e7-bdda-4b97-87cc-a75cec1d3496","title":"TO - ARRAIAS","tipo":null,"url":"\/dashboard\/details-assets\/0ce3e4e7-bdda-4b97-87cc-a75cec1d3496","coordinates":[-46.9805103,-12.6770601]},{"id":"259e7005-409a-4930-8896-d32b91103fbb","title":"TO - ARAGUAINA","tipo":null,"url":"\/dashboard\/details-assets\/259e7005-409a-4930-8896-d32b91103fbb","coordinates":[-48.2874074,-7.2109414]},{"id":"1bea2747-811e-4bbe-9fd7-9227f16c1a48","title":"TO - ARAGUATINS","tipo":null,"url":"\/dashboard\/details-assets\/1bea2747-811e-4bbe-9fd7-9227f16c1a48","coordinates":[-48.1193893,-5.6484113]},{"id":"c602d9f1-8e67-4559-bad5-65a9ec0d8eea","title":"TO - ARAGUACU","tipo":null,"url":"\/dashboard\/details-assets\/c602d9f1-8e67-4559-bad5-65a9ec0d8eea","coordinates":[-49.82,-12.93]},{"id":"cb298277-675e-47c7-9c0c-d3a272e3c616","title":"TO - ANANAS","tipo":null,"url":"\/dashboard\/details-assets\/cb298277-675e-47c7-9c0c-d3a272e3c616","coordinates":[-48.0705306839844,-6.35184785303923]},{"id":"db459bf7-72c1-40af-9725-74139838345f","title":"SE - SAO CRISTOVAO","tipo":null,"url":"\/dashboard\/details-assets\/db459bf7-72c1-40af-9725-74139838345f","coordinates":[-37.2,-11.01]},{"id":"a812d9a9-fc3f-4a37-9727-37b284763c03","title":"SE - NOSSA SENHORA DA GLORIA","tipo":null,"url":"\/dashboard\/details-assets\/a812d9a9-fc3f-4a37-9727-37b284763c03","coordinates":[-37.42,-10.21]},{"id":"d923f621-315d-42fb-b2ca-596b92c313b1","title":"SE - NOSSA SENHORA DO SOCORRO","tipo":null,"url":"\/dashboard\/details-assets\/d923f621-315d-42fb-b2ca-596b92c313b1","coordinates":[-37.1269791,-10.8531643]},{"id":"d2c528e9-6908-4c15-bf2e-e10bf471a226","title":"SE - ESTANCIA","tipo":null,"url":"\/dashboard\/details-assets\/d2c528e9-6908-4c15-bf2e-e10bf471a226","coordinates":[-37.43854,-11.268661]},{"id":"0589e3b3-3272-4864-85ab-74db8c14d0f7","title":"SE - AREIA BRANCA","tipo":null,"url":"\/dashboard\/details-assets\/0589e3b3-3272-4864-85ab-74db8c14d0f7","coordinates":[-37.329580128125,-10.7520532110041]},{"id":"c5756e43-64b6-40a1-9f94-e07fd3b42568","title":"SE - ARACAJU","tipo":null,"url":"\/dashboard\/details-assets\/c5756e43-64b6-40a1-9f94-e07fd3b42568","coordinates":[-37.0730823,-10.9472468]},{"id":"19418e33-b1e1-4eab-85ae-91efd433a787","title":"SP - VOTORANTIM","tipo":null,"url":"\/dashboard\/details-assets\/19418e33-b1e1-4eab-85ae-91efd433a787","coordinates":[-47.4445978,-23.540286]},{"id":"338025db-e688-48a9-abc9-933846b389e6","title":"SP - VALPARAISO","tipo":null,"url":"\/dashboard\/details-assets\/338025db-e688-48a9-abc9-933846b389e6","coordinates":[-50.8593077,-21.2294354]},{"id":"00c2e398-0c56-4b46-ad6b-87bfb4291427","title":"SP - TUPI PAULISTA","tipo":null,"url":"\/dashboard\/details-assets\/00c2e398-0c56-4b46-ad6b-87bfb4291427","coordinates":[-51.5754829,-21.3829234]},{"id":"f47dc3c5-4642-4cc2-9e77-279f8af44d98","title":"SP - TAQUARITUBA","tipo":null,"url":"\/dashboard\/details-assets\/f47dc3c5-4642-4cc2-9e77-279f8af44d98","coordinates":[-49.2459964,-23.5263997]},{"id":"609f3754-99d5-442d-b28e-a93fa28efe04","title":"SP - TREMEMBE","tipo":null,"url":"\/dashboard\/details-assets\/609f3754-99d5-442d-b28e-a93fa28efe04","coordinates":[-45.5468234761719,-22.9536763147576]},{"id":"652b0c56-8752-41e4-9a22-6128f040e542","title":"SP - TAUBATE","tipo":null,"url":"\/dashboard\/details-assets\/652b0c56-8752-41e4-9a22-6128f040e542","coordinates":[-45.5563555,-23.0204559]},{"id":"05ea7e88-4439-46e7-82a7-837b5e49968d","title":"SP - TAQUARITINGA","tipo":null,"url":"\/dashboard\/details-assets\/05ea7e88-4439-46e7-82a7-837b5e49968d","coordinates":[-48.5067421828536,-21.4100079993582]},{"id":"51eed9fd-5452-43ed-90ac-9605c8a74e3c","title":"SP - TAIUVA","tipo":null,"url":"\/dashboard\/details-assets\/51eed9fd-5452-43ed-90ac-9605c8a74e3c","coordinates":[-48.4537633,-21.1245903]},{"id":"779f658e-8399-4a2d-b054-0c2f065c1ee2","title":"SP - TANABI","tipo":null,"url":"\/dashboard\/details-assets\/779f658e-8399-4a2d-b054-0c2f065c1ee2","coordinates":[-49.6546435,-20.6286479]},{"id":"106845a4-b586-410b-aa7d-39ff7a53a4fc","title":"SP - SUMARE","tipo":null,"url":"\/dashboard\/details-assets\/106845a4-b586-410b-aa7d-39ff7a53a4fc","coordinates":[-47.2658027320901,-22.8221449993248]},{"id":"2dfd6816-1f95-4b32-9ca8-e25840f167a0","title":"SP - TABOAO DA SERRA","tipo":null,"url":"\/dashboard\/details-assets\/2dfd6816-1f95-4b32-9ca8-e25840f167a0","coordinates":[-46.7857800342102,-23.6233284993067]},{"id":"4c4792fb-71a7-44f4-b266-7a916716e8ce","title":"SP - SOROCABA","tipo":null,"url":"\/dashboard\/details-assets\/4c4792fb-71a7-44f4-b266-7a916716e8ce","coordinates":[-47.457853253204,-23.4993229993095]},{"id":"2c9fe065-b19b-4fad-bb10-b989f53ca0b1","title":"SP - SERTAOZINHO","tipo":null,"url":"\/dashboard\/details-assets\/2c9fe065-b19b-4fad-bb10-b989f53ca0b1","coordinates":[-47.990137,-21.1379949]},{"id":"0a9c2dbe-7efa-4d14-a905-1c8e8ccc2686","title":"SP - SERRA AZUL","tipo":null,"url":"\/dashboard\/details-assets\/0a9c2dbe-7efa-4d14-a905-1c8e8ccc2686","coordinates":[-47.5642475,-21.311503]},{"id":"738f80c4-c7b0-4537-8ffb-c16db9d69a02","title":"SP - SAO VICENTE","tipo":null,"url":"\/dashboard\/details-assets\/738f80c4-c7b0-4537-8ffb-c16db9d69a02","coordinates":[-46.3844908173176,-23.967372999299]},{"id":"4513e8f5-1fa3-426d-9d8d-2f5b08f176c5","title":"SP - SAO PAULO","tipo":null,"url":"\/dashboard\/details-assets\/4513e8f5-1fa3-426d-9d8d-2f5b08f176c5","coordinates":[-46.5703831821128,-23.567386499308]},{"id":"32824039-0f0e-490e-964b-3c96451286cc","title":"SP - SAO JOSE DO RIO PRETO","tipo":null,"url":"\/dashboard\/details-assets\/32824039-0f0e-490e-964b-3c96451286cc","coordinates":[-46.8877455,-21.5957703]},{"id":"eb2df0ea-11b0-41bc-a3c0-f5768410be94","title":"SP - SAO JOSE DOS CAMPOS","tipo":null,"url":"\/dashboard\/details-assets\/eb2df0ea-11b0-41bc-a3c0-f5768410be94","coordinates":[-45.899405,-23.23021]},{"id":"32fdcb91-0baa-4428-81b5-fd9fe4597a62","title":"SP - SAO CARLOS","tipo":null,"url":"\/dashboard\/details-assets\/32fdcb91-0baa-4428-81b5-fd9fe4597a62","coordinates":[-53.017394273321,-27.0786350771308]},{"id":"9b4a1f3d-796b-4001-a5eb-7df586a5f687","title":"SP - SANTOS","tipo":null,"url":"\/dashboard\/details-assets\/9b4a1f3d-796b-4001-a5eb-7df586a5f687","coordinates":[-46.3313708491907,-23.9337374992997]},{"id":"5c1c97c8-a727-491f-916b-d74ffadb0839","title":"SP - SAO BERNARDO DO CAMPO","tipo":null,"url":"\/dashboard\/details-assets\/5c1c97c8-a727-491f-916b-d74ffadb0839","coordinates":[-46.5502572476783,-23.7103044993048]},{"id":"d73dcb05-0cd9-4f09-8faa-a58c05134505","title":"SP - RIOLANDIA","tipo":null,"url":"\/dashboard\/details-assets\/d73dcb05-0cd9-4f09-8faa-a58c05134505","coordinates":[-49.680085,-19.9818737]},{"id":"43a0ff7c-7223-4896-8b5d-5d733a965a0d","title":"SP - SANTO ANDRE","tipo":null,"url":"\/dashboard\/details-assets\/43a0ff7c-7223-4896-8b5d-5d733a965a0d","coordinates":[-46.5308742576295,-23.6575099993059]},{"id":"e56c0915-5193-49f6-b1d8-f49c5e9a6893","title":"SP - RIO CLARO","tipo":null,"url":"\/dashboard\/details-assets\/e56c0915-5193-49f6-b1d8-f49c5e9a6893","coordinates":[-47.5635332384344,-22.4125114993344]},{"id":"2aa01a52-208c-4606-822c-0f9e80974916","title":"SP - RIBEIRAO PRETO","tipo":null,"url":"\/dashboard\/details-assets\/2aa01a52-208c-4606-822c-0f9e80974916","coordinates":[-47.8054759155415,-21.1848344993636]},{"id":"5a861f82-4442-43bc-a613-3291530e3dd1","title":"SP - REGINOPOLIS","tipo":null,"url":"\/dashboard\/details-assets\/5a861f82-4442-43bc-a613-3291530e3dd1","coordinates":[-49.2241724,-21.8888654]},{"id":"52398448-ca91-4b1b-86a4-c194792578cf","title":"SP - PRESIDENTE PRUDENTE","tipo":null,"url":"\/dashboard\/details-assets\/52398448-ca91-4b1b-86a4-c194792578cf","coordinates":[-51.3867655819124,-22.1227434993411]},{"id":"dcad80c8-0e50-448a-9b12-474a1005736b","title":"SP - PRESIDENTE VENCESLAU","tipo":null,"url":"\/dashboard\/details-assets\/dcad80c8-0e50-448a-9b12-474a1005736b","coordinates":[-51.8402588050568,-21.875939504347]},{"id":"6ad29c74-fd2f-46f9-a6db-5e70b00217cc","title":"SP - PRAIA GRANDE","tipo":null,"url":"\/dashboard\/details-assets\/6ad29c74-fd2f-46f9-a6db-5e70b00217cc","coordinates":[-46.4124616,-24.0088421]},{"id":"76519238-702f-4270-9b20-c89b7a7834b3","title":"SP - PRESIDENTE BERNARDES","tipo":null,"url":"\/dashboard\/details-assets\/76519238-702f-4270-9b20-c89b7a7834b3","coordinates":[-51.5531899,-22.0077937]},{"id":"4e809982-4006-4b4b-91c3-141801f2ff82","title":"SP - POTIM","tipo":null,"url":"\/dashboard\/details-assets\/4e809982-4006-4b4b-91c3-141801f2ff82","coordinates":[-45.2554893,-22.8401139]},{"id":"e03a7325-82a6-488d-b201-41b9ddee6573","title":"SP - PRACINHA","tipo":null,"url":"\/dashboard\/details-assets\/e03a7325-82a6-488d-b201-41b9ddee6573","coordinates":[-46.4124616,-24.0088421]},{"id":"8d6bb5d2-4c08-4092-a04d-7a39ea8bcff5","title":"SP - PORTO FELIZ","tipo":null,"url":"\/dashboard\/details-assets\/8d6bb5d2-4c08-4092-a04d-7a39ea8bcff5","coordinates":[-47.5245965730655,-23.2144122673158]},{"id":"8a40d3d6-71c5-456e-b738-ada9a5192847","title":"SP - PONTAL","tipo":null,"url":"\/dashboard\/details-assets\/8a40d3d6-71c5-456e-b738-ada9a5192847","coordinates":[-48.0378373025419,-21.0257099993675]},{"id":"2e352db4-1b87-453d-b37b-71c1ca688de9","title":"SP - PERUIBE","tipo":null,"url":"\/dashboard\/details-assets\/2e352db4-1b87-453d-b37b-71c1ca688de9","coordinates":[-47.0016573,-24.3124785]},{"id":"19671073-dff9-4785-b0e5-e9bdebdff30c","title":"SP - PIRACICABA","tipo":null,"url":"\/dashboard\/details-assets\/19671073-dff9-4785-b0e5-e9bdebdff30c","coordinates":[-47.6468462361582,-22.7237219993271]},{"id":"37811b62-8e71-4c53-be20-5fdcfa3f0ad3","title":"SP - PIRAJUI","tipo":null,"url":"\/dashboard\/details-assets\/37811b62-8e71-4c53-be20-5fdcfa3f0ad3","coordinates":[-49.457917,-21.974887]},{"id":"8d7463ae-8054-4a3e-90fc-66c3a0c05c98","title":"SP - PARAGUACU PAULISTA","tipo":null,"url":"\/dashboard\/details-assets\/8d7463ae-8054-4a3e-90fc-66c3a0c05c98","coordinates":[-50.5750285304782,-22.4177110193342]},{"id":"059adcee-3904-4a79-81d4-bec36d33259a","title":"SP - PACAEMBU","tipo":null,"url":"\/dashboard\/details-assets\/059adcee-3904-4a79-81d4-bec36d33259a","coordinates":[-51.2658432,-21.563131]},{"id":"7b3b349f-c4aa-49eb-b682-e636b04cee7b","title":"SP - OSVALDO CRUZ","tipo":null,"url":"\/dashboard\/details-assets\/7b3b349f-c4aa-49eb-b682-e636b04cee7b","coordinates":[-50.8731391102635,-21.7970834993489]},{"id":"28d99489-5c5f-4261-bef5-c69bf274f180","title":"SP - OURINHOS","tipo":null,"url":"\/dashboard\/details-assets\/28d99489-5c5f-4261-bef5-c69bf274f180","coordinates":[-49.868579835937,-22.9772674993213]},{"id":"9f07a3c3-3176-4f55-acd8-09d32815adaa","title":"SP - MONGAGUA","tipo":null,"url":"\/dashboard\/details-assets\/9f07a3c3-3176-4f55-acd8-09d32815adaa","coordinates":[-46.619992725371,-24.0941161442961]},{"id":"bff18f6c-ce87-485a-9359-0117d824dc87","title":"SP - OSASCO","tipo":null,"url":"\/dashboard\/details-assets\/bff18f6c-ce87-485a-9359-0117d824dc87","coordinates":[-46.7888101442714,-23.5336119993087]},{"id":"b8b0b166-17f0-4a8b-89c4-5f9a864fa305","title":"SP - MOJI MIRIM","tipo":null,"url":"\/dashboard\/details-assets\/b8b0b166-17f0-4a8b-89c4-5f9a864fa305","coordinates":[-46.956367126579,-22.4326954993339]},{"id":"5757399f-7a33-40b4-b2e8-43ac69683914","title":"SP - MOGI GUACU","tipo":null,"url":"\/dashboard\/details-assets\/5757399f-7a33-40b4-b2e8-43ac69683914","coordinates":[-46.9444740881491,-22.365720188847]},{"id":"6308eb5b-c422-4ebe-a253-434c711d824d","title":"SP - MIRASSOL","tipo":null,"url":"\/dashboard\/details-assets\/6308eb5b-c422-4ebe-a253-434c711d824d","coordinates":[-49.5121392179273,-20.8170044993726]},{"id":"23c177b1-e340-4139-bdbe-904281203acd","title":"SP - MOCOCA","tipo":null,"url":"\/dashboard\/details-assets\/23c177b1-e340-4139-bdbe-904281203acd","coordinates":[-47.0071709787367,-21.4689905093567]},{"id":"133f52d5-5a50-4a7e-8eed-39d57d183981","title":"SP - MAUA","tipo":null,"url":"\/dashboard\/details-assets\/133f52d5-5a50-4a7e-8eed-39d57d183981","coordinates":[-46.4617086,-23.668163]},{"id":"3d440adf-b389-4e5e-bf7f-70ccdd80a62f","title":"SP - MIRANDOPOLIS","tipo":null,"url":"\/dashboard\/details-assets\/3d440adf-b389-4e5e-bf7f-70ccdd80a62f","coordinates":[-51.1023381,-21.1331045]},{"id":"3dde779a-336c-4cb6-a3e8-2fd8258affd0","title":"SP - MARABA PAULISTA","tipo":null,"url":"\/dashboard\/details-assets\/3dde779a-336c-4cb6-a3e8-2fd8258affd0","coordinates":[-51.9623009648437,-22.0761350517241]},{"id":"3f56273b-aabb-4f37-a7a5-7963948fca75","title":"SP - MARTINOPOLIS","tipo":null,"url":"\/dashboard\/details-assets\/3f56273b-aabb-4f37-a7a5-7963948fca75","coordinates":[-51.1721045,-22.1495283]},{"id":"46c29403-1f23-4abb-855b-875aaacc68a8","title":"SP - MARILIA","tipo":null,"url":"\/dashboard\/details-assets\/46c29403-1f23-4abb-855b-875aaacc68a8","coordinates":[-49.9505291,-22.2175846]},{"id":"0b9da970-152f-4258-a98a-72c9f59cd422","title":"SP - MAIRINQUE","tipo":null,"url":"\/dashboard\/details-assets\/0b9da970-152f-4258-a98a-72c9f59cd422","coordinates":[-47.1947232,-23.5297232]},{"id":"2c3e438a-60fb-4492-a09f-11d79606fb92","title":"SP - LUCELIA","tipo":null,"url":"\/dashboard\/details-assets\/2c3e438a-60fb-4492-a09f-11d79606fb92","coordinates":[-51.0219868,-21.7186744]},{"id":"5ba220e2-ea08-4f29-bd61-c91fa16bff97","title":"SP - LORENA","tipo":null,"url":"\/dashboard\/details-assets\/5ba220e2-ea08-4f29-bd61-c91fa16bff97","coordinates":[-45.1242481441632,-22.7316930319565]},{"id":"3baef0f1-d0cc-4e1f-9e20-363df7bda124","title":"SP - LIMEIRA","tipo":null,"url":"\/dashboard\/details-assets\/3baef0f1-d0cc-4e1f-9e20-363df7bda124","coordinates":[-47.4019395233101,-22.5621939993309]},{"id":"d1ce2ac6-7f55-4289-8b4f-313225df0abd","title":"SP - LINS","tipo":null,"url":"\/dashboard\/details-assets\/d1ce2ac6-7f55-4289-8b4f-313225df0abd","coordinates":[-49.7514233866855,-21.6723464993518]},{"id":"2e2e21c3-f2fd-43ba-8fd9-a600433e0a85","title":"SP - LAVINIA","tipo":null,"url":"\/dashboard\/details-assets\/2e2e21c3-f2fd-43ba-8fd9-a600433e0a85","coordinates":[-51.0428566,-21.1655923]},{"id":"0e5b7441-7c19-47a4-a344-371f457bbd8d","title":"SP - JUNQUEIROPOLIS","tipo":null,"url":"\/dashboard\/details-assets\/0e5b7441-7c19-47a4-a344-371f457bbd8d","coordinates":[-51.4346653,-21.5108173]},{"id":"de264f11-bad0-48a9-815b-4cda954527f0","title":"SP - JUNDIAI","tipo":null,"url":"\/dashboard\/details-assets\/de264f11-bad0-48a9-815b-4cda954527f0","coordinates":[-46.8852739679967,-23.1876679993165]},{"id":"6a516df6-1112-45b5-a608-6e5d35af2910","title":"SP - JARDINOPOLIS","tipo":null,"url":"\/dashboard\/details-assets\/6a516df6-1112-45b5-a608-6e5d35af2910","coordinates":[-47.7772049,-21.0277616]},{"id":"cd16d8fa-5f42-46b8-be76-caea189159dc","title":"SP - JAU","tipo":null,"url":"\/dashboard\/details-assets\/cd16d8fa-5f42-46b8-be76-caea189159dc","coordinates":[-48.5581413878331,-22.2957909893371]},{"id":"96143294-8942-4235-9cfc-c3d08f4a1357","title":"SP - JACAREi","tipo":null,"url":"\/dashboard\/details-assets\/96143294-8942-4235-9cfc-c3d08f4a1357","coordinates":[-45.96,-23.3]},{"id":"462030fa-0391-4a6f-9fd7-4d8b2c4d829d","title":"SP - ITIRAPINA","tipo":null,"url":"\/dashboard\/details-assets\/462030fa-0391-4a6f-9fd7-4d8b2c4d829d","coordinates":[-47.8170462,-22.2567218]},{"id":"66eed250-cafd-42c5-a3fa-1d5784be821d","title":"SP - ITAQUAQUECETUBA","tipo":null,"url":"\/dashboard\/details-assets\/66eed250-cafd-42c5-a3fa-1d5784be821d","coordinates":[-46.3516031409654,-23.47689749931]},{"id":"b0ed3b34-65db-41af-85f6-676ddfafca06","title":"SP - ITATINGA","tipo":null,"url":"\/dashboard\/details-assets\/b0ed3b34-65db-41af-85f6-676ddfafca06","coordinates":[-48.6123867,-23.1067087]},{"id":"3dc91179-5cc2-41ca-8e33-c0e7b9313a1d","title":"SP - ITAPECERICA DA SERRA","tipo":null,"url":"\/dashboard\/details-assets\/3dc91179-5cc2-41ca-8e33-c0e7b9313a1d","coordinates":[-46.8505519668521,-23.7153569993047]},{"id":"081fa307-5ca2-47f0-b3b1-b0a03d6b0151","title":"SP - ITAPETININGA","tipo":null,"url":"\/dashboard\/details-assets\/081fa307-5ca2-47f0-b3b1-b0a03d6b0151","coordinates":[-48.0461428954547,-23.5878724993075]},{"id":"217acfb2-3ed3-43a0-b2df-583fef155d4f","title":"SP - ITANHAEM","tipo":null,"url":"\/dashboard\/details-assets\/217acfb2-3ed3-43a0-b2df-583fef155d4f","coordinates":[-46.7909914828787,-24.1861206661269]},{"id":"924fa9d2-fb39-41a5-9b35-b770c8c0e024","title":"SP - ITAI","tipo":null,"url":"\/dashboard\/details-assets\/924fa9d2-fb39-41a5-9b35-b770c8c0e024","coordinates":[-49.0810322484854,-23.4190553843113]},{"id":"00755ef8-8e0d-4245-9a15-a454cdaea7be","title":"SP - IRAPURU","tipo":null,"url":"\/dashboard\/details-assets\/00755ef8-8e0d-4245-9a15-a454cdaea7be","coordinates":[-51.3542584898437,-21.5632692181591]},{"id":"1406bb08-a2cc-42f5-bfb6-37b44475da0b","title":"SP - IPERO","tipo":null,"url":"\/dashboard\/details-assets\/1406bb08-a2cc-42f5-bfb6-37b44475da0b","coordinates":[-47.6939091,-23.3518726]},{"id":"2a1ce682-16c8-40e8-8b61-e94fcabbcd9f","title":"SP - ICEM","tipo":null,"url":"\/dashboard\/details-assets\/2a1ce682-16c8-40e8-8b61-e94fcabbcd9f","coordinates":[-49.1625989,-20.4053212]},{"id":"da3bf38f-f790-44c5-ac98-7256786e3709","title":"SP - IARAS","tipo":null,"url":"\/dashboard\/details-assets\/da3bf38f-f790-44c5-ac98-7256786e3709","coordinates":[-49.1582282316406,-22.8596149511488]},{"id":"9a5459be-d70e-474f-9801-4e693150d11d","title":"SP - GUARULHOS","tipo":null,"url":"\/dashboard\/details-assets\/9a5459be-d70e-474f-9801-4e693150d11d","coordinates":[-46.5310840856611,-23.4685059993102]},{"id":"d124d71f-b1f2-4fb0-9e5a-d02e829c9624","title":"SP - GUARUJA","tipo":null,"url":"\/dashboard\/details-assets\/d124d71f-b1f2-4fb0-9e5a-d02e829c9624","coordinates":[-46.2568758,-23.9949104]},{"id":"7e77f8e6-e90f-4003-a5ee-dd96b36c8013","title":"SP - HORTOLANDIA","tipo":null,"url":"\/dashboard\/details-assets\/7e77f8e6-e90f-4003-a5ee-dd96b36c8013","coordinates":[-47.2210966097575,-22.858394999324]},{"id":"e5e74ac2-62af-42f8-abdd-2230ac9cd7f3","title":"SP - GETULINA","tipo":null,"url":"\/dashboard\/details-assets\/e5e74ac2-62af-42f8-abdd-2230ac9cd7f3","coordinates":[-49.9225158984375,-21.7872473898313]},{"id":"5750f0fb-701b-48e8-83ec-5689df29180d","title":"SP - GUAREI","tipo":null,"url":"\/dashboard\/details-assets\/5750f0fb-701b-48e8-83ec-5689df29180d","coordinates":[-48.1841739,-23.3718457]},{"id":"8077ed79-3cf6-48da-ac96-95b36d33bafa","title":"SP - GUARIBA","tipo":null,"url":"\/dashboard\/details-assets\/8077ed79-3cf6-48da-ac96-95b36d33bafa","coordinates":[-48.22,-21.36]},{"id":"6571df0b-7558-4f49-8ea1-7f02aa8c3640","title":"SP - FRANCA","tipo":null,"url":"\/dashboard\/details-assets\/6571df0b-7558-4f49-8ea1-7f02aa8c3640","coordinates":[-47.4023316256775,-20.5360969993796]},{"id":"6bd10102-8c70-4856-8d6a-9a0dac1adc06","title":"SP - FRANCO DA ROCHA","tipo":null,"url":"\/dashboard\/details-assets\/6bd10102-8c70-4856-8d6a-9a0dac1adc06","coordinates":[-46.7278746685526,-23.3203024993135]},{"id":"eff6b39e-b107-4717-a519-d67c3d8cae6e","title":"SP - FLORIDA PAULISTA","tipo":null,"url":"\/dashboard\/details-assets\/eff6b39e-b107-4717-a519-d67c3d8cae6e","coordinates":[-51.1729216,-21.6131815]},{"id":"d19ef49d-2a53-4974-a657-90c01c492fd1","title":"SP - FLORINIA","tipo":null,"url":"\/dashboard\/details-assets\/d19ef49d-2a53-4974-a657-90c01c492fd1","coordinates":[-50.7358395664062,-22.8908020037891]},{"id":"98b68bdc-268e-45e1-8beb-423f0b30747c","title":"SP - DIADEMA","tipo":null,"url":"\/dashboard\/details-assets\/98b68bdc-268e-45e1-8beb-423f0b30747c","coordinates":[-51.5340496600627,-21.4861375343563]},{"id":"acfd11c3-5a63-4ed3-bd48-613db1468725","title":"SP - FERRAZ DE VASCONCELOS","tipo":null,"url":"\/dashboard\/details-assets\/acfd11c3-5a63-4ed3-bd48-613db1468725","coordinates":[-46.3644930634766,-23.5287960783909]},{"id":"0eb92192-bbf4-4acf-97ec-7146628de2df","title":"SP - DRACENA","tipo":null,"url":"\/dashboard\/details-assets\/0eb92192-bbf4-4acf-97ec-7146628de2df","coordinates":[-51.5340496600627,-21.4861375343563]},{"id":"2e917d24-9a18-46af-b9d4-d26088e731f1","title":"SP - CASA BRANCA","tipo":null,"url":"\/dashboard\/details-assets\/2e917d24-9a18-46af-b9d4-d26088e731f1","coordinates":[-49.1653301708879,-23.0347974986399]},{"id":"58e085f8-27f1-416e-8ea3-4b3e4584ff55","title":"SP - CERQUEIRA CESAR","tipo":null,"url":"\/dashboard\/details-assets\/58e085f8-27f1-416e-8ea3-4b3e4584ff55","coordinates":[-46.623381393203,-23.6892949993052]},{"id":"81ebdddc-305d-42b5-86ee-a764cbcd87aa","title":"SP - CARAGUATATUBA","tipo":null,"url":"\/dashboard\/details-assets\/81ebdddc-305d-42b5-86ee-a764cbcd87aa","coordinates":[-47.0797582048272,-21.7779869893493]},{"id":"6c2f616f-04d9-4b62-85d4-b1080d2257a1","title":"SP - CAPELA DO ALTO","tipo":null,"url":"\/dashboard\/details-assets\/6c2f616f-04d9-4b62-85d4-b1080d2257a1","coordinates":[-45.4108183822497,-23.6220064993066]},{"id":"6914e859-f3bf-4ff5-9cb9-664e62412640","title":"SP - CAMPINAS","tipo":null,"url":"\/dashboard\/details-assets\/6914e859-f3bf-4ff5-9cb9-664e62412640","coordinates":[-47.0601562729732,-22.9073424993229]},{"id":"a4797385-e71c-4858-a895-c040b23673c9","title":"SP - BIRIGUI","tipo":null,"url":"\/dashboard\/details-assets\/a4797385-e71c-4858-a895-c040b23673c9","coordinates":[-50.339328516987,-21.2923922876104]},{"id":"19d87118-24bf-4361-bf9c-20f7c269e233","title":"SP - BRAGANCA PAULISTA","tipo":null,"url":"\/dashboard\/details-assets\/19d87118-24bf-4361-bf9c-20f7c269e233","coordinates":[-46.5423333739798,-22.9568954993218]},{"id":"4752f72e-797d-4211-84e9-8ca780ffdc20","title":"SP - BOTUCATU","tipo":null,"url":"\/dashboard\/details-assets\/4752f72e-797d-4211-84e9-8ca780ffdc20","coordinates":[-48.4412893843503,-22.8883814993234]},{"id":"1e8b4ef3-5ac2-45fb-aca4-93d1c2e07aa7","title":"SP - BERNARDINO DE CAMPOS","tipo":null,"url":"\/dashboard\/details-assets\/1e8b4ef3-5ac2-45fb-aca4-93d1c2e07aa7","coordinates":[-49.4731864,-23.0147985]},{"id":"7b6698c2-1c8f-4e5d-835a-8dca401aa1f8","title":"SP - BAURU","tipo":null,"url":"\/dashboard\/details-assets\/7b6698c2-1c8f-4e5d-835a-8dca401aa1f8","coordinates":[-49.0830008670904,-22.3251224993364]},{"id":"27779c65-de44-421e-995d-ec877f3b5edc","title":"SP - BATATAIS","tipo":null,"url":"\/dashboard\/details-assets\/27779c65-de44-421e-995d-ec877f3b5edc","coordinates":[-47.5861067268682,-20.8919294993708]},{"id":"e330c551-6a03-40d9-a4a9-79b9db6b95c6","title":"SP - AVARE","tipo":null,"url":"\/dashboard\/details-assets\/e330c551-6a03-40d9-a4a9-79b9db6b95c6","coordinates":[-48.9232631943567,-23.1031934993184]},{"id":"434ab49e-f126-44c0-b508-2bace33303e2","title":"SP - BALBINOS","tipo":null,"url":"\/dashboard\/details-assets\/434ab49e-f126-44c0-b508-2bace33303e2","coordinates":[-49.3348621,-21.8924794]},{"id":"a0e61e6c-eeb0-4fd6-83f3-a0de388bb865","title":"SP - ATIBAIA","tipo":null,"url":"\/dashboard\/details-assets\/a0e61e6c-eeb0-4fd6-83f3-a0de388bb865","coordinates":[-46.5550625006743,-23.1163079993181]},{"id":"8b432f1a-03a2-4b81-bdc5-b43f5ced0fa0","title":"SP - ASSIS","tipo":null,"url":"\/dashboard\/details-assets\/8b432f1a-03a2-4b81-bdc5-b43f5ced0fa0","coordinates":[-50.41751004,-22.6628350193285]},{"id":"b447e11c-3c76-4432-94e9-9fa73673743e","title":"SP - AVANHANDAVA","tipo":null,"url":"\/dashboard\/details-assets\/b447e11c-3c76-4432-94e9-9fa73673743e","coordinates":[-49.9481429,-21.461674]},{"id":"4b63b165-9608-46bd-8751-7c6fd2ad98f5","title":"SP - ARARAQUARA","tipo":null,"url":"\/dashboard\/details-assets\/4b63b165-9608-46bd-8751-7c6fd2ad98f5","coordinates":[-48.1744399375437,-21.790359499349]},{"id":"7ec0e04b-2b8a-4260-a5b8-7277b2865a5c","title":"SP - ARUJA","tipo":null,"url":"\/dashboard\/details-assets\/7ec0e04b-2b8a-4260-a5b8-7277b2865a5c","coordinates":[-46.3204896001138,-23.3958267403117]},{"id":"1150d613-f0c5-4993-ab47-81c1e40c2fac","title":"SP - ANDRADINA","tipo":null,"url":"\/dashboard\/details-assets\/1150d613-f0c5-4993-ab47-81c1e40c2fac","coordinates":[-51.3788477947637,-20.9014635143705]},{"id":"24f907ed-5aa1-4228-974f-31599a885fd6","title":"SP - AMERICANA","tipo":null,"url":"\/dashboard\/details-assets\/24f907ed-5aa1-4228-974f-31599a885fd6","coordinates":[-47.3337008,-22.7378203]},{"id":"e7224a7d-5aa3-4b20-9280-30f81515de25","title":"SP - ARACATUBA","tipo":null,"url":"\/dashboard\/details-assets\/e7224a7d-5aa3-4b20-9280-30f81515de25","coordinates":[-50.4392260727526,-21.2054759993631]},{"id":"78df20df-d6d5-45b2-b092-f5c9c80c3556","title":"SP - ALVARO DE CARVALHO","tipo":null,"url":"\/dashboard\/details-assets\/78df20df-d6d5-45b2-b092-f5c9c80c3556","coordinates":[-49.7205015838867,-22.0800934323394]},{"id":"5f3bfcc4-929f-45e4-8437-a1b3bcb69ef3","title":"SC - XANXERE","tipo":null,"url":"\/dashboard\/details-assets\/5f3bfcc4-929f-45e4-8437-a1b3bcb69ef3","coordinates":[-52.4046671389754,-26.8745844984772]},{"id":"cbaaf38b-36c2-433c-8326-7d427fa5e770","title":"SC - TUBARAO","tipo":null,"url":"\/dashboard\/details-assets\/cbaaf38b-36c2-433c-8326-7d427fa5e770","coordinates":[-49.0052680770245,-28.4800339470587]},{"id":"8b9af94c-ea03-4131-b50c-9324c0513b43","title":"SC - VIDEIRA","tipo":null,"url":"\/dashboard\/details-assets\/8b9af94c-ea03-4131-b50c-9324c0513b43","coordinates":[-51.1517052828326,-27.0061290672059]},{"id":"3b82b90c-0e8c-4e03-8d1b-19611340ffb7","title":"SC - SAO PEDRO DE ALCANTARA","tipo":null,"url":"\/dashboard\/details-assets\/3b82b90c-0e8c-4e03-8d1b-19611340ffb7","coordinates":[-48.8063346527344,-27.562096352644]},{"id":"d9de1567-4064-437f-8c52-c494ae92327d","title":"SC - TIJUCAS","tipo":null,"url":"\/dashboard\/details-assets\/d9de1567-4064-437f-8c52-c494ae92327d","coordinates":[-48.6320705638696,-27.2394536064421]},{"id":"4de69032-5839-4f7b-ba3c-3e21f4f27cdc","title":"SC - SAO MIGUEL DO OESTE","tipo":null,"url":"\/dashboard\/details-assets\/4de69032-5839-4f7b-ba3c-3e21f4f27cdc","coordinates":[-53.5188394061561,-26.7264271759021]},{"id":"bd0c2e7a-3a3e-4642-8f3b-e48214d12036","title":"SC - SAO JOSE DO CEDRO","tipo":null,"url":"\/dashboard\/details-assets\/bd0c2e7a-3a3e-4642-8f3b-e48214d12036","coordinates":[-53.4994236,-26.4554731]},{"id":"68fcf761-29d4-446b-864a-51b5e62dfddb","title":"SC - SAO JOSE","tipo":null,"url":"\/dashboard\/details-assets\/68fcf761-29d4-446b-864a-51b5e62dfddb","coordinates":[-48.6370861,-27.6140791]},{"id":"6fceaa17-698f-4fe1-811f-03f3d2e125fb","title":"SC - SAO CRISTOVAO DO SUL","tipo":null,"url":"\/dashboard\/details-assets\/6fceaa17-698f-4fe1-811f-03f3d2e125fb","coordinates":[-50.3275427,-27.3167602]},{"id":"7a95624e-2170-4772-92aa-20222fa2ee0e","title":"SC - RIO DO SUL","tipo":null,"url":"\/dashboard\/details-assets\/7a95624e-2170-4772-92aa-20222fa2ee0e","coordinates":[-49.6435018,-27.2160932]},{"id":"d77990f2-ced5-4e2b-8af3-1dc3a681ca04","title":"SC - PORTO UNIAO","tipo":null,"url":"\/dashboard\/details-assets\/d77990f2-ced5-4e2b-8af3-1dc3a681ca04","coordinates":[-51.0817102,-26.2389124]},{"id":"5087c24c-20c9-426b-9761-a3bbfd8997eb","title":"SC - PALHOCA","tipo":null,"url":"\/dashboard\/details-assets\/5087c24c-20c9-426b-9761-a3bbfd8997eb","coordinates":[-48.6702879187121,-27.6470436829145]},{"id":"435712b6-4eb1-4783-ad67-601a4f686ef6","title":"SC - LAGUNA","tipo":null,"url":"\/dashboard\/details-assets\/435712b6-4eb1-4783-ad67-601a4f686ef6","coordinates":[-48.7813886217994,-28.4835859531205]},{"id":"b78232d9-1247-4cef-9114-94e63dbc7950","title":"SC - MAFRA","tipo":null,"url":"\/dashboard\/details-assets\/b78232d9-1247-4cef-9114-94e63dbc7950","coordinates":[-49.8010375282692,-26.1152284935074]},{"id":"0f7309f5-b894-437c-971e-f477ed9b1d38","title":"SC - MARAVILHA","tipo":null,"url":"\/dashboard\/details-assets\/0f7309f5-b894-437c-971e-f477ed9b1d38","coordinates":[-53.174818815895,-26.7616239465027]},{"id":"35e48ba4-1bea-4c13-9138-73422de81fb2","title":"SC - LAGES","tipo":null,"url":"\/dashboard\/details-assets\/35e48ba4-1bea-4c13-9138-73422de81fb2","coordinates":[-50.3302224241895,-27.8172594623345]},{"id":"3d1482a9-1434-462c-af5d-3f90c18223e9","title":"SC - JOINVILLE","tipo":null,"url":"\/dashboard\/details-assets\/3d1482a9-1434-462c-af5d-3f90c18223e9","coordinates":[-48.8494091432379,-26.3045176479039]},{"id":"33a58bbc-39cf-49a1-8796-a47a213fdf25","title":"SC - JARAGUA DO SUL","tipo":null,"url":"\/dashboard\/details-assets\/33a58bbc-39cf-49a1-8796-a47a213fdf25","coordinates":[-49.0762988228021,-26.4904843486596]},{"id":"649e36ea-51a9-41f3-9bab-5480e5e8ad92","title":"SC - ITAPEMA","tipo":null,"url":"\/dashboard\/details-assets\/649e36ea-51a9-41f3-9bab-5480e5e8ad92","coordinates":[-48.6178074,-27.0960682]},{"id":"746e022b-c853-4c93-8ccf-9568a398c58d","title":"SC - JOACABA","tipo":null,"url":"\/dashboard\/details-assets\/746e022b-c853-4c93-8ccf-9568a398c58d","coordinates":[-51.5066897333377,-27.1739445284657]},{"id":"c8f37816-a1ec-4e67-9e82-9f8f1dd15bdc","title":"SC - ITAJAI","tipo":null,"url":"\/dashboard\/details-assets\/c8f37816-a1ec-4e67-9e82-9f8f1dd15bdc","coordinates":[-48.6709133,-26.9107052]},{"id":"89a9ccc3-298b-4fa4-8f19-4385193f7620","title":"SC - INDAIAL","tipo":null,"url":"\/dashboard\/details-assets\/89a9ccc3-298b-4fa4-8f19-4385193f7620","coordinates":[-49.2401404600146,-26.9062559984759]},{"id":"2f31fe94-8215-46f2-aaec-70159e435929","title":"SC - FRANCISCO DO SUL","tipo":null,"url":"\/dashboard\/details-assets\/2f31fe94-8215-46f2-aaec-70159e435929","coordinates":[-49.2401404600146,-26.9062559984759]},{"id":"6a6333ff-a98c-4f12-863d-985eb23e7223","title":"SC - IMBITUBA","tipo":null,"url":"\/dashboard\/details-assets\/6a6333ff-a98c-4f12-863d-985eb23e7223","coordinates":[-48.6692841969228,-28.239951113226]},{"id":"a707b7f2-2bcf-4c66-9f70-53697d10f929","title":"SC - FLORIANOPOLIS","tipo":null,"url":"\/dashboard\/details-assets\/a707b7f2-2bcf-4c66-9f70-53697d10f929","coordinates":[-48.5476373781933,-27.5877955477749]},{"id":"10463cc9-11d1-43bd-85dc-585ed3174713","title":"SC - CURITIBANOS","tipo":null,"url":"\/dashboard\/details-assets\/10463cc9-11d1-43bd-85dc-585ed3174713","coordinates":[-50.5826010352621,-27.2829825056971]},{"id":"d75b0e93-14f6-4fde-a661-735c3fa12450","title":"SC - CRICIUMA","tipo":null,"url":"\/dashboard\/details-assets\/d75b0e93-14f6-4fde-a661-735c3fa12450","coordinates":[-49.3659395588222,-28.6735722518798]},{"id":"4422e71b-314d-4504-9e68-51cefea0d37f","title":"SC - CONCORDIA","tipo":null,"url":"\/dashboard\/details-assets\/4422e71b-314d-4504-9e68-51cefea0d37f","coordinates":[-52.0239710697483,-27.2336587792856]},{"id":"5408785d-1bbe-49e8-9d14-9de6a3dbdc75","title":"SC - CHAPECO","tipo":null,"url":"\/dashboard\/details-assets\/5408785d-1bbe-49e8-9d14-9de6a3dbdc75","coordinates":[-52.615699,-27.1009343]},{"id":"3c92005b-787f-4b1b-8c12-7b1c4b99d54d","title":"SC - CANOINHAS","tipo":null,"url":"\/dashboard\/details-assets\/3c92005b-787f-4b1b-8c12-7b1c4b99d54d","coordinates":[-50.3929235601562,-26.1603616775609]},{"id":"5b73fbad-e828-4da5-a0dc-b2deac2ada8c","title":"SC - CAMPOS NOVOS","tipo":null,"url":"\/dashboard\/details-assets\/5b73fbad-e828-4da5-a0dc-b2deac2ada8c","coordinates":[-51.2258597,-27.4009891]},{"id":"9ff282c8-b6b4-4ec5-9ddc-44411ef67673","title":"SC - CACADOR","tipo":null,"url":"\/dashboard\/details-assets\/9ff282c8-b6b4-4ec5-9ddc-44411ef67673","coordinates":[-51.0190347589981,-26.7753476719588]},{"id":"f0d000c9-49a6-4756-9730-24def6ca0ba2","title":"SC - BIGUACU","tipo":null,"url":"\/dashboard\/details-assets\/f0d000c9-49a6-4756-9730-24def6ca0ba2","coordinates":[-48.6544889289506,-27.4943227426967]},{"id":"2623ffc3-2233-4381-9b65-2f6139269fbd","title":"SC - BLUMENAU","tipo":null,"url":"\/dashboard\/details-assets\/2623ffc3-2233-4381-9b65-2f6139269fbd","coordinates":[-49.0576308843612,-26.9161077045444]},{"id":"57ee718d-2c89-442e-8fec-d1d7c6f0ce9b","title":"SC - BRUSQUE","tipo":null,"url":"\/dashboard\/details-assets\/57ee718d-2c89-442e-8fec-d1d7c6f0ce9b","coordinates":[-48.9151630055154,-27.0983102254449]},{"id":"8ac52d80-1df6-499f-b6b4-d2c1186b0039","title":"SC - BARRA VELHA","tipo":null,"url":"\/dashboard\/details-assets\/8ac52d80-1df6-499f-b6b4-d2c1186b0039","coordinates":[-48.6846608,-26.6331439]},{"id":"958c428a-2dcb-4a8d-8746-c8a9f84fb5fc","title":"SC - ARARANGUA","tipo":null,"url":"\/dashboard\/details-assets\/958c428a-2dcb-4a8d-8746-c8a9f84fb5fc","coordinates":[-49.4923013,-28.9361187]},{"id":"0a87d198-ed03-4d6d-b598-d78a8f560f29","title":"RR - SAO LUIZ","tipo":null,"url":"\/dashboard\/details-assets\/0a87d198-ed03-4d6d-b598-d78a8f560f29","coordinates":[-60.1647697,0.8187674]},{"id":"80f3d6f8-6262-4bc5-a1be-80659678ce41","title":"RR - BOA VISTA","tipo":null,"url":"\/dashboard\/details-assets\/80f3d6f8-6262-4bc5-a1be-80659678ce41","coordinates":[-60.6705326729651,2.81668191901165]},{"id":"28c72df6-5c70-408d-aca4-9768cc37fb3b","title":"RO - SAO MIGUEL DO GUAPORE","tipo":null,"url":"\/dashboard\/details-assets\/28c72df6-5c70-408d-aca4-9768cc37fb3b","coordinates":[-62.68,-11.68]},{"id":"ed9421da-073e-4551-a4c5-16ce8e3b50f6","title":"RO - VILHENA","tipo":null,"url":"\/dashboard\/details-assets\/ed9421da-073e-4551-a4c5-16ce8e3b50f6","coordinates":[-60.1385838660987,-12.7413734713965]},{"id":"c86af4a7-4e44-4bea-afb5-10696372e2a4","title":"RO - SAO FRANCISCO DO GUAPORE","tipo":null,"url":"\/dashboard\/details-assets\/c86af4a7-4e44-4bea-afb5-10696372e2a4","coordinates":[-63.56,-12.05]},{"id":"d80ffcf9-8448-4d37-a4d6-69539c783c98","title":"RO - ROLIM DE MOURA","tipo":null,"url":"\/dashboard\/details-assets\/d80ffcf9-8448-4d37-a4d6-69539c783c98","coordinates":[-61.78,-11.67]},{"id":"ccac4faa-02b0-4774-8123-3caaf8289b26","title":"RO - PRESIDENTE MEDICI","tipo":null,"url":"\/dashboard\/details-assets\/ccac4faa-02b0-4774-8123-3caaf8289b26","coordinates":[-61.9,-11.17]},{"id":"8e6c6f88-9217-4f28-841c-eb5fc6e2579b","title":"RO - PIMENTA BUENO","tipo":null,"url":"\/dashboard\/details-assets\/8e6c6f88-9217-4f28-841c-eb5fc6e2579b","coordinates":[-61.19,-11.67]},{"id":"46bc583d-b13a-4998-9c2f-a36e63eb5f52","title":"RO - PORTO VELHO","tipo":null,"url":"\/dashboard\/details-assets\/46bc583d-b13a-4998-9c2f-a36e63eb5f52","coordinates":[-63.8314456543611,-8.76889178971532]},{"id":"f1979606-dbf9-4070-8a88-886b6f5e1bd8","title":"RO - MACHADINHO D OESTE","tipo":null,"url":"\/dashboard\/details-assets\/f1979606-dbf9-4070-8a88-886b6f5e1bd8","coordinates":[-61.9995925724466,-9.42556247969476]},{"id":"2a61f2cb-92a1-4fa5-af5e-b45ad8669245","title":"RO - JARU","tipo":null,"url":"\/dashboard\/details-assets\/2a61f2cb-92a1-4fa5-af5e-b45ad8669245","coordinates":[-62.4762307081317,-10.4359487675478]},{"id":"aabe28d4-2eae-4d22-a520-0d9bd150073d","title":"RO - JI-PARANA","tipo":null,"url":"\/dashboard\/details-assets\/aabe28d4-2eae-4d22-a520-0d9bd150073d","coordinates":[-61.9326728,-10.8781412]},{"id":"2070417c-031b-4730-9934-8e2c68204195","title":"RO - GUAJARA-MIRIM","tipo":null,"url":"\/dashboard\/details-assets\/2070417c-031b-4730-9934-8e2c68204195","coordinates":[-65.3239518196923,-10.7738837403235]},{"id":"6f4b8b1a-17b9-421d-9a9a-d7b11d4194c9","title":"RO - COSTA MARQUES","tipo":null,"url":"\/dashboard\/details-assets\/6f4b8b1a-17b9-421d-9a9a-d7b11d4194c9","coordinates":[-64.22,-12.44]},{"id":"033e0969-d33a-43ee-a9f1-9dfea2668666","title":"RO - COLORADO DO OESTE","tipo":null,"url":"\/dashboard\/details-assets\/033e0969-d33a-43ee-a9f1-9dfea2668666","coordinates":[-60.54,-13.11]},{"id":"8110654e-f072-40e7-82d4-996a17edd765","title":"RO - CACOAL","tipo":null,"url":"\/dashboard\/details-assets\/8110654e-f072-40e7-82d4-996a17edd765","coordinates":[-61.4429442118224,-11.433865028318]},{"id":"be22554b-3e70-4db6-aeff-fbd90f14d4d4","title":"RO - ARIQUEMES","tipo":null,"url":"\/dashboard\/details-assets\/be22554b-3e70-4db6-aeff-fbd90f14d4d4","coordinates":[-63.0330263,-9.9061087]},{"id":"ca006721-b287-48fd-a870-d9f2d977b21f","title":"RO - ALTA FLORESTA D OESTE","tipo":null,"url":"\/dashboard\/details-assets\/ca006721-b287-48fd-a870-d9f2d977b21f","coordinates":[-61.999824,-11.93554]},{"id":"acf65d08-ed38-4771-aa57-433077b1dc5d","title":"RO - ALVORADA D OESTE","tipo":null,"url":"\/dashboard\/details-assets\/acf65d08-ed38-4771-aa57-433077b1dc5d","coordinates":[-63.32,-9.71]},{"id":"a10b6c64-304a-40d7-a2a2-9e6b616267c2","title":"RS - VENANCIO AIRES","tipo":null,"url":"\/dashboard\/details-assets\/a10b6c64-304a-40d7-a2a2-9e6b616267c2","coordinates":[-52.1918802404895,-29.6116528918445]},{"id":"815d0c70-616c-484a-aae5-7faa8d889a19","title":"RS - URUGUAIANA","tipo":null,"url":"\/dashboard\/details-assets\/815d0c70-616c-484a-aae5-7faa8d889a19","coordinates":[-57.0858428,-29.7619121]},{"id":"1daa80e8-f29b-4ceb-92d4-30773fdc5aab","title":"RS - VACARIA","tipo":null,"url":"\/dashboard\/details-assets\/1daa80e8-f29b-4ceb-92d4-30773fdc5aab","coordinates":[-50.9365991641211,-28.5023543943946]},{"id":"659d7752-ddcd-410a-b401-5114352b446e","title":"RS - TAQUARA","tipo":null,"url":"\/dashboard\/details-assets\/659d7752-ddcd-410a-b401-5114352b446e","coordinates":[-50.7811686192558,-29.6505131034641]},{"id":"ee70e15a-c441-44b2-b961-7338c1cb5728","title":"RS - TRES PASSOS","tipo":null,"url":"\/dashboard\/details-assets\/ee70e15a-c441-44b2-b961-7338c1cb5728","coordinates":[-53.9296989580111,-27.45615988307]},{"id":"655afbfe-1d8e-433b-9b0e-0c95a70cac8e","title":"RS - TORRES","tipo":null,"url":"\/dashboard\/details-assets\/655afbfe-1d8e-433b-9b0e-0c95a70cac8e","coordinates":[-49.723909,-29.3344108]},{"id":"995575ab-7608-4461-b9a0-54540fcb24c7","title":"RS - SAO SEPE","tipo":null,"url":"\/dashboard\/details-assets\/995575ab-7608-4461-b9a0-54540fcb24c7","coordinates":[-53.56,-30.16]},{"id":"3b1e33d3-d94f-4bbe-b7e1-87feb58b2c37","title":"RS - SOLEDADE","tipo":null,"url":"\/dashboard\/details-assets\/3b1e33d3-d94f-4bbe-b7e1-87feb58b2c37","coordinates":[-52.51,-28.81]},{"id":"682b3cc1-50da-45a1-aa62-6a2376f9c8bf","title":"RS - SARANDI","tipo":null,"url":"\/dashboard\/details-assets\/682b3cc1-50da-45a1-aa62-6a2376f9c8bf","coordinates":[-52.9164069,-27.946449]},{"id":"48ed8f6a-3b97-4912-907c-479650822725","title":"RS - SAO LEOPOLDO","tipo":null,"url":"\/dashboard\/details-assets\/48ed8f6a-3b97-4912-907c-479650822725","coordinates":[-51.14,-29.76]},{"id":"c552f9d0-45a8-4658-b859-cba41665d802","title":"RS - SAO LUIZ GONZAGA","tipo":null,"url":"\/dashboard\/details-assets\/c552f9d0-45a8-4658-b859-cba41665d802","coordinates":[-54.9645197400391,-28.4057130686248]},{"id":"842c4429-1d21-4155-85ef-9aebbddb2ec8","title":"RS - SAO SAPE","tipo":null,"url":"\/dashboard\/details-assets\/842c4429-1d21-4155-85ef-9aebbddb2ec8","coordinates":[-53.5718212,-30.1639889]},{"id":"4d2cfcd1-83e8-4b70-9d0c-016a096d631f","title":"RS - SAO JERONIMO","tipo":null,"url":"\/dashboard\/details-assets\/4d2cfcd1-83e8-4b70-9d0c-016a096d631f","coordinates":[-51.7250108,-29.962127]},{"id":"37263ad4-d3cf-4377-ad23-0078f49dec51","title":"RS - SAO GABRIEL","tipo":null,"url":"\/dashboard\/details-assets\/37263ad4-d3cf-4377-ad23-0078f49dec51","coordinates":[-54.32,-30.33]},{"id":"39cc96ed-d350-455f-bcca-5bd26c1b6ab3","title":"RS - SAO BORJA","tipo":null,"url":"\/dashboard\/details-assets\/39cc96ed-d350-455f-bcca-5bd26c1b6ab3","coordinates":[-56.0041451,-28.6583059]},{"id":"88e5eb5d-fa38-4459-944c-57232f130aca","title":"RS - SAO FRANCISCO DE PAULA","tipo":null,"url":"\/dashboard\/details-assets\/88e5eb5d-fa38-4459-944c-57232f130aca","coordinates":[-50.5807037,-29.445913]},{"id":"e36997e3-a2ea-4d06-91fb-4156510b2004","title":"RS - SAO FRANCISCO DE ASSIS","tipo":null,"url":"\/dashboard\/details-assets\/e36997e3-a2ea-4d06-91fb-4156510b2004","coordinates":[-55.1257125,-29.5549057]},{"id":"09389e90-dc28-4c56-99ed-8c7b2d6b80e9","title":"RS - SANTO CRISTO","tipo":null,"url":"\/dashboard\/details-assets\/09389e90-dc28-4c56-99ed-8c7b2d6b80e9","coordinates":[-54.6630812,-27.8263074]},{"id":"9d01ffa6-29ce-4120-8ce7-b3196ad92e68","title":"RS - SAO  LEOPOLDO","tipo":null,"url":"\/dashboard\/details-assets\/9d01ffa6-29ce-4120-8ce7-b3196ad92e68","coordinates":[-54.6630812,-27.8263074]},{"id":"1432f8de-f654-4b7a-8784-aa2481301991","title":"RS - SANTO ANGELO","tipo":null,"url":"\/dashboard\/details-assets\/1432f8de-f654-4b7a-8784-aa2481301991","coordinates":[-54.2641427984269,-28.3019378725592]},{"id":"5602c466-f79d-4d2d-9092-93d6e4fa5180","title":"RS - SANTA VITORIA DO PALMAR","tipo":null,"url":"\/dashboard\/details-assets\/5602c466-f79d-4d2d-9092-93d6e4fa5180","coordinates":[-53.3664818,-33.5215632]},{"id":"bfab4924-026a-4eda-a922-20fe1e936696","title":"RS - SANTIAGO","tipo":null,"url":"\/dashboard\/details-assets\/bfab4924-026a-4eda-a922-20fe1e936696","coordinates":[-54.8690758537886,-29.1914601700905]},{"id":"63fd34ac-3afa-4844-87c1-87de681e6882","title":"RS - SANTA ROSA","tipo":null,"url":"\/dashboard\/details-assets\/63fd34ac-3afa-4844-87c1-87de681e6882","coordinates":[-54.4801558,-27.8706817]},{"id":"07611d8d-94d2-4eed-ab08-b4e666fe59f8","title":"RS - SANTA CRUZ DO SUL","tipo":null,"url":"\/dashboard\/details-assets\/07611d8d-94d2-4eed-ab08-b4e666fe59f8","coordinates":[-52.4348382,-29.722516]},{"id":"75d6d358-28e1-48f2-a72a-58a5dc0be569","title":"RS - SANTA MARIA","tipo":null,"url":"\/dashboard\/details-assets\/75d6d358-28e1-48f2-a72a-58a5dc0be569","coordinates":[-53.8154499,-29.68725]},{"id":"79717a8d-8931-4e10-a100-396577edb1f1","title":"RS - SANT ANA DO LIVRAMENTO","tipo":null,"url":"\/dashboard\/details-assets\/79717a8d-8931-4e10-a100-396577edb1f1","coordinates":[-55.5392304,-30.8772854]},{"id":"6758e363-20dd-4923-a8a6-fa1514acfc15","title":"RS - ROSARIO DO SUL","tipo":null,"url":"\/dashboard\/details-assets\/6758e363-20dd-4923-a8a6-fa1514acfc15","coordinates":[-54.9226452,-30.2488032]},{"id":"e68df467-8b60-483f-a04c-58058216174f","title":"RS - RIO GRANDE","tipo":null,"url":"\/dashboard\/details-assets\/e68df467-8b60-483f-a04c-58058216174f","coordinates":[-52.1004780640625,-32.0208682293724]},{"id":"99558582-3040-400b-99cd-eb703d780adb","title":"RS - RIO PARDO","tipo":null,"url":"\/dashboard\/details-assets\/99558582-3040-400b-99cd-eb703d780adb","coordinates":[-52.37,-29.99]},{"id":"1dcedbb2-dddc-4231-8804-da7dfef87158","title":"RS - PRATA","tipo":null,"url":"\/dashboard\/details-assets\/1dcedbb2-dddc-4231-8804-da7dfef87158","coordinates":[-51.6077771,-28.7840394]},{"id":"998cb05e-9621-41f9-88b1-4c7a83e92a20","title":"RS - QUARAI","tipo":null,"url":"\/dashboard\/details-assets\/998cb05e-9621-41f9-88b1-4c7a83e92a20","coordinates":[-56.4488086,-30.3845133]},{"id":"5f3d04f8-1257-47bf-bada-f70e37d4c957","title":"RS - PORTO ALEGRE","tipo":null,"url":"\/dashboard\/details-assets\/5f3d04f8-1257-47bf-bada-f70e37d4c957","coordinates":[-51.2176584,-30.0346471]},{"id":"2864963e-fd6b-4529-b892-5e14e84b32b7","title":"RS - PELOTAS","tipo":null,"url":"\/dashboard\/details-assets\/2864963e-fd6b-4529-b892-5e14e84b32b7","coordinates":[-52.34432,-31.7499652966305]},{"id":"0f456f2d-25b8-40b1-a209-99ad993b8121","title":"RS - PASSO FUNDO","tipo":null,"url":"\/dashboard\/details-assets\/0f456f2d-25b8-40b1-a209-99ad993b8121","coordinates":[-52.4070950926172,-28.2617671271174]},{"id":"8a3fd447-ed7c-465b-a326-dad7c6dc92f8","title":"RS - OSORIO","tipo":null,"url":"\/dashboard\/details-assets\/8a3fd447-ed7c-465b-a326-dad7c6dc92f8","coordinates":[-50.2848677046875,-29.8527814364185]},{"id":"a5575427-e469-429a-bcc2-ce999c58f247","title":"RS - PALMEIRA DAS MISSOES","tipo":null,"url":"\/dashboard\/details-assets\/a5575427-e469-429a-bcc2-ce999c58f247","coordinates":[-53.3140353,-27.9001784]},{"id":"870a4ccf-24ad-4f94-951b-a3aa5d84ed68","title":"RS - NOVO HAMBURGO","tipo":null,"url":"\/dashboard\/details-assets\/870a4ccf-24ad-4f94-951b-a3aa5d84ed68","coordinates":[-51.1255697,-29.6918991]},{"id":"f473780b-f1c5-44ab-9028-86e0671519d2","title":"RS - MONTENEGRO","tipo":null,"url":"\/dashboard\/details-assets\/f473780b-f1c5-44ab-9028-86e0671519d2","coordinates":[-51.4684153,-29.6829126]},{"id":"49a4e4dc-9b12-4dc2-a784-49b85ac3333c","title":"RS - NOVA PRATA","tipo":null,"url":"\/dashboard\/details-assets\/49a4e4dc-9b12-4dc2-a784-49b85ac3333c","coordinates":[-51.61,-28.78]},{"id":"bca1d935-6cdc-446e-b23b-282e788c65b4","title":"RS - JULIO DE CASTILHOS","tipo":null,"url":"\/dashboard\/details-assets\/bca1d935-6cdc-446e-b23b-282e788c65b4","coordinates":[-53.68,-29.22]},{"id":"bc768d67-0a79-4a17-94ab-2a1a4ba64c02","title":"RS - LAJEADO","tipo":null,"url":"\/dashboard\/details-assets\/bc768d67-0a79-4a17-94ab-2a1a4ba64c02","coordinates":[-51.9678277005001,-29.4654544016624]},{"id":"a7104ff1-aae6-4654-9dd5-f8dc970a8518","title":"RS - LAGOA VERMELHA","tipo":null,"url":"\/dashboard\/details-assets\/a7104ff1-aae6-4654-9dd5-f8dc970a8518","coordinates":[-51.5244569383789,-28.2033356446455]},{"id":"1029177d-0079-43c1-b033-de0d4f1ba6ab","title":"RS - JULIO DE CASTILHO","tipo":null,"url":"\/dashboard\/details-assets\/1029177d-0079-43c1-b033-de0d4f1ba6ab","coordinates":[-53.6827015,-29.2293516]},{"id":"0e816d2d-0c70-4bfd-858d-af6575c75c23","title":"RS - JAGUARI","tipo":null,"url":"\/dashboard\/details-assets\/0e816d2d-0c70-4bfd-858d-af6575c75c23","coordinates":[-54.6533747,-29.4848659]},{"id":"ee2ec800-e969-4a85-9ead-d198e9fe0231","title":"RS - ITAQUI","tipo":null,"url":"\/dashboard\/details-assets\/ee2ec800-e969-4a85-9ead-d198e9fe0231","coordinates":[-56.5481122,-29.1294007]},{"id":"1fff81d5-2469-4133-b14f-97b2ac7bc791","title":"RS - IJUI","tipo":null,"url":"\/dashboard\/details-assets\/1fff81d5-2469-4133-b14f-97b2ac7bc791","coordinates":[-53.918066835708,-28.3885365401951]},{"id":"e416014f-68b8-4198-8800-e9a32b5da31d","title":"RS - GUAPORE","tipo":null,"url":"\/dashboard\/details-assets\/e416014f-68b8-4198-8800-e9a32b5da31d","coordinates":[-51.8901313,-28.8479263]},{"id":"8ca12873-80d9-481b-93b3-010f9dcd470c","title":"RS - GUAIBA","tipo":null,"url":"\/dashboard\/details-assets\/8ca12873-80d9-481b-93b3-010f9dcd470c","coordinates":[-51.3146836637248,-30.1086019215542]},{"id":"a95b77a7-e924-4744-baf3-2485199ca74b","title":"RS - GETULIO VARGAS","tipo":null,"url":"\/dashboard\/details-assets\/a95b77a7-e924-4744-baf3-2485199ca74b","coordinates":[-52.22,-27.89]},{"id":"abfa84e0-6fcb-4598-9fb5-73e0a94976af","title":"RS - GRAVATAI","tipo":null,"url":"\/dashboard\/details-assets\/abfa84e0-6fcb-4598-9fb5-73e0a94976af","coordinates":[-50.99,-29.94]},{"id":"debd4d24-bab0-4c10-87f4-83af56c0ced5","title":"RS - ESPUMOSO","tipo":null,"url":"\/dashboard\/details-assets\/debd4d24-bab0-4c10-87f4-83af56c0ced5","coordinates":[-52.8444231,-28.7245183]},{"id":"2975c12c-8c17-42f0-b547-4ad62a018d0e","title":"RS - ERECHIM","tipo":null,"url":"\/dashboard\/details-assets\/2975c12c-8c17-42f0-b547-4ad62a018d0e","coordinates":[-52.2740707,-27.6347754]},{"id":"f67c0385-bdeb-40cc-9ec8-eaed13ac51f6","title":"RS - FREDERICO WESTPHALEN","tipo":null,"url":"\/dashboard\/details-assets\/f67c0385-bdeb-40cc-9ec8-eaed13ac51f6","coordinates":[-53.3963199,-27.3607338]},{"id":"88101c58-e6c3-44a2-8bc3-5910670f03f8","title":"RS - CHARQUEADAS","tipo":null,"url":"\/dashboard\/details-assets\/88101c58-e6c3-44a2-8bc3-5910670f03f8","coordinates":[-51.6250060521847,-29.9568003622277]},{"id":"68a38906-c930-46ac-92ac-ca16cb926e30","title":"RS - DOM PEDRITO","tipo":null,"url":"\/dashboard\/details-assets\/68a38906-c930-46ac-92ac-ca16cb926e30","coordinates":[-54.6650050611328,-30.9710503937702]},{"id":"2c18f391-9fda-4c4d-b92b-9fea85da4ea3","title":"RS - CRUZ ALTA","tipo":null,"url":"\/dashboard\/details-assets\/2c18f391-9fda-4c4d-b92b-9fea85da4ea3","coordinates":[-53.605355,-28.6454883]},{"id":"3a0bdb0e-4e49-4724-8d55-d5124dcef1df","title":"RS - CARAZINHO","tipo":null,"url":"\/dashboard\/details-assets\/3a0bdb0e-4e49-4724-8d55-d5124dcef1df","coordinates":[-52.793776,-28.2963334]},{"id":"5a889801-3601-4e2b-a927-f758f48ea65f","title":"RS - CAXIAS DO SUL","tipo":null,"url":"\/dashboard\/details-assets\/5a889801-3601-4e2b-a927-f758f48ea65f","coordinates":[-51.178860205883,-29.1668990102587]},{"id":"900fc159-86c7-4d90-babe-e9527ef44517","title":"RS - CANOAS","tipo":null,"url":"\/dashboard\/details-assets\/900fc159-86c7-4d90-babe-e9527ef44517","coordinates":[-51.1810297806876,-29.9186967056744]},{"id":"441e947f-9f0c-42c8-8f22-bf73e46b51c9","title":"RS - CANELA","tipo":null,"url":"\/dashboard\/details-assets\/441e947f-9f0c-42c8-8f22-bf73e46b51c9","coordinates":[-50.8124263,-29.3564931]},{"id":"51d688e1-9131-43c3-8a18-85a1d6c2a5ac","title":"RS - CANGUCU","tipo":null,"url":"\/dashboard\/details-assets\/51d688e1-9131-43c3-8a18-85a1d6c2a5ac","coordinates":[-52.6787852,-31.3964785]},{"id":"caa5e997-2e7b-4126-a098-8be46fb1a336","title":"RS - CACEQUI","tipo":null,"url":"\/dashboard\/details-assets\/caa5e997-2e7b-4126-a098-8be46fb1a336","coordinates":[-54.8265622,-29.8801552]},{"id":"f64f5d0e-3835-40de-84eb-4fa06a8aaa71","title":"RS - CAMAQUA","tipo":null,"url":"\/dashboard\/details-assets\/f64f5d0e-3835-40de-84eb-4fa06a8aaa71","coordinates":[-51.8048311,-30.8493976]},{"id":"55adfebc-4ef2-4283-b526-311092a16a71","title":"RS - CACHOEIRA DO SUL","tipo":null,"url":"\/dashboard\/details-assets\/55adfebc-4ef2-4283-b526-311092a16a71","coordinates":[-52.893221,-30.0336816]},{"id":"340dea5c-4f6e-49d1-b490-46d08bbfb5ba","title":"RS - CACAPAVA DO SUL","tipo":null,"url":"\/dashboard\/details-assets\/340dea5c-4f6e-49d1-b490-46d08bbfb5ba","coordinates":[-51.9614829532158,-30.1161440118278]},{"id":"3a962c39-eafb-423e-acf6-765bf2f3b090","title":"RS - BENTO GONCALVES","tipo":null,"url":"\/dashboard\/details-assets\/3a962c39-eafb-423e-acf6-765bf2f3b090","coordinates":[-51.5169861,-29.1667089]},{"id":"40f2c3b6-384d-4e70-8326-b6dd87001f59","title":"RS - ARROIO DOS RATOS","tipo":null,"url":"\/dashboard\/details-assets\/40f2c3b6-384d-4e70-8326-b6dd87001f59","coordinates":[-51.72,-30.07]},{"id":"13ba80a7-4361-4768-89d8-5e00f5be24db","title":"RS - ARROIO DO MEIO","tipo":null,"url":"\/dashboard\/details-assets\/13ba80a7-4361-4768-89d8-5e00f5be24db","coordinates":[-51.9474494916139,-29.3988907183293]},{"id":"d0dbf207-b5fb-4b8e-a369-bd84986f1dec","title":"RS - BAGE","tipo":null,"url":"\/dashboard\/details-assets\/d0dbf207-b5fb-4b8e-a369-bd84986f1dec","coordinates":[-54.1004709,-31.3301746]},{"id":"840a6e91-9926-4b30-ac78-88e9b5d3739b","title":"RS - ALEGRETE","tipo":null,"url":"\/dashboard\/details-assets\/840a6e91-9926-4b30-ac78-88e9b5d3739b","coordinates":[-55.7847960882813,-29.7731797174279]},{"id":"1b36e25e-81f3-4ddb-ad1b-0ff9bf9fad75","title":"RS - AGUDO","tipo":null,"url":"\/dashboard\/details-assets\/1b36e25e-81f3-4ddb-ad1b-0ff9bf9fad75","coordinates":[-53.24,-29.64]},{"id":"f011ba3d-4c69-49ae-9c29-a64821518f7d","title":"RS - ARRIO DOS RATOS","tipo":null,"url":"\/dashboard\/details-assets\/f011ba3d-4c69-49ae-9c29-a64821518f7d","coordinates":[-51.7279954,-30.0880438]},{"id":"26a684d7-fff6-4d08-8a79-db5a132a7af4","title":"RN - PARNAMIRIM","tipo":null,"url":"\/dashboard\/details-assets\/26a684d7-fff6-4d08-8a79-db5a132a7af4","coordinates":[-39.5757868229726,-8.09013832690584]},{"id":"e0c0b74d-702f-4dd6-a1ff-9db7309b3fb2","title":"RN - PAU DOS FERROS","tipo":null,"url":"\/dashboard\/details-assets\/e0c0b74d-702f-4dd6-a1ff-9db7309b3fb2","coordinates":[-38.2,-6.11]},{"id":"2821c5c9-a15d-4d8e-af5f-44fb67d6245a","title":"RN - MOSSORO","tipo":null,"url":"\/dashboard\/details-assets\/2821c5c9-a15d-4d8e-af5f-44fb67d6245a","coordinates":[-37.3568741367043,-5.19380123453833]},{"id":"b70e96e2-fa0c-483d-a6e9-d4687cfc8819","title":"RN - NATAL","tipo":null,"url":"\/dashboard\/details-assets\/b70e96e2-fa0c-483d-a6e9-d4687cfc8819","coordinates":[-35.2158627880859,-5.79872025536009]},{"id":"b6263e56-1bd9-4a71-a92c-d5ed42034fd2","title":"RN - NISIA FLORESTA","tipo":null,"url":"\/dashboard\/details-assets\/b6263e56-1bd9-4a71-a92c-d5ed42034fd2","coordinates":[-35.2,-6.09]},{"id":"12688654-bb51-4902-a656-81b0967b7110","title":"RN - CARAUBAS","tipo":null,"url":"\/dashboard\/details-assets\/12688654-bb51-4902-a656-81b0967b7110","coordinates":[-37.55,-5.79]},{"id":"7947a14b-fa4e-465c-b9f7-add3bbe7c118","title":"RN - CAICO","tipo":null,"url":"\/dashboard\/details-assets\/7947a14b-fa4e-465c-b9f7-add3bbe7c118","coordinates":[-37.0964887711922,-6.45913883118207]},{"id":"aaaaccbd-b072-4030-97b2-3a5495b00f03","title":"RN - CEARA-MIRIM","tipo":null,"url":"\/dashboard\/details-assets\/aaaaccbd-b072-4030-97b2-3a5495b00f03","coordinates":[-35.42,-5.63]},{"id":"a5cf83bf-8aff-467a-a705-a9f3305fb309","title":"RN - APODI","tipo":null,"url":"\/dashboard\/details-assets\/a5cf83bf-8aff-467a-a705-a9f3305fb309","coordinates":[-37.79,-5.66]},{"id":"c7379772-5db8-4182-a326-95acf72938a9","title":"RJ - VOLTA REDONDA","tipo":null,"url":"\/dashboard\/details-assets\/c7379772-5db8-4182-a326-95acf72938a9","coordinates":[-44.0947303,-22.5077597]},{"id":"2a58507d-91f5-4de7-8fea-e89b1aa1cb8f","title":"RJ - TERESOPOLIS","tipo":null,"url":"\/dashboard\/details-assets\/2a58507d-91f5-4de7-8fea-e89b1aa1cb8f","coordinates":[-42.9756194,-22.416956]},{"id":"2aed2ca7-acff-4092-ae73-7a278b530d6d","title":"RJ - SAO GONCALO","tipo":null,"url":"\/dashboard\/details-assets\/2aed2ca7-acff-4092-ae73-7a278b530d6d","coordinates":[-43.0637646,-22.8272883]},{"id":"792bf6c2-701c-42f6-b5c9-32b46f7223e7","title":"RJ - PORTO REAL","tipo":null,"url":"\/dashboard\/details-assets\/792bf6c2-701c-42f6-b5c9-32b46f7223e7","coordinates":[-44.2955901,-22.4179651]},{"id":"a9ad3455-3a8e-4ded-a803-ee672f151f11","title":"RJ - RIO DE JANEIRO","tipo":null,"url":"\/dashboard\/details-assets\/a9ad3455-3a8e-4ded-a803-ee672f151f11","coordinates":[-43.16743575,-22.8361572211111]},{"id":"e16ad80d-67fa-4c64-9286-4b62723a4cac","title":"RJ - NITEROI","tipo":null,"url":"\/dashboard\/details-assets\/e16ad80d-67fa-4c64-9286-4b62723a4cac","coordinates":[-43.1152211,-22.8858975]},{"id":"6d468213-63e4-4f52-b2e2-0db7140cc1db","title":"RJ - NOVA FRIBURGO","tipo":null,"url":"\/dashboard\/details-assets\/6d468213-63e4-4f52-b2e2-0db7140cc1db","coordinates":[-42.5340796,-22.2887261]},{"id":"10d9e443-cc2e-405d-935d-c53ba40b8390","title":"RJ - NOVA IGUACU","tipo":null,"url":"\/dashboard\/details-assets\/10d9e443-cc2e-405d-935d-c53ba40b8390","coordinates":[-43.4607419,-22.7561319]},{"id":"d1d00d29-4d0b-42b5-8009-06fa2d6591de","title":"RJ - JAPERI","tipo":null,"url":"\/dashboard\/details-assets\/d1d00d29-4d0b-42b5-8009-06fa2d6591de","coordinates":[-43.6606463,-22.6439978]},{"id":"85977eda-f11f-4866-94db-859d05ecc502","title":"RJ - MAGE","tipo":null,"url":"\/dashboard\/details-assets\/85977eda-f11f-4866-94db-859d05ecc502","coordinates":[-43.0398345,-22.6566022]},{"id":"73e441b9-86b6-4494-9a4b-23ac53fec31c","title":"RJ - MACAE","tipo":null,"url":"\/dashboard\/details-assets\/73e441b9-86b6-4494-9a4b-23ac53fec31c","coordinates":[-41.7827891,-22.3836904]},{"id":"079261d0-cdec-4d4e-8f38-d9d157602d49","title":"RJ - NILOPOLIS","tipo":null,"url":"\/dashboard\/details-assets\/079261d0-cdec-4d4e-8f38-d9d157602d49","coordinates":[-43.41941,-22.809816]},{"id":"3530164e-ccda-4dd4-86d3-dd445e3f457b","title":"RJ - ITAPERUNA","tipo":null,"url":"\/dashboard\/details-assets\/3530164e-ccda-4dd4-86d3-dd445e3f457b","coordinates":[-41.8802333,-21.2000807]},{"id":"a902278b-0aac-4b04-80a9-78319b831c27","title":"RJ - DUQUE DE CAXIAS","tipo":null,"url":"\/dashboard\/details-assets\/a902278b-0aac-4b04-80a9-78319b831c27","coordinates":[-43.3053106,-22.7862985]},{"id":"ffcf3cf2-68c3-4f07-b4d8-e480cb22dcf7","title":"RJ - BELFORD ROXO","tipo":null,"url":"\/dashboard\/details-assets\/ffcf3cf2-68c3-4f07-b4d8-e480cb22dcf7","coordinates":[-43.3996264,-22.7645391]},{"id":"ca176c6a-8570-4dfa-adca-075ebd0986a5","title":"RJ - CABO FRIO","tipo":null,"url":"\/dashboard\/details-assets\/ca176c6a-8570-4dfa-adca-075ebd0986a5","coordinates":[-42.0262542,-22.8867507]},{"id":"6c78ec72-0970-4607-a390-956ade0673e9","title":"RJ - CAMPOS DOS GOYTACAZES","tipo":null,"url":"\/dashboard\/details-assets\/6c78ec72-0970-4607-a390-956ade0673e9","coordinates":[-41.3184877,-21.7626902]},{"id":"cc2ac53e-857b-4ce3-83e4-55176d53c491","title":"RJ - BARRA MANSA","tipo":null,"url":"\/dashboard\/details-assets\/cc2ac53e-857b-4ce3-83e4-55176d53c491","coordinates":[-44.1772604,-22.5408519]},{"id":"e0314da8-726a-4733-b149-74be086d3d35","title":"PI - TERESINA","tipo":null,"url":"\/dashboard\/details-assets\/e0314da8-726a-4733-b149-74be086d3d35","coordinates":[-42.8052704582233,-5.08634195215484]},{"id":"88ffde6d-f201-400d-8f25-cd2242c72423","title":"PI - SAO RAIMUNDO NONATO","tipo":null,"url":"\/dashboard\/details-assets\/88ffde6d-f201-400d-8f25-cd2242c72423","coordinates":[-42.6922851641908,-9.0153604820623]},{"id":"1535d93b-277e-4367-8447-e104c2a9ff28","title":"PI - PARNAIBA","tipo":null,"url":"\/dashboard\/details-assets\/1535d93b-277e-4367-8447-e104c2a9ff28","coordinates":[-41.7781705920245,-2.90336014441333]},{"id":"cbf74b86-027d-4a26-9aeb-86358d33ba49","title":"PI - PICOS","tipo":null,"url":"\/dashboard\/details-assets\/cbf74b86-027d-4a26-9aeb-86358d33ba49","coordinates":[-41.4688267146679,-7.0813739119682]},{"id":"7ca0c569-27e6-4a03-8121-d5d4a683b418","title":"PI - ESPERANTINA","tipo":null,"url":"\/dashboard\/details-assets\/7ca0c569-27e6-4a03-8121-d5d4a683b418","coordinates":[-42.2342203,-3.8945585]},{"id":"8bbecaa1-839a-4cb1-ba5e-79450afa9955","title":"PI - OEIRAS","tipo":null,"url":"\/dashboard\/details-assets\/8bbecaa1-839a-4cb1-ba5e-79450afa9955","coordinates":[-42.1314056604251,-7.0164180057338]},{"id":"a528c0b5-4e92-4d2c-a00b-67ebaaa0faeb","title":"PI - FLORIANO","tipo":null,"url":"\/dashboard\/details-assets\/a528c0b5-4e92-4d2c-a00b-67ebaaa0faeb","coordinates":[-43.0206447383255,-6.76967243356518]},{"id":"24d875d3-e7ef-4cb8-a3f8-c262ebb0bbef","title":"PI - CAMPO MAIOR","tipo":null,"url":"\/dashboard\/details-assets\/24d875d3-e7ef-4cb8-a3f8-c262ebb0bbef","coordinates":[-42.16,-4.82]},{"id":"29368b8f-7e50-48b5-ac6d-aee1ec2490e8","title":"PI - BOM JESUS","tipo":null,"url":"\/dashboard\/details-assets\/29368b8f-7e50-48b5-ac6d-aee1ec2490e8","coordinates":[-44.357392,-9.074637]},{"id":"97cf0018-d256-4dae-b71c-d9a14af558cb","title":"PI - ALTOS","tipo":null,"url":"\/dashboard\/details-assets\/97cf0018-d256-4dae-b71c-d9a14af558cb","coordinates":[-42.4609480355568,-5.03654643417531]},{"id":"516a001d-bd45-4c0c-a955-c5b81fe24e67","title":"PE - VITORIA DE SANTO ANTAO","tipo":null,"url":"\/dashboard\/details-assets\/516a001d-bd45-4c0c-a955-c5b81fe24e67","coordinates":[-35.2938642410814,-8.11874799973584]},{"id":"f2adf234-5197-4a9b-b206-da6c575a2a2b","title":"PE - TIMBAUBA","tipo":null,"url":"\/dashboard\/details-assets\/f2adf234-5197-4a9b-b206-da6c575a2a2b","coordinates":[-35.3168703,-7.512005]},{"id":"d98d6777-2431-41db-b3cf-b5026b66c857","title":"PE - SANTA CRUZ DO CAPIBARIBE","tipo":null,"url":"\/dashboard\/details-assets\/d98d6777-2431-41db-b3cf-b5026b66c857","coordinates":[-36.2039500171458,-7.95518949974102]},{"id":"8ebd3ba2-9bee-4597-8baa-803a5f6a026b","title":"PE - RECIFE","tipo":null,"url":"\/dashboard\/details-assets\/8ebd3ba2-9bee-4597-8baa-803a5f6a026b","coordinates":[-34.8889419445777,-8.06276248279001]},{"id":"53e3a91e-0cea-42da-a607-508aabf06686","title":"PE - PETROLINA","tipo":null,"url":"\/dashboard\/details-assets\/53e3a91e-0cea-42da-a607-508aabf06686","coordinates":[-40.4999993346523,-9.39737551469565]},{"id":"064ec838-9b90-48cc-973a-14cf9cfc6d84","title":"PE - PALMARES","tipo":null,"url":"\/dashboard\/details-assets\/064ec838-9b90-48cc-973a-14cf9cfc6d84","coordinates":[-35.5883359937581,-8.67908249971815]},{"id":"cfcb9f79-6c52-4680-a07b-fae2ea7ed144","title":"PE - PESQUEIRA","tipo":null,"url":"\/dashboard\/details-assets\/cfcb9f79-6c52-4680-a07b-fae2ea7ed144","coordinates":[-36.69,-8.35]},{"id":"027f155a-076f-4692-a240-4cfd54484135","title":"PE - LIMOEIRO","tipo":null,"url":"\/dashboard\/details-assets\/027f155a-076f-4692-a240-4cfd54484135","coordinates":[-35.4552610509597,-7.88019799974339]},{"id":"615f3864-76bb-4c8a-ba52-2f1e56269725","title":"PE - IGARASSU","tipo":null,"url":"\/dashboard\/details-assets\/615f3864-76bb-4c8a-ba52-2f1e56269725","coordinates":[-34.9105833875875,-7.82837198974503]},{"id":"e3993359-8809-4b9b-bd09-ade42a8b5b0f","title":"PE - ILHA DE ITAMARACA","tipo":null,"url":"\/dashboard\/details-assets\/e3993359-8809-4b9b-bd09-ade42a8b5b0f","coordinates":[-34.8306327,-7.7480776]},{"id":"7de8ca39-f615-4164-adbe-07066077aa01","title":"PE - JABOATAO DOS GUARARAPES","tipo":null,"url":"\/dashboard\/details-assets\/7de8ca39-f615-4164-adbe-07066077aa01","coordinates":[-34.9988568957031,-8.16802124239862]},{"id":"5b1de28f-df2b-4679-b9f7-0f9b0a667949","title":"PE - CARUARU","tipo":null,"url":"\/dashboard\/details-assets\/5b1de28f-df2b-4679-b9f7-0f9b0a667949","coordinates":[-35.9670733600535,-8.28589799973057]},{"id":"bcb1ad2f-20ef-4997-97c5-48ed48b0e208","title":"PE - GARANHUNS","tipo":null,"url":"\/dashboard\/details-assets\/bcb1ad2f-20ef-4997-97c5-48ed48b0e208","coordinates":[-36.4930502821005,-8.88890552971159]},{"id":"011cef98-614a-46d1-a1f9-64380c2ddfc5","title":"PE - CABO DE SANTO AGOSTINHO","tipo":null,"url":"\/dashboard\/details-assets\/011cef98-614a-46d1-a1f9-64380c2ddfc5","coordinates":[-35.0384889718131,-8.2898642300283]},{"id":"dba15f2f-8987-4885-aed0-d88c5f6f13e8","title":"PE - BUIQUE","tipo":null,"url":"\/dashboard\/details-assets\/dba15f2f-8987-4885-aed0-d88c5f6f13e8","coordinates":[-37.0829593,-8.6165115]},{"id":"89890eb0-cf93-4bfb-b1fd-2609d2a1380b","title":"PE - CANHOTINHO","tipo":null,"url":"\/dashboard\/details-assets\/89890eb0-cf93-4bfb-b1fd-2609d2a1380b","coordinates":[-36.1998590035156,-8.87051388232918]},{"id":"7b19441e-9baa-4bc7-884e-da923d13d94c","title":"PE - ARCOVERDE","tipo":null,"url":"\/dashboard\/details-assets\/7b19441e-9baa-4bc7-884e-da923d13d94c","coordinates":[-37.0565055646245,-8.42394049972621]},{"id":"a4edcf52-3306-4879-8e9a-484b9b275cb0","title":"PE - ABREU E LIMA","tipo":null,"url":"\/dashboard\/details-assets\/a4edcf52-3306-4879-8e9a-484b9b275cb0","coordinates":[-34.8987086,-7.9011493]},{"id":"c8cc9748-2dd4-4cdb-b3ad-46c0e03c697f","title":"PR - WENCESLAU BRAZ","tipo":null,"url":"\/dashboard\/details-assets\/c8cc9748-2dd4-4cdb-b3ad-46c0e03c697f","coordinates":[-49.80298478237,-23.8704228521509]},{"id":"085b008f-0092-4836-93d1-e5307d868c1d","title":"PR - TOLEDO","tipo":null,"url":"\/dashboard\/details-assets\/085b008f-0092-4836-93d1-e5307d868c1d","coordinates":[-53.7414114911568,-24.7320769992824]},{"id":"63f27591-a88e-497f-aeda-728bb8f81306","title":"PR - UMUARAMA","tipo":null,"url":"\/dashboard\/details-assets\/63f27591-a88e-497f-aeda-728bb8f81306","coordinates":[-53.32,-23.76]},{"id":"ceac14f3-856a-4db1-acfc-4a28047739a4","title":"PR - UMARAMA","tipo":null,"url":"\/dashboard\/details-assets\/ceac14f3-856a-4db1-acfc-4a28047739a4","coordinates":[-53.3206105,-23.7661064]},{"id":"e72c889d-3ba4-486d-b75e-4fc2754b6ce3","title":"PR - SANTO ANTONIO DA PLATINA","tipo":null,"url":"\/dashboard\/details-assets\/e72c889d-3ba4-486d-b75e-4fc2754b6ce3","coordinates":[-50.0726882,-23.2980974]},{"id":"2ee3f8c5-66a8-4562-b225-537eede37367","title":"PR - SAO JOSE DOS PINHAIS","tipo":null,"url":"\/dashboard\/details-assets\/2ee3f8c5-66a8-4562-b225-537eede37367","coordinates":[-53.7256129,-26.074187]},{"id":"a8e62548-e75d-419f-8249-d63d5106cdcf","title":"PR - PIRAQUARA","tipo":null,"url":"\/dashboard\/details-assets\/a8e62548-e75d-419f-8249-d63d5106cdcf","coordinates":[-49.0653056139231,-25.4465503557216]},{"id":"3fab699b-29e4-4a5f-ae06-a5d886405359","title":"PR - PONTA GROSSA","tipo":null,"url":"\/dashboard\/details-assets\/3fab699b-29e4-4a5f-ae06-a5d886405359","coordinates":[-50.1614420592942,-25.0925469992748]},{"id":"32cde65d-d85f-4925-823a-b98e570461aa","title":"PR - PINHAIS","tipo":null,"url":"\/dashboard\/details-assets\/32cde65d-d85f-4925-823a-b98e570461aa","coordinates":[-49.1931448,-25.4434411]},{"id":"7dad03e2-68bf-49a6-a9ea-d195fbc8b70c","title":"PR - PATO BRANCO","tipo":null,"url":"\/dashboard\/details-assets\/7dad03e2-68bf-49a6-a9ea-d195fbc8b70c","coordinates":[-52.6773619976723,-26.2299585142514]},{"id":"aa24de5c-6df6-47ad-8ec2-78aa9c697120","title":"PR - PARANAVAI","tipo":null,"url":"\/dashboard\/details-assets\/aa24de5c-6df6-47ad-8ec2-78aa9c697120","coordinates":[-48.5247328366567,-25.5068414992661]},{"id":"2bd786e1-a042-48fa-b260-6bb7551d4248","title":"PR - MARINGA","tipo":null,"url":"\/dashboard\/details-assets\/2bd786e1-a042-48fa-b260-6bb7551d4248","coordinates":[-51.9398818702521,-23.4222799993112]},{"id":"f018ba53-05da-4f8a-bf30-a7720e494ed3","title":"PR - LONDRINA","tipo":null,"url":"\/dashboard\/details-assets\/f018ba53-05da-4f8a-bf30-a7720e494ed3","coordinates":[-51.1627734238781,-23.3121559993137]},{"id":"a6cb2680-4964-4d6e-acaf-2293c52838f1","title":"PR - LARANJEIRAS DO SUL","tipo":null,"url":"\/dashboard\/details-assets\/a6cb2680-4964-4d6e-acaf-2293c52838f1","coordinates":[-52.4134746,-25.4079504]},{"id":"d7f2784c-c5f7-4df6-8320-67dcf3b6e778","title":"PR - LAPA","tipo":null,"url":"\/dashboard\/details-assets\/d7f2784c-c5f7-4df6-8320-67dcf3b6e778","coordinates":[-49.7172529,-25.7675725]},{"id":"da2c5311-a997-4690-8fe6-244ac39d10d0","title":"PR - GUARAPUAVA","tipo":null,"url":"\/dashboard\/details-assets\/da2c5311-a997-4690-8fe6-244ac39d10d0","coordinates":[-48.5757259604424,-25.8742419742585]},{"id":"0317e939-28e2-4550-950e-ec295b56f5b6","title":"PR - FOZ DO IGUACU","tipo":null,"url":"\/dashboard\/details-assets\/0317e939-28e2-4550-950e-ec295b56f5b6","coordinates":[-54.5871024886046,-25.5424932787946]},{"id":"edb58fe6-1687-4207-86a4-d7ba2d32f0a6","title":"PR - FRANCISCO BELTRAO","tipo":null,"url":"\/dashboard\/details-assets\/edb58fe6-1687-4207-86a4-d7ba2d32f0a6","coordinates":[-53.0561357214894,-26.0784499992544]},{"id":"d1237961-7fb4-4bb3-bc6a-9bca74fc3e9d","title":"PR - FAZENDA RIO GRANDE","tipo":null,"url":"\/dashboard\/details-assets\/d1237961-7fb4-4bb3-bc6a-9bca74fc3e9d","coordinates":[-49.3077648,-25.6628343]},{"id":"352435a0-25c1-4dae-917f-b336515a3dd8","title":"PR - CURITIBA","tipo":null,"url":"\/dashboard\/details-assets\/352435a0-25c1-4dae-917f-b336515a3dd8","coordinates":[-49.2718478850774,-25.4329559992677]},{"id":"8a0eae07-141f-4e2e-8bc7-eb1badb1d24b","title":"PR - CATANDUVAS","tipo":null,"url":"\/dashboard\/details-assets\/8a0eae07-141f-4e2e-8bc7-eb1badb1d24b","coordinates":[-53.1553309,-25.204834]},{"id":"e3f8090c-85c7-4527-afed-50d30a116ec3","title":"PR - CRUZEIRO DO OESTE","tipo":null,"url":"\/dashboard\/details-assets\/e3f8090c-85c7-4527-afed-50d30a116ec3","coordinates":[-53.0762805,-23.7834562]},{"id":"a072615f-200e-4b08-a2fa-cb770ecda691","title":"PR - CASTRO","tipo":null,"url":"\/dashboard\/details-assets\/a072615f-200e-4b08-a2fa-cb770ecda691","coordinates":[-50.0028111277611,-24.7954174992811]},{"id":"9296a37e-20f9-4ef2-8c4d-7b20bbe18260","title":"PR - CASCAVEL","tipo":null,"url":"\/dashboard\/details-assets\/9296a37e-20f9-4ef2-8c4d-7b20bbe18260","coordinates":[-53.4595112,-24.9577771]},{"id":"6dffb252-54a4-44a5-b583-c804fb209565","title":"PR - CAMPO MOURAO","tipo":null,"url":"\/dashboard\/details-assets\/6dffb252-54a4-44a5-b583-c804fb209565","coordinates":[-52.3811150855647,-24.0412231960172]},{"id":"90849cfa-dac4-4bc4-9fd5-74bb9fbc779d","title":"PR - ARAUCARIA","tipo":null,"url":"\/dashboard\/details-assets\/90849cfa-dac4-4bc4-9fd5-74bb9fbc779d","coordinates":[-49.4019396967087,-25.5916449992644]},{"id":"62013734-83b1-4a5d-9c05-efdcc236bf93","title":"PR - BARRACAO","tipo":null,"url":"\/dashboard\/details-assets\/62013734-83b1-4a5d-9c05-efdcc236bf93","coordinates":[-53.63,-26.25]},{"id":"a940f5b5-3266-4a2c-9ee3-c0f358112806","title":"PB - UMBUZEIRO","tipo":null,"url":"\/dashboard\/details-assets\/a940f5b5-3266-4a2c-9ee3-c0f358112806","coordinates":[-35.6653832,-7.6963786]},{"id":"685c4347-b729-4298-aabc-218bac128702","title":"PB - SOUSA","tipo":null,"url":"\/dashboard\/details-assets\/685c4347-b729-4298-aabc-218bac128702","coordinates":[-38.2296050806011,-6.76337800477903]},{"id":"031981a4-8678-4627-8c81-366cecd0b4c9","title":"PB - SOLEDADE","tipo":null,"url":"\/dashboard\/details-assets\/031981a4-8678-4627-8c81-366cecd0b4c9","coordinates":[-36.36,-7.05]},{"id":"bc70bb50-8247-422c-8ae6-65c75d494dd4","title":"PB - TEIXEIRA","tipo":null,"url":"\/dashboard\/details-assets\/bc70bb50-8247-422c-8ae6-65c75d494dd4","coordinates":[-37.2523026,-7.2212062]},{"id":"6d0a20fb-3a3c-40ab-991e-c338830acd1e","title":"PB - SERRA BRANCA","tipo":null,"url":"\/dashboard\/details-assets\/6d0a20fb-3a3c-40ab-991e-c338830acd1e","coordinates":[-36.6639815,-7.4828261]},{"id":"f86101d3-d9c4-4ab2-81a3-088526f33e44","title":"PB - SOLANEA","tipo":null,"url":"\/dashboard\/details-assets\/f86101d3-d9c4-4ab2-81a3-088526f33e44","coordinates":[-35.6595757,-6.758019]},{"id":"9b51929b-547b-4beb-852b-b78a4dd27092","title":"PB - SAO JOAO DO RIO DO PEIXE","tipo":null,"url":"\/dashboard\/details-assets\/9b51929b-547b-4beb-852b-b78a4dd27092","coordinates":[-38.445453570848,-6.73443082810047]},{"id":"a5c82bf8-78b0-4e6c-8da0-de6d848bca15","title":"PB - SAPE","tipo":null,"url":"\/dashboard\/details-assets\/a5c82bf8-78b0-4e6c-8da0-de6d848bca15","coordinates":[-35.2304326165497,-7.08711099976866]},{"id":"9e74fd2d-7b8f-42ef-9994-6a0c5face899","title":"PB - SAO JOSE DE PIRANHAS","tipo":null,"url":"\/dashboard\/details-assets\/9e74fd2d-7b8f-42ef-9994-6a0c5face899","coordinates":[-38.4993817,-7.1191546]},{"id":"83f1e75c-be67-4c57-9b3a-ecc51bf9c25d","title":"PB - SANTA RITA","tipo":null,"url":"\/dashboard\/details-assets\/83f1e75c-be67-4c57-9b3a-ecc51bf9c25d","coordinates":[-34.9662353,-7.135868]},{"id":"27f1616c-af57-4ad9-b705-be1016d41ff2","title":"PB - SANTA LUZIA","tipo":null,"url":"\/dashboard\/details-assets\/27f1616c-af57-4ad9-b705-be1016d41ff2","coordinates":[-36.925263,-6.83917]},{"id":"07ec76dc-b04a-40c1-b7ab-75600cff75b4","title":"PB - PRINCESA ISABEL","tipo":null,"url":"\/dashboard\/details-assets\/07ec76dc-b04a-40c1-b7ab-75600cff75b4","coordinates":[-37.9916987,-7.7362124]},{"id":"f7b4e308-8084-4b7f-9f9d-f02b2d2a2648","title":"PB - POMBAL","tipo":null,"url":"\/dashboard\/details-assets\/f7b4e308-8084-4b7f-9f9d-f02b2d2a2648","coordinates":[-37.7973839,-6.7708458]},{"id":"c33c39e6-a13b-4275-be4f-269888fe8e58","title":"PB - QUEIMADAS","tipo":null,"url":"\/dashboard\/details-assets\/c33c39e6-a13b-4275-be4f-269888fe8e58","coordinates":[-35.902741,-7.348847]},{"id":"38fcef6a-f922-435e-8a15-dc861a40b578","title":"PB - POCINHOS","tipo":null,"url":"\/dashboard\/details-assets\/38fcef6a-f922-435e-8a15-dc861a40b578","coordinates":[-36.0545356121094,-7.06911612929681]},{"id":"6cce3650-95fe-47ed-b672-58c2c8e7f996","title":"PB - PIANCO","tipo":null,"url":"\/dashboard\/details-assets\/6cce3650-95fe-47ed-b672-58c2c8e7f996","coordinates":[-37.92,-7.19]},{"id":"fdc8244e-009c-4dfc-bc6a-ade912c1ca46","title":"PB - PILAR","tipo":null,"url":"\/dashboard\/details-assets\/fdc8244e-009c-4dfc-bc6a-ade912c1ca46","coordinates":[-35.2697802,-7.2787651]},{"id":"f0771d1a-85a0-483f-a17e-bdbdb0d8347a","title":"PB - PIACO","tipo":null,"url":"\/dashboard\/details-assets\/f0771d1a-85a0-483f-a17e-bdbdb0d8347a","coordinates":[-37.9228255,-7.1957199]},{"id":"7ebbf9bd-6657-4f7b-b07f-a5c45425e0d6","title":"PB - PEDRAS DE FOGO","tipo":null,"url":"\/dashboard\/details-assets\/7ebbf9bd-6657-4f7b-b07f-a5c45425e0d6","coordinates":[-35.11,-7.4]},{"id":"fce367c1-82fd-48d6-9cff-20db047ce647","title":"PB - PEDRA DE FOGO","tipo":null,"url":"\/dashboard\/details-assets\/fce367c1-82fd-48d6-9cff-20db047ce647","coordinates":[-35.1117491,-7.4009253]},{"id":"657c884e-4a13-45f0-a2a6-8a711840f74b","title":"PB - PATOS","tipo":null,"url":"\/dashboard\/details-assets\/657c884e-4a13-45f0-a2a6-8a711840f74b","coordinates":[-37.2769133372926,-7.02449166798991]},{"id":"c856d8d5-b7a8-47a4-9140-7db5bcfeba5f","title":"PB - MONTEIRO","tipo":null,"url":"\/dashboard\/details-assets\/c856d8d5-b7a8-47a4-9140-7db5bcfeba5f","coordinates":[-37.1171012,-7.8887727]},{"id":"8b0e0093-9026-4919-82a1-d3d6a446ab4f","title":"PB - LAGOA SECA","tipo":null,"url":"\/dashboard\/details-assets\/8b0e0093-9026-4919-82a1-d3d6a446ab4f","coordinates":[-35.8498078,-7.1637491]},{"id":"f76ae2bf-84af-47a6-a9d4-b808842fd5d7","title":"PB - MAMANGUAPE","tipo":null,"url":"\/dashboard\/details-assets\/f76ae2bf-84af-47a6-a9d4-b808842fd5d7","coordinates":[-35.1238932020901,-6.83371514670995]},{"id":"7e8b6fd7-23cf-4ed0-9f97-9c20d69b6000","title":"PB - JOAO PESSOA","tipo":null,"url":"\/dashboard\/details-assets\/7e8b6fd7-23cf-4ed0-9f97-9c20d69b6000","coordinates":[-34.8733848135386,-7.14938201976666]},{"id":"abc4669d-3246-4312-b384-77644579f4ae","title":"PB - JUAZEIRINHO","tipo":null,"url":"\/dashboard\/details-assets\/abc4669d-3246-4312-b384-77644579f4ae","coordinates":[-36.5794208,-7.0693466]},{"id":"50372805-7dda-40a4-954c-15ad23d88d2c","title":"PB - JACARAU","tipo":null,"url":"\/dashboard\/details-assets\/50372805-7dda-40a4-954c-15ad23d88d2c","coordinates":[-35.2911117,-6.6150571]},{"id":"a275ffc4-feef-4716-9b5b-8f2acd5f1c06","title":"PB - INGA","tipo":null,"url":"\/dashboard\/details-assets\/a275ffc4-feef-4716-9b5b-8f2acd5f1c06","coordinates":[-35.61,-7.26]},{"id":"294515e8-7625-457f-8224-10f568665e06","title":"PB - ITAPORANGA","tipo":null,"url":"\/dashboard\/details-assets\/294515e8-7625-457f-8224-10f568665e06","coordinates":[-49.4843963120808,-23.7034999424681]},{"id":"761da7df-3b22-44b0-b135-f370fa25d700","title":"PB - ITABAIANA","tipo":null,"url":"\/dashboard\/details-assets\/761da7df-3b22-44b0-b135-f370fa25d700","coordinates":[-37.4268609403324,-10.6857160379744]},{"id":"10a69bf0-ec97-4411-9969-6b2348d3884a","title":"PB - CUITE","tipo":null,"url":"\/dashboard\/details-assets\/10a69bf0-ec97-4411-9969-6b2348d3884a","coordinates":[-36.1532081655002,-6.48555530094224]},{"id":"726cd0bb-adb8-469c-8c2d-5ff9cdb8f9c2","title":"PB - ESPERANCA","tipo":null,"url":"\/dashboard\/details-assets\/726cd0bb-adb8-469c-8c2d-5ff9cdb8f9c2","coordinates":[-35.8585932869695,-7.0206849997708]},{"id":"9c7d6011-29f8-46da-b5d4-089bbf73d1b1","title":"PB - GUARABIRA","tipo":null,"url":"\/dashboard\/details-assets\/9c7d6011-29f8-46da-b5d4-089bbf73d1b1","coordinates":[-35.4899649848849,-6.85271499977616]},{"id":"e3b237fa-720f-484b-98dd-90b0ecd894a2","title":"PB - CRUZ DO ESPIRITO SANTO","tipo":null,"url":"\/dashboard\/details-assets\/e3b237fa-720f-484b-98dd-90b0ecd894a2","coordinates":[-35.08,-7.14]},{"id":"9b3527ae-3bd0-4ad4-bf61-7a35dde369bd","title":"PB - CONCEICAO","tipo":null,"url":"\/dashboard\/details-assets\/9b3527ae-3bd0-4ad4-bf61-7a35dde369bd","coordinates":[-38.5,-7.56]},{"id":"f6540b81-db7c-4e73-a50b-5b2e27f73b93","title":"PB - COREMAS","tipo":null,"url":"\/dashboard\/details-assets\/f6540b81-db7c-4e73-a50b-5b2e27f73b93","coordinates":[-37.9446335,-7.0174314]},{"id":"fee1cb32-e6eb-4a50-a60c-6d40eacc08a7","title":"PB - CAMPINA GRANDE","tipo":null,"url":"\/dashboard\/details-assets\/fee1cb32-e6eb-4a50-a60c-6d40eacc08a7","coordinates":[-35.8838591147815,-7.22149703976438]},{"id":"6cd4e1ee-9daf-4a70-9b8d-7898f55487d3","title":"PB - CAJAZEIRAS","tipo":null,"url":"\/dashboard\/details-assets\/6cd4e1ee-9daf-4a70-9b8d-7898f55487d3","coordinates":[-35.8838591147815,-7.22149703976438]},{"id":"2d376d66-b5d6-40da-84e0-6e6531ac5fc2","title":"PB - CATOLE DO ROCHA","tipo":null,"url":"\/dashboard\/details-assets\/2d376d66-b5d6-40da-84e0-6e6531ac5fc2","coordinates":[-37.7485000905939,-6.34675299479241]},{"id":"354cb135-be38-4bfe-8c82-7e81aaa0fa65","title":"PB - BELEM","tipo":null,"url":"\/dashboard\/details-assets\/354cb135-be38-4bfe-8c82-7e81aaa0fa65","coordinates":[-35.51,-6.74]},{"id":"234a85a9-b35d-4b3e-9648-8dd02bba055e","title":"PB - BONITO DE SANTA FE","tipo":null,"url":"\/dashboard\/details-assets\/234a85a9-b35d-4b3e-9648-8dd02bba055e","coordinates":[-38.5605303718409,-6.89046449977496]},{"id":"07aa5bf0-36fa-4c89-ac30-23b408c66b02","title":"PB - AROIRAS","tipo":null,"url":"\/dashboard\/details-assets\/07aa5bf0-36fa-4c89-ac30-23b408c66b02","coordinates":[-35.7063659,-7.5453203]},{"id":"f43995f7-7937-4eff-a73a-77749331a6bc","title":"PB - AROEIRAS","tipo":null,"url":"\/dashboard\/details-assets\/f43995f7-7937-4eff-a73a-77749331a6bc","coordinates":[-35.7,-7.54]},{"id":"d55a4bd4-1cd7-456d-9838-b1af7a26c03d","title":"PB - BAYEUX","tipo":null,"url":"\/dashboard\/details-assets\/d55a4bd4-1cd7-456d-9838-b1af7a26c03d","coordinates":[-34.9291858200857,-7.13227648476721]},{"id":"ac0ed7b8-2298-48ff-bf87-d85b3261e42c","title":"PB - AREIA","tipo":null,"url":"\/dashboard\/details-assets\/ac0ed7b8-2298-48ff-bf87-d85b3261e42c","coordinates":[-35.7033914011072,-6.96551499977257]},{"id":"79667cf1-96f9-4932-8859-956da3f90ea5","title":"PB - ALAGOINHA","tipo":null,"url":"\/dashboard\/details-assets\/79667cf1-96f9-4932-8859-956da3f90ea5","coordinates":[-35.5110513,-6.9502454]},{"id":"0066b2bd-875a-465a-85e0-9b6df519e437","title":"PB - ARARUNA","tipo":null,"url":"\/dashboard\/details-assets\/0066b2bd-875a-465a-85e0-9b6df519e437","coordinates":[-35.7524896,-6.5297363]},{"id":"463576d0-d7e1-4e78-8aab-a20349fb9cfb","title":"PB - ALHANDRA","tipo":null,"url":"\/dashboard\/details-assets\/463576d0-d7e1-4e78-8aab-a20349fb9cfb","coordinates":[-34.9114797,-7.4347697]},{"id":"5c05349a-416f-44cc-83a8-5d5902a7e848","title":"PB - ALAGOA NOVA","tipo":null,"url":"\/dashboard\/details-assets\/5c05349a-416f-44cc-83a8-5d5902a7e848","coordinates":[-35.7625241,-7.063447]},{"id":"624cae1e-7134-498d-ad54-786ebe15d5c9","title":"PA - TOME-ACU","tipo":null,"url":"\/dashboard\/details-assets\/624cae1e-7134-498d-ad54-786ebe15d5c9","coordinates":[-48.146896586572,-2.41936685518763]},{"id":"06ff807b-c077-475d-868a-53b55d7e4103","title":"PA - TUCURUI","tipo":null,"url":"\/dashboard\/details-assets\/06ff807b-c077-475d-868a-53b55d7e4103","coordinates":[-49.6671843672248,-3.76688908418776]},{"id":"52bb6a82-8aa8-4385-b65b-9a50ca890e2d","title":"PA - SANTAREM","tipo":null,"url":"\/dashboard\/details-assets\/52bb6a82-8aa8-4385-b65b-9a50ca890e2d","coordinates":[-54.7185701672711,-2.43621332991971]},{"id":"e5baa39e-b544-4d4a-8ef0-bf9b7e3afced","title":"PA - SANTA ISABEL DO PARA","tipo":null,"url":"\/dashboard\/details-assets\/e5baa39e-b544-4d4a-8ef0-bf9b7e3afced","coordinates":[-48.1630599409531,-1.29739590124865]},{"id":"6085d0e8-a896-450b-91bd-1cf4dbcf24a0","title":"PA - SALINOPOLIS","tipo":null,"url":"\/dashboard\/details-assets\/6085d0e8-a896-450b-91bd-1cf4dbcf24a0","coordinates":[-47.3531202631536,-0.623637999979433]},{"id":"6bc4462d-21b8-4da0-b5de-36d86c677ce9","title":"PA - MOCAJUBA","tipo":null,"url":"\/dashboard\/details-assets\/6bc4462d-21b8-4da0-b5de-36d86c677ce9","coordinates":[-49.5090234612729,-2.58287297318646]},{"id":"da26e1dd-ac1d-4f63-8019-d870f93719bf","title":"PA - PARAGOMINAS","tipo":null,"url":"\/dashboard\/details-assets\/da26e1dd-ac1d-4f63-8019-d870f93719bf","coordinates":[-47.3569615610519,-2.99419049990143]},{"id":"7404dfff-97cb-48e4-83e8-af6da483d963","title":"PA - REDENCAO","tipo":null,"url":"\/dashboard\/details-assets\/7404dfff-97cb-48e4-83e8-af6da483d963","coordinates":[-50.0296418255093,-8.02760449973873]},{"id":"46742e09-845a-47b0-82d5-eef4ebdb4055","title":"PA - PARAUAPEBAS","tipo":null,"url":"\/dashboard\/details-assets\/46742e09-845a-47b0-82d5-eef4ebdb4055","coordinates":[-49.904199,-6.0682494]},{"id":"00cdae6d-5183-4b7f-b5f5-53c39d7bffe2","title":"PA - MARITUBA","tipo":null,"url":"\/dashboard\/details-assets\/00cdae6d-5183-4b7f-b5f5-53c39d7bffe2","coordinates":[-48.3424868,-1.3603782]},{"id":"f1598138-63b7-4174-b995-94023b58e2e9","title":"PA - MARABA","tipo":null,"url":"\/dashboard\/details-assets\/f1598138-63b7-4174-b995-94023b58e2e9","coordinates":[-49.1420253334067,-5.35260576295475]},{"id":"8758c086-8de3-4a20-921d-ca4f4b96bf69","title":"PA - ITAITUBA","tipo":null,"url":"\/dashboard\/details-assets\/8758c086-8de3-4a20-921d-ca4f4b96bf69","coordinates":[-55.9900488572777,-4.2637294798599]},{"id":"679a3969-88d0-4920-a48a-5a626c88c9fc","title":"PA - CAPANEMA","tipo":null,"url":"\/dashboard\/details-assets\/679a3969-88d0-4920-a48a-5a626c88c9fc","coordinates":[-53.80301,-25.660096]},{"id":"5619d414-01cd-424c-961d-012df3b16b43","title":"PA - CASTANHAL","tipo":null,"url":"\/dashboard\/details-assets\/5619d414-01cd-424c-961d-012df3b16b43","coordinates":[-47.9266431419442,-1.29575680500253]},{"id":"303c66bc-df5a-4d62-8a98-54273221d4e7","title":"PA - BREVES","tipo":null,"url":"\/dashboard\/details-assets\/303c66bc-df5a-4d62-8a98-54273221d4e7","coordinates":[-50.4808947990195,-1.69073649994427]},{"id":"85470d0c-c5e2-46bc-9f84-956f97e4c384","title":"PA - CAMETA","tipo":null,"url":"\/dashboard\/details-assets\/85470d0c-c5e2-46bc-9f84-956f97e4c384","coordinates":[-49.497830168997,-2.24683847992597]},{"id":"f9131c78-7b23-49a9-9b58-072b954e10ec","title":"PA - BRAGANCA","tipo":null,"url":"\/dashboard\/details-assets\/f9131c78-7b23-49a9-9b58-072b954e10ec","coordinates":[-46.765754213664,-1.0535239561709]},{"id":"a691f9ac-4e04-4f98-ab16-949caa1f014c","title":"PA - BELEM","tipo":null,"url":"\/dashboard\/details-assets\/a691f9ac-4e04-4f98-ab16-949caa1f014c","coordinates":[-48.4878256874876,-1.45984499995188]},{"id":"238fb47e-d9c8-4cbc-903e-96ba893a01bd","title":"PA - BENEVIDES","tipo":null,"url":"\/dashboard\/details-assets\/238fb47e-d9c8-4cbc-903e-96ba893a01bd","coordinates":[-48.2418364505703,-1.36143751495512]},{"id":"477a81bb-c5f9-4305-b29d-4c0cf9d02a4f","title":"PA - ALTAMIRA","tipo":null,"url":"\/dashboard\/details-assets\/477a81bb-c5f9-4305-b29d-4c0cf9d02a4f","coordinates":[-52.2143763052078,-3.2056595098945]},{"id":"d29c1154-31fb-43d8-9975-14ea366ef15d","title":"PA - ANANINDEUA","tipo":null,"url":"\/dashboard\/details-assets\/d29c1154-31fb-43d8-9975-14ea366ef15d","coordinates":[-48.372066654168,-1.36871356822433]},{"id":"dc868ea2-6f85-42f4-8c83-92309375250e","title":"PA - ABAETETUBA","tipo":null,"url":"\/dashboard\/details-assets\/dc868ea2-6f85-42f4-8c83-92309375250e","coordinates":[-48.8792245,-1.7222475]},{"id":"60606396-8fe7-4bd0-b65e-c04502c09a22","title":"MG - VESPASIANO","tipo":null,"url":"\/dashboard\/details-assets\/60606396-8fe7-4bd0-b65e-c04502c09a22","coordinates":[-43.9199151867379,-19.693030439172]},{"id":"7e522305-69e2-4441-8868-03a613b20a5f","title":"MG - VICOSA","tipo":null,"url":"\/dashboard\/details-assets\/7e522305-69e2-4441-8868-03a613b20a5f","coordinates":[-42.8794773756709,-20.7520720064035]},{"id":"3a8919d4-500b-4092-945a-b3c039fe7997","title":"MG - VISCONDE DO RIO BRANCO","tipo":null,"url":"\/dashboard\/details-assets\/3a8919d4-500b-4092-945a-b3c039fe7997","coordinates":[-42.8393893910016,-21.011989576499]},{"id":"1fb20649-bd0f-470a-9118-3503a7ab8168","title":"MG - VARGINHA","tipo":null,"url":"\/dashboard\/details-assets\/1fb20649-bd0f-470a-9118-3503a7ab8168","coordinates":[-45.4318861442786,-21.557080038418]},{"id":"ea13a379-6e2a-425f-9899-9c1ca4d612d7","title":"MG - UBERLANDIA","tipo":null,"url":"\/dashboard\/details-assets\/ea13a379-6e2a-425f-9899-9c1ca4d612d7","coordinates":[-48.2779501847345,-18.9189986087263]},{"id":"49177e2e-9c83-45a9-a4e0-8c422592f57b","title":"MG - UNAI","tipo":null,"url":"\/dashboard\/details-assets\/49177e2e-9c83-45a9-a4e0-8c422592f57b","coordinates":[-46.899956595285,-16.3590084919872]},{"id":"516fce94-3d1b-4031-ade4-13f799372023","title":"MG - UBA","tipo":null,"url":"\/dashboard\/details-assets\/516fce94-3d1b-4031-ade4-13f799372023","coordinates":[-42.936786464392,-21.118596950863]},{"id":"5c4579e2-59bf-41d3-8128-3070f6732070","title":"MG - TUPACIGUARA","tipo":null,"url":"\/dashboard\/details-assets\/5c4579e2-59bf-41d3-8128-3070f6732070","coordinates":[-48.7718332,-18.5796933]},{"id":"bb0ee330-9a7a-45e8-9ac1-a5298add26c8","title":"MG - UBERABA","tipo":null,"url":"\/dashboard\/details-assets\/bb0ee330-9a7a-45e8-9ac1-a5298add26c8","coordinates":[-47.9836248955742,-19.7135346065023]},{"id":"373a501a-00b2-47b3-8a63-38de14d78384","title":"MG - TRES MARIAS","tipo":null,"url":"\/dashboard\/details-assets\/373a501a-00b2-47b3-8a63-38de14d78384","coordinates":[-45.2257352467415,-18.2059212234568]},{"id":"c72286fd-c4bf-4ba5-9c5a-6b1b30c267d6","title":"MG - TRES PONTAS","tipo":null,"url":"\/dashboard\/details-assets\/c72286fd-c4bf-4ba5-9c5a-6b1b30c267d6","coordinates":[-45.5113164,-21.3699248]},{"id":"e36211bc-94c2-4ad6-9fe8-11b0dc821d4d","title":"MG - TRES CORACOES","tipo":null,"url":"\/dashboard\/details-assets\/e36211bc-94c2-4ad6-9fe8-11b0dc821d4d","coordinates":[-45.2549368731671,-21.6959657762606]},{"id":"305871e4-37c0-44a2-a3a1-d0ecc3d096ad","title":"MG - TEOFILO OTONI","tipo":null,"url":"\/dashboard\/details-assets\/305871e4-37c0-44a2-a3a1-d0ecc3d096ad","coordinates":[-41.5096351657897,-17.8625398074625]},{"id":"88d77c74-3b5b-4349-919a-66220c94c39e","title":"MG - TIMOTEO","tipo":null,"url":"\/dashboard\/details-assets\/88d77c74-3b5b-4349-919a-66220c94c39e","coordinates":[-42.6439423108068,-19.5840503579113]},{"id":"e20efb92-b2a9-4f65-a0bf-cc9f69aae73a","title":"MG - SETE LAGOAS","tipo":null,"url":"\/dashboard\/details-assets\/e20efb92-b2a9-4f65-a0bf-cc9f69aae73a","coordinates":[-44.239594615621,-19.4582874181575]},{"id":"ebfca7cc-df70-4626-a708-c3d1793f3d62","title":"MG - SAO JOAQUIM DE BICAS","tipo":null,"url":"\/dashboard\/details-assets\/ebfca7cc-df70-4626-a708-c3d1793f3d62","coordinates":[-44.27,-20.04]},{"id":"d09533b9-c79a-4080-ae1b-b5c7e95a03fa","title":"MG - SAO LOURENCO","tipo":null,"url":"\/dashboard\/details-assets\/d09533b9-c79a-4080-ae1b-b5c7e95a03fa","coordinates":[-45.0533731031445,-22.1177686707015]},{"id":"68978ae0-c614-4fbb-a706-fce16a68248b","title":"MG - SAO JOAO DEL REI","tipo":null,"url":"\/dashboard\/details-assets\/68978ae0-c614-4fbb-a706-fce16a68248b","coordinates":[-44.2609727347292,-21.1355089736821]},{"id":"fa6200a1-5766-4fa3-86dc-8342be77e9e7","title":"MG - SAO FRANCISCO","tipo":null,"url":"\/dashboard\/details-assets\/fa6200a1-5766-4fa3-86dc-8342be77e9e7","coordinates":[-50.7000971572879,-20.3584138169931]},{"id":"b9875578-f5d6-4b50-8536-6f1c6d7dde9c","title":"MG - SANTOS DUMONT","tipo":null,"url":"\/dashboard\/details-assets\/b9875578-f5d6-4b50-8536-6f1c6d7dde9c","coordinates":[-43.5537521652921,-21.4575319940584]},{"id":"95136c38-604b-4c09-be80-15150f6c2477","title":"MG - SAO DOMINGOS DO PRATA","tipo":null,"url":"\/dashboard\/details-assets\/95136c38-604b-4c09-be80-15150f6c2477","coordinates":[-42.9684305,-19.867924]},{"id":"2caf6d6e-cc8f-4b17-a4f7-b625bd5b76b2","title":"MG - SANTA RITA DO SAPUCAI","tipo":null,"url":"\/dashboard\/details-assets\/2caf6d6e-cc8f-4b17-a4f7-b625bd5b76b2","coordinates":[-45.7039881925124,-22.2533298257077]},{"id":"0b55f813-e199-40b7-b263-a23bcbe73fcb","title":"MG - SANTA BARBARA","tipo":null,"url":"\/dashboard\/details-assets\/0b55f813-e199-40b7-b263-a23bcbe73fcb","coordinates":[-43.4105526,-19.9608408]},{"id":"7d35c956-f35c-4a0d-be32-afa5992af9c0","title":"MG - SANTA MARIA DO SUACUI","tipo":null,"url":"\/dashboard\/details-assets\/7d35c956-f35c-4a0d-be32-afa5992af9c0","coordinates":[-42.4178024504598,-18.1922522019305]},{"id":"f6fcfe69-8a4f-4877-b6e7-6db88876bcc1","title":"MG - RIO PIRACICABA","tipo":null,"url":"\/dashboard\/details-assets\/f6fcfe69-8a4f-4877-b6e7-6db88876bcc1","coordinates":[-43.1771529304688,-19.9222226319822]},{"id":"d8150789-665b-49d3-bc61-c8ea44a0eb1a","title":"MG - SACRAMENTO","tipo":null,"url":"\/dashboard\/details-assets\/d8150789-665b-49d3-bc61-c8ea44a0eb1a","coordinates":[-43.1771529304688,-19.9222226319822]},{"id":"85b7102f-4b2e-44ba-b4ff-fd49ea6d08f8","title":"MG - SALINAS","tipo":null,"url":"\/dashboard\/details-assets\/85b7102f-4b2e-44ba-b4ff-fd49ea6d08f8","coordinates":[-42.2978984,-16.167456]},{"id":"afb027fe-6493-4ebc-a19e-02ed89d73bc4","title":"MG - PRATA","tipo":null,"url":"\/dashboard\/details-assets\/afb027fe-6493-4ebc-a19e-02ed89d73bc4","coordinates":[-48.9277508,-19.3100889]},{"id":"22beaf48-7f13-4905-a66a-6aca5ee2dfe2","title":"MG - RIBEIRAO DAS NEVES","tipo":null,"url":"\/dashboard\/details-assets\/22beaf48-7f13-4905-a66a-6aca5ee2dfe2","coordinates":[-44.085823649141,-19.7660220148969]},{"id":"cfa87d46-e8ff-4e65-82fa-6b473a77e9ed","title":"MG - PRESIDENTE OLEGARIO","tipo":null,"url":"\/dashboard\/details-assets\/cfa87d46-e8ff-4e65-82fa-6b473a77e9ed","coordinates":[-46.4168827,-18.4100897]},{"id":"0133fceb-cd8c-4599-924e-5e7bc06dc58d","title":"MG - PONTE NOVA","tipo":null,"url":"\/dashboard\/details-assets\/0133fceb-cd8c-4599-924e-5e7bc06dc58d","coordinates":[-42.9096842699379,-20.4166434218704]},{"id":"6b392a66-c9dd-4a5b-8cda-5b124854ae3a","title":"MG - POUSO ALEGRE","tipo":null,"url":"\/dashboard\/details-assets\/6b392a66-c9dd-4a5b-8cda-5b124854ae3a","coordinates":[-45.9371442758265,-22.2303029944934]},{"id":"50eda809-7bea-4c21-b3f2-ebf2e943626a","title":"MG - POMPEU","tipo":null,"url":"\/dashboard\/details-assets\/50eda809-7bea-4c21-b3f2-ebf2e943626a","coordinates":[-45.0018708585067,-19.2209571765073]},{"id":"05a1c762-9e79-4394-970d-11dd41c28767","title":"MG - PIRAPORA","tipo":null,"url":"\/dashboard\/details-assets\/05a1c762-9e79-4394-970d-11dd41c28767","coordinates":[-44.9510653804875,-17.3495820950721]},{"id":"aaa9f20f-b010-4734-9c04-916898bb7f4a","title":"MG - PITANGUI","tipo":null,"url":"\/dashboard\/details-assets\/aaa9f20f-b010-4734-9c04-916898bb7f4a","coordinates":[-44.8901188906692,-19.6805972406934]},{"id":"51af7cfb-7921-4358-be42-bc1eb9cd1cd9","title":"MG - PIUMHI","tipo":null,"url":"\/dashboard\/details-assets\/51af7cfb-7921-4358-be42-bc1eb9cd1cd9","coordinates":[-45.9605686667875,-20.4708828670034]},{"id":"a8f22f68-2285-4ff6-a98c-3e10a33ef54a","title":"MG - PEDRA AZUL","tipo":null,"url":"\/dashboard\/details-assets\/a8f22f68-2285-4ff6-a98c-3e10a33ef54a","coordinates":[-41.2817406,-16.003696]},{"id":"8ebf1e02-de06-4351-b9a6-75be44fa4374","title":"MG - PEDRO LEOPOLDO","tipo":null,"url":"\/dashboard\/details-assets\/8ebf1e02-de06-4351-b9a6-75be44fa4374","coordinates":[-44.0404979,-19.6189005]},{"id":"989787af-da62-45df-9b8e-9dcc9653f617","title":"MG - PERDOES","tipo":null,"url":"\/dashboard\/details-assets\/989787af-da62-45df-9b8e-9dcc9653f617","coordinates":[-45.0879046,-21.0964587]},{"id":"c0fb8b66-2675-4fec-a848-8f63122a47cc","title":"MG - PATROCINIO","tipo":null,"url":"\/dashboard\/details-assets\/c0fb8b66-2675-4fec-a848-8f63122a47cc","coordinates":[-46.9974382401645,-18.9408129607698]},{"id":"67cbc32c-41de-4340-8526-32e2f36c45fb","title":"MG - PATOS DE MINAS","tipo":null,"url":"\/dashboard\/details-assets\/67cbc32c-41de-4340-8526-32e2f36c45fb","coordinates":[-46.5159156766059,-18.5925708193526]},{"id":"36909710-32b2-4bd2-a023-a679e27e8399","title":"MG - PARACATU","tipo":null,"url":"\/dashboard\/details-assets\/36909710-32b2-4bd2-a023-a679e27e8399","coordinates":[-46.8754188909564,-17.2197419096529]},{"id":"75a1eaf3-7a5d-4251-b0e2-517182a7a9c9","title":"MG - PASSOS","tipo":null,"url":"\/dashboard\/details-assets\/75a1eaf3-7a5d-4251-b0e2-517182a7a9c9","coordinates":[-46.6114125680355,-20.7192119012384]},{"id":"486e0cfa-08c2-4638-8a62-66e6436ebe46","title":"MG - PARAOPEBA","tipo":null,"url":"\/dashboard\/details-assets\/486e0cfa-08c2-4638-8a62-66e6436ebe46","coordinates":[-44.4062327,-19.2784382]},{"id":"5587cd05-3be0-4bd6-b66e-dcfb67e73a45","title":"MG - OURO PRETO","tipo":null,"url":"\/dashboard\/details-assets\/5587cd05-3be0-4bd6-b66e-dcfb67e73a45","coordinates":[-43.5035777,-20.3855743]},{"id":"e5ece6db-6e77-4b1f-adec-9b16fc6e3311","title":"MG - PARA DE MINAS","tipo":null,"url":"\/dashboard\/details-assets\/e5ece6db-6e77-4b1f-adec-9b16fc6e3311","coordinates":[-44.6053801878937,-19.8647379633427]},{"id":"f25fc270-adc6-47f8-b9a5-efd6df7b9ed3","title":"MG - OURO FINO","tipo":null,"url":"\/dashboard\/details-assets\/f25fc270-adc6-47f8-b9a5-efd6df7b9ed3","coordinates":[-46.400872,-22.2508537]},{"id":"f1d82eb3-ce52-41a1-bb04-5f80c82538f3","title":"MG - NOVA LIMA","tipo":null,"url":"\/dashboard\/details-assets\/f1d82eb3-ce52-41a1-bb04-5f80c82538f3","coordinates":[-43.8497833626163,-19.98389299326]},{"id":"fe920c93-5a79-435a-ada6-3fed1907ce54","title":"MG - OLIVEIRA","tipo":null,"url":"\/dashboard\/details-assets\/fe920c93-5a79-435a-ada6-3fed1907ce54","coordinates":[-44.826410866482,-20.69751577556]},{"id":"0ed6a652-8457-48fc-89f5-8efc79726f1c","title":"MG - NOVO CRUZEIRO","tipo":null,"url":"\/dashboard\/details-assets\/0ed6a652-8457-48fc-89f5-8efc79726f1c","coordinates":[-41.8987215558594,-17.4512366692385]},{"id":"0ab09599-dbed-4fca-8ef0-3ec0ee930cdb","title":"MG - NANUQUE","tipo":null,"url":"\/dashboard\/details-assets\/0ab09599-dbed-4fca-8ef0-3ec0ee930cdb","coordinates":[-40.3517388336104,-17.8389933513878]},{"id":"1f331e34-0a63-4986-bb2b-3b7d94bb241c","title":"MG - NOVA ERA","tipo":null,"url":"\/dashboard\/details-assets\/1f331e34-0a63-4986-bb2b-3b7d94bb241c","coordinates":[-40.3517388336104,-17.8389933513878]},{"id":"c9acbceb-584d-4006-8537-53a05ce772f3","title":"MG - MURIAE","tipo":null,"url":"\/dashboard\/details-assets\/c9acbceb-584d-4006-8537-53a05ce772f3","coordinates":[-42.3610748978923,-21.132046790875]},{"id":"ccaa13d9-f641-4ede-b37c-3e7f6fe4f235","title":"MG - MONTES CLAROS","tipo":null,"url":"\/dashboard\/details-assets\/ccaa13d9-f641-4ede-b37c-3e7f6fe4f235","coordinates":[-43.8654224343832,-16.7227066394632]},{"id":"36b718fb-038f-41b2-bf32-60b88a446588","title":"MG - MONTE CARMELO","tipo":null,"url":"\/dashboard\/details-assets\/36b718fb-038f-41b2-bf32-60b88a446588","coordinates":[-47.4959724312194,-18.7290384395177]},{"id":"d21a0cbe-2166-4f17-803b-475c593ac7db","title":"MG - MATOZINHOS","tipo":null,"url":"\/dashboard\/details-assets\/d21a0cbe-2166-4f17-803b-475c593ac7db","coordinates":[-44.0871994,-19.5547969]},{"id":"11037310-3975-471f-9e2e-83547a279ba4","title":"MG - MANHUMIRIM","tipo":null,"url":"\/dashboard\/details-assets\/11037310-3975-471f-9e2e-83547a279ba4","coordinates":[-41.9626798073714,-20.3639991108356]},{"id":"0cfad03c-7027-4185-bfe1-a3fabfa9ee56","title":"MG - MARIANA","tipo":null,"url":"\/dashboard\/details-assets\/0cfad03c-7027-4185-bfe1-a3fabfa9ee56","coordinates":[-43.4161404121375,-20.3744932302769]},{"id":"c8b031c1-94ee-4b89-87fe-8f107975fe66","title":"MG - MANTENA","tipo":null,"url":"\/dashboard\/details-assets\/c8b031c1-94ee-4b89-87fe-8f107975fe66","coordinates":[-40.9877527,-18.7765523]},{"id":"f987428c-60aa-4dc0-abd0-532611e21fa2","title":"MG - LAVRAS","tipo":null,"url":"\/dashboard\/details-assets\/f987428c-60aa-4dc0-abd0-532611e21fa2","coordinates":[-44.9999311091152,-21.242870236663]},