[{"id":"5265d059-86f7-4efc-90a0-3f4e5ef3e096","title":"AC - ACRELANDIA","tipo":"Cebraspe","url":"\/dashboard\/details-assets\/5265d059-86f7-4efc-90a0-3f4e5ef3e096","coordinates":[-67.058698,-10.076392]},{"id":"62ca620b-2d7a-422c-99e3-356957a3b59a","title":"TO - XAMBIOA","tipo":"Cebraspe","url":"\/dashboard\/details-assets\/62ca620b-2d7a-422c-99e3-356957a3b59a","coordinates":[-48.438758,-6.534881]},{"id":"08d9b529-d194-4c03-93ee-81d295bb3717","title":"TO - WANDERLANDIA","tipo":"Cebraspe","url":"\/dashboard\/details-assets\/08d9b529-d194-4c03-93ee-81d295bb3717","coordinates":[-47.987982,-6.852034]},{"id":"8c189c9a-a2f7-4622-86c5-74714fde006c","title":"TO - TOCANTINOPOLIS","tipo":"Cebraspe","url":"\/dashboard\/details-assets\/8c189c9a-a2f7-4622-86c5-74714fde006c","coordinates":[-47.429498,-6.324747]},{"id":"1441cd37-9b92-4621-aa4e-9f54ee24e567","title":"TO - SITIO NOVO DO TOCANTINS","tipo":"Cebraspe","url":"\/dashboard\/details-assets\/1441cd37-9b92-4621-aa4e-9f54ee24e567","coordinates":[-47.652845,-5.614472]},{"id":"8eae610e-16ce-40a3-b688-f4938de1448c","title":"TO - TAGUATINGA","tipo":"Cebraspe","url":"\/dashboard\/details-assets\/8eae610e-16ce-40a3-b688-f4938de1448c","coordinates":[-46.442844,-12.406006]},{"id":"62dd318f-b40c-4a0c-a7e8-09f2e722cc08","title":"TO - PORTO NACIONAL","tipo":"Cebraspe","url":"\/dashboard\/details-assets\/62dd318f-b40c-4a0c-a7e8-09f2e722cc08","coordinates":[-48.408486,-10.703164]},{"id":"00aa6097-a9a4-4114-a0a0-fc0fd57970b3","title":"TO - SANTA FE DO ARAGUAIA","tipo":"Cebraspe","url":"\/dashboard\/details-assets\/00aa6097-a9a4-4114-a0a0-fc0fd57970b3","coordinates":[-48.766963,-7.171245]},{"id":"6fae1c6e-7f9b-4d14-8a7c-0b426e1dbd9c","title":"TO - PEIXE","tipo":"Cebraspe","url":"\/dashboard\/details-assets\/6fae1c6e-7f9b-4d14-8a7c-0b426e1dbd9c","coordinates":[-48.548696,-12.025853]},{"id":"51f1877b-f847-46d1-a500-06eae2a229ed","title":"TO - PEDRO AFONSO","tipo":"Cebraspe","url":"\/dashboard\/details-assets\/51f1877b-f847-46d1-a500-06eae2a229ed","coordinates":[-48.178975,-8.962943]},{"id":"3ea5a95b-4577-4e6b-ac82-8e055c648ba0","title":"TO - PARAISO DO TOCANTINS","tipo":"Cebraspe","url":"\/dashboard\/details-assets\/3ea5a95b-4577-4e6b-ac82-8e055c648ba0","coordinates":[-48.874963,-10.102218]},{"id":"dc519df2-fdcf-4e34-9f81-3985ac23386f","title":"TO - PALMAS","tipo":"Cebraspe","url":"\/dashboard\/details-assets\/dc519df2-fdcf-4e34-9f81-3985ac23386f","coordinates":[-48.317036,-10.230299]},{"id":"11c5e44f-bb7f-4415-8d0a-473cc5c275f2","title":"TO - PALMEIROPOLIS","tipo":"Cebraspe","url":"\/dashboard\/details-assets\/11c5e44f-bb7f-4415-8d0a-473cc5c275f2","coordinates":[-48.407342,-13.042427]},{"id":"aecc6fe5-ce7f-41e9-89b4-3f8b434c1eb0","title":"TO - NOVO ACORDO","tipo":"Cebraspe","url":"\/dashboard\/details-assets\/aecc6fe5-ce7f-41e9-89b4-3f8b434c1eb0","coordinates":[-47.683543,-9.992394]},{"id":"1b33f389-bef8-474d-a87e-49e6f4711fbb","title":"TO - NATIVIDADE","tipo":"Cebraspe","url":"\/dashboard\/details-assets\/1b33f389-bef8-474d-a87e-49e6f4711fbb","coordinates":[-47.684901,-11.876469]},{"id":"9f5c7784-a924-4acd-b6dd-e1223bcbb519","title":"TO - MIRACEMA DO TOCANTINS","tipo":"Cebraspe","url":"\/dashboard\/details-assets\/9f5c7784-a924-4acd-b6dd-e1223bcbb519","coordinates":[-48.419984,-9.570547]},{"id":"64f4d2e1-8971-499b-84cf-af5785d2fb8a","title":"TO - GURUPI","tipo":"Cebraspe","url":"\/dashboard\/details-assets\/64f4d2e1-8971-499b-84cf-af5785d2fb8a","coordinates":[-49.120839,-11.735005]},{"id":"834e05ff-3542-45db-a694-5d9c8cdf4c04","title":"TO - ITACAJA","tipo":"Cebraspe","url":"\/dashboard\/details-assets\/834e05ff-3542-45db-a694-5d9c8cdf4c04","coordinates":[-47.783532,-8.373788]},{"id":"161d3ac6-c3ca-4972-a214-80b05aedaf81","title":"TO - GUARAI","tipo":"Cebraspe","url":"\/dashboard\/details-assets\/161d3ac6-c3ca-4972-a214-80b05aedaf81","coordinates":[-48.525934,-8.841813]},{"id":"bafc299f-bbde-4baf-bca9-3802c37ceade","title":"TO - FORMOSO DO ARAGUAIA","tipo":"Cebraspe","url":"\/dashboard\/details-assets\/bafc299f-bbde-4baf-bca9-3802c37ceade","coordinates":[-49.536601,-11.80576]},{"id":"c231023a-4984-4f68-ba47-795df3ffb800","title":"TO - ESPERANTINA","tipo":"Cebraspe","url":"\/dashboard\/details-assets\/c231023a-4984-4f68-ba47-795df3ffb800","coordinates":[-48.540014,-5.36695]},{"id":"27013e5b-dc32-4928-9996-a7f86adb4b26","title":"TO - CRISTALANDIA","tipo":"Cebraspe","url":"\/dashboard\/details-assets\/27013e5b-dc32-4928-9996-a7f86adb4b26","coordinates":[-49.221381,-10.579947]},{"id":"6ae69730-cfbd-423e-991b-e51e14e84bde","title":"TO - DIANOPOLIS","tipo":"Cebraspe","url":"\/dashboard\/details-assets\/6ae69730-cfbd-423e-991b-e51e14e84bde","coordinates":[-46.825934,-11.748062]},{"id":"b2c6ba01-1221-4c53-89ba-5d1bfb140f1d","title":"TO - COLINAS DO TOCANTINS","tipo":"Cebraspe","url":"\/dashboard\/details-assets\/b2c6ba01-1221-4c53-89ba-5d1bfb140f1d","coordinates":[-48.448591,-7.990545]},{"id":"555b3ec8-3623-48b0-8e40-a60f519cc4d1","title":"TO - AUGUSTINOPOLIS","tipo":"Cebraspe","url":"\/dashboard\/details-assets\/555b3ec8-3623-48b0-8e40-a60f519cc4d1","coordinates":[-47.887112,-5.469433]},{"id":"e05758b2-1082-4179-a606-9b03c4a5ab44","title":"TO - BREJINHO DE NAZARE","tipo":"Cebraspe","url":"\/dashboard\/details-assets\/e05758b2-1082-4179-a606-9b03c4a5ab44","coordinates":[-48.638888,-11.035535]},{"id":"bdd4439c-0699-41ae-8c05-4b2a1f0c42a2","title":"TO - ARRAIAS","tipo":"Cebraspe","url":"\/dashboard\/details-assets\/bdd4439c-0699-41ae-8c05-4b2a1f0c42a2","coordinates":[-46.98051,-12.67706]},{"id":"d8722603-9723-4423-9e73-1f5df04e734b","title":"TO - ARAPOEMA","tipo":"Cebraspe","url":"\/dashboard\/details-assets\/d8722603-9723-4423-9e73-1f5df04e734b","coordinates":[-49.064131,-7.655037]},{"id":"7b41032f-98f3-4620-85d0-5809a8c2cb29","title":"TO - ARAGUATINS","tipo":"Cebraspe","url":"\/dashboard\/details-assets\/7b41032f-98f3-4620-85d0-5809a8c2cb29","coordinates":[-48.119389,-5.648411]},{"id":"f1732bbe-f73d-4119-8476-1a7fb10b56ec","title":"TO - ARAGUANA","tipo":"Cebraspe","url":"\/dashboard\/details-assets\/f1732bbe-f73d-4119-8476-1a7fb10b56ec","coordinates":[-48.518723,-6.81017]},{"id":"9c0678cc-6984-40c1-bce7-a0a5a832139e","title":"TO - ARAGUAINA","tipo":"Cebraspe","url":"\/dashboard\/details-assets\/9c0678cc-6984-40c1-bce7-a0a5a832139e","coordinates":[-48.287407,-7.210941]},{"id":"9b674ae2-aba8-4a14-8be4-082ff4767fcf","title":"TO - ANANAS","tipo":"Cebraspe","url":"\/dashboard\/details-assets\/9b674ae2-aba8-4a14-8be4-082ff4767fcf","coordinates":[-48.073889,-6.364762]},{"id":"b4b92866-2a64-45ad-8122-2b71797ddc3e","title":"SE - UMBAUBA","tipo":"Cebraspe","url":"\/dashboard\/details-assets\/b4b92866-2a64-45ad-8122-2b71797ddc3e","coordinates":[-37.659948,-11.416068]},{"id":"cb294f05-9092-4868-8dde-a41b4bb18b17","title":"SE - TOBIAS BARRETO","tipo":"Cebraspe","url":"\/dashboard\/details-assets\/cb294f05-9092-4868-8dde-a41b4bb18b17","coordinates":[-38.000521,-11.185188]},{"id":"f9c4fc31-f3ee-4363-beaf-79aa29801edb","title":"SE - SIMAO DIAS","tipo":"Cebraspe","url":"\/dashboard\/details-assets\/f9c4fc31-f3ee-4363-beaf-79aa29801edb","coordinates":[-37.809338,-10.739792]},{"id":"839b11b9-0ad1-48bb-88b9-83e11c8ffd25","title":"SE - SAO CRISTOVAO","tipo":"Cebraspe","url":"\/dashboard\/details-assets\/839b11b9-0ad1-48bb-88b9-83e11c8ffd25","coordinates":[-37.205934,-11.012236]},{"id":"2430f5e1-8961-4d27-98cb-9f02493cb247","title":"SE - SANTA ROSA DE LIMA","tipo":"Cebraspe","url":"\/dashboard\/details-assets\/2430f5e1-8961-4d27-98cb-9f02493cb247","coordinates":[-37.193078,-10.646335]},{"id":"07db92e7-33fb-4a98-8910-52fe596841e0","title":"SE - PROPRIA","tipo":"Cebraspe","url":"\/dashboard\/details-assets\/07db92e7-33fb-4a98-8910-52fe596841e0","coordinates":[-36.837185,-10.212228]},{"id":"a3bbb4c5-dbb0-4ceb-a565-00280a41d555","title":"SE - RIACHUELO","tipo":"Cebraspe","url":"\/dashboard\/details-assets\/a3bbb4c5-dbb0-4ceb-a565-00280a41d555","coordinates":[-37.187039,-10.732649]},{"id":"885285ee-abb7-40bf-941b-18b7dd608f19","title":"SE - PORTO DA FOLHA","tipo":"Cebraspe","url":"\/dashboard\/details-assets\/885285ee-abb7-40bf-941b-18b7dd608f19","coordinates":[-37.275759,-9.919741]},{"id":"cae4a889-2f67-4fdc-98ff-a55d90b5ae0d","title":"SE - POCO VERDE","tipo":"Cebraspe","url":"\/dashboard\/details-assets\/cae4a889-2f67-4fdc-98ff-a55d90b5ae0d","coordinates":[-38.173065,-10.717071]},{"id":"11f84cf2-ad39-497c-b450-1e6ae269d1fc","title":"SE - NOSSA SENHORA DO SOCORRO","tipo":"Cebraspe","url":"\/dashboard\/details-assets\/11f84cf2-ad39-497c-b450-1e6ae269d1fc","coordinates":[-37.126979,-10.853164]},{"id":"2cd8ea54-ef97-4ee9-b7ac-3897dff09b25","title":"SE - POCO REDONDO","tipo":"Cebraspe","url":"\/dashboard\/details-assets\/2cd8ea54-ef97-4ee9-b7ac-3897dff09b25","coordinates":[-37.723768,-9.822267]},{"id":"cd451360-fe2f-42d7-ba1d-3db6ac4f1a35","title":"SE - NOSSA SENHORA DAS DORES","tipo":"Cebraspe","url":"\/dashboard\/details-assets\/cd451360-fe2f-42d7-ba1d-3db6ac4f1a35","coordinates":[-37.196622,-10.485792]},{"id":"e7c71a08-421b-40fe-a744-78c05e11c9c4","title":"SE - NOSSA SENHORA DA GLORIA","tipo":"Cebraspe","url":"\/dashboard\/details-assets\/e7c71a08-421b-40fe-a744-78c05e11c9c4","coordinates":[-37.421281,-10.215655]},{"id":"b12709fd-fa7a-4807-8c52-ef2f23589e2a","title":"SE - NOSSA SENHORA APARECIDA","tipo":"Cebraspe","url":"\/dashboard\/details-assets\/b12709fd-fa7a-4807-8c52-ef2f23589e2a","coordinates":[-37.454432,-10.397443]},{"id":"bf72fef5-7224-4548-9b28-504dd1aec09b","title":"SE - NEOPOLIS","tipo":"Cebraspe","url":"\/dashboard\/details-assets\/bf72fef5-7224-4548-9b28-504dd1aec09b","coordinates":[-36.585281,-10.321944]},{"id":"de457443-bc39-4a40-a091-14a9a3c3ffe1","title":"SE - MONTE ALEGRE DE SERGIPE","tipo":"Cebraspe","url":"\/dashboard\/details-assets\/de457443-bc39-4a40-a091-14a9a3c3ffe1","coordinates":[-37.561432,-10.028255]},{"id":"3d8951af-4010-426f-afef-5c95e3cdf861","title":"SE - MARUIM","tipo":"Cebraspe","url":"\/dashboard\/details-assets\/3d8951af-4010-426f-afef-5c95e3cdf861","coordinates":[-37.085935,-10.731196]},{"id":"47d880ba-82ed-4248-a808-27377e3d5f08","title":"SE - LARANJEIRAS","tipo":"Cebraspe","url":"\/dashboard\/details-assets\/47d880ba-82ed-4248-a808-27377e3d5f08","coordinates":[-37.167937,-10.804856]},{"id":"c6503879-0691-4086-9e08-00b8736f54e7","title":"SE - LAGARTO","tipo":"Cebraspe","url":"\/dashboard\/details-assets\/c6503879-0691-4086-9e08-00b8736f54e7","coordinates":[-37.666353,-10.915301]},{"id":"6fffb4d6-e2d0-4482-a755-a678c1230447","title":"SE - JAPARATUBA","tipo":"Cebraspe","url":"\/dashboard\/details-assets\/6fffb4d6-e2d0-4482-a755-a678c1230447","coordinates":[-36.942008,-10.577323]},{"id":"c3829b93-b693-4a21-bd87-4a9f5b08d6f7","title":"SE - ITAPORANGA D AJUDA","tipo":"Cebraspe","url":"\/dashboard\/details-assets\/c3829b93-b693-4a21-bd87-4a9f5b08d6f7","coordinates":[-37.307827,-10.996733]},{"id":"165d1595-263b-46e9-9635-9df493a9dcd3","title":"SE - ITABAIANINHA","tipo":"Cebraspe","url":"\/dashboard\/details-assets\/165d1595-263b-46e9-9635-9df493a9dcd3","coordinates":[-37.787411,-11.276785]},{"id":"6dfeb467-5d92-43ed-8cf5-7be044f48435","title":"SE - ITABAIANA","tipo":"Cebraspe","url":"\/dashboard\/details-assets\/6dfeb467-5d92-43ed-8cf5-7be044f48435","coordinates":[-37.426861,-10.685716]},{"id":"632b90f7-cfc9-49e9-be9f-c248d1e247f3","title":"SE - INDIAROBA","tipo":"Cebraspe","url":"\/dashboard\/details-assets\/632b90f7-cfc9-49e9-be9f-c248d1e247f3","coordinates":[-37.515095,-11.518507]},{"id":"01044680-33da-4cce-afba-04d88c908604","title":"SE - GARARU","tipo":"Cebraspe","url":"\/dashboard\/details-assets\/01044680-33da-4cce-afba-04d88c908604","coordinates":[-37.084372,-9.967351]},{"id":"ee2f3d52-ac3f-4523-be3c-9a007d852cdf","title":"SE - ESTANCIA","tipo":"Cebraspe","url":"\/dashboard\/details-assets\/ee2f3d52-ac3f-4523-be3c-9a007d852cdf","coordinates":[-37.440011,-11.267949]},{"id":"eaf85ff5-544f-405c-8969-49bb0cf75524","title":"SE - CARMOPOLIS","tipo":"Cebraspe","url":"\/dashboard\/details-assets\/eaf85ff5-544f-405c-8969-49bb0cf75524","coordinates":[-36.989078,-10.645303]},{"id":"d755b2a3-0c1a-4f2e-b249-17caf1ad1af2","title":"SE - CARIRA","tipo":"Cebraspe","url":"\/dashboard\/details-assets\/d755b2a3-0c1a-4f2e-b249-17caf1ad1af2","coordinates":[-37.701919,-10.358017]},{"id":"43cb696c-394f-49e5-b9d3-21bac683de8a","title":"SE - CAPELA","tipo":"Cebraspe","url":"\/dashboard\/details-assets\/43cb696c-394f-49e5-b9d3-21bac683de8a","coordinates":[-37.054833,-10.5061]},{"id":"92817419-a731-4082-9ddc-099e45585e06","title":"SE - CANINDE DE SAO FRANCISCO","tipo":"Cebraspe","url":"\/dashboard\/details-assets\/92817419-a731-4082-9ddc-099e45585e06","coordinates":[-37.822052,-9.64847]},{"id":"25bdbbe2-bf43-47c4-923f-4aa1b8002e27","title":"SE - CAMPO DO BRITO","tipo":"Cebraspe","url":"\/dashboard\/details-assets\/25bdbbe2-bf43-47c4-923f-4aa1b8002e27","coordinates":[-37.496356,-10.743335]},{"id":"2610bae4-e7c8-4572-b112-cf653e2712de","title":"SE - BOQUIM","tipo":"Cebraspe","url":"\/dashboard\/details-assets\/2610bae4-e7c8-4572-b112-cf653e2712de","coordinates":[-37.623573,-11.146392]},{"id":"88e9b089-6f57-4141-8597-8038929a461f","title":"SE - AREIA BRANCA","tipo":"Cebraspe","url":"\/dashboard\/details-assets\/88e9b089-6f57-4141-8597-8038929a461f","coordinates":[-37.324314,-10.776843]},{"id":"9524ce9a-83bc-475f-b222-b2be58b0d767","title":"SE - ARACAJU","tipo":"Cebraspe","url":"\/dashboard\/details-assets\/9524ce9a-83bc-475f-b222-b2be58b0d767","coordinates":[-37.073082,-10.947247]},{"id":"dfede8c7-5a2b-47ab-8677-f9662214899b","title":"SP - VOTORANTIM","tipo":"Cebraspe","url":"\/dashboard\/details-assets\/dfede8c7-5a2b-47ab-8677-f9662214899b","coordinates":[-47.444598,-23.540286]},{"id":"87b4611f-414f-4cf1-b6d9-c0c067a90913","title":"SP - VOTUPORANGA","tipo":"Cebraspe","url":"\/dashboard\/details-assets\/87b4611f-414f-4cf1-b6d9-c0c067a90913","coordinates":[-49.970325,-20.417194]},{"id":"5d1d1275-bbbd-42e6-be67-e8a1f37efa42","title":"SP - VINHEDO","tipo":"Cebraspe","url":"\/dashboard\/details-assets\/5d1d1275-bbbd-42e6-be67-e8a1f37efa42","coordinates":[-46.976476,-23.030538]},{"id":"2d362c53-cbe3-4785-a1b3-fa5ec13768e1","title":"SP - VARZEA PAULISTA","tipo":"Cebraspe","url":"\/dashboard\/details-assets\/2d362c53-cbe3-4785-a1b3-fa5ec13768e1","coordinates":[-46.82989,-23.214466]},{"id":"449e2ec9-41f2-44df-91eb-2d3cb0cfb20e","title":"SP - VARGEM GRANDE PAULISTA","tipo":"Cebraspe","url":"\/dashboard\/details-assets\/449e2ec9-41f2-44df-91eb-2d3cb0cfb20e","coordinates":[-47.019648,-23.615302]},{"id":"8539fade-1bee-454a-8079-02133ec45342","title":"SP - VARGEM GRANDE DO SUL","tipo":"Cebraspe","url":"\/dashboard\/details-assets\/8539fade-1bee-454a-8079-02133ec45342","coordinates":[-46.895609,-21.835866]},{"id":"160217d7-ad05-4f16-a439-96c4b87cd357","title":"SP - VALINHOS","tipo":"Cebraspe","url":"\/dashboard\/details-assets\/160217d7-ad05-4f16-a439-96c4b87cd357","coordinates":[-46.99663,-22.971244]},{"id":"3a406c01-3cf6-41c2-8608-a67fcef650ca","title":"SP - TUPA","tipo":"Cebraspe","url":"\/dashboard\/details-assets\/3a406c01-3cf6-41c2-8608-a67fcef650ca","coordinates":[-50.514006,-21.934822]},{"id":"be29a517-9b3f-4486-a385-2a190ffc937b","title":"SP - UBATUBA","tipo":"Cebraspe","url":"\/dashboard\/details-assets\/be29a517-9b3f-4486-a385-2a190ffc937b","coordinates":[-45.072091,-23.435965]},{"id":"8a632107-41ca-45d8-8dad-950f6fbc6611","title":"SP - TIETE","tipo":"Cebraspe","url":"\/dashboard\/details-assets\/8a632107-41ca-45d8-8dad-950f6fbc6611","coordinates":[-47.711473,-23.097889]},{"id":"c51b7aab-5bb6-4391-b0cf-48a1bcc37a30","title":"SP - TAUBATE","tipo":"Cebraspe","url":"\/dashboard\/details-assets\/c51b7aab-5bb6-4391-b0cf-48a1bcc37a30","coordinates":[-45.556609,-23.026555]},{"id":"ed4afded-8d95-4e22-966a-be52d7448e4e","title":"SP - TEODORO SAMPAIO","tipo":"Cebraspe","url":"\/dashboard\/details-assets\/ed4afded-8d95-4e22-966a-be52d7448e4e","coordinates":[-52.173362,-22.53144]},{"id":"c3807cc5-b215-4d13-98d3-5f6dc99780ef","title":"SP - TATUI","tipo":"Cebraspe","url":"\/dashboard\/details-assets\/c3807cc5-b215-4d13-98d3-5f6dc99780ef","coordinates":[-47.849464,-23.348576]},{"id":"f49554b4-7946-426b-8a71-160f81f69c12","title":"SP - TAQUARITINGA","tipo":"Cebraspe","url":"\/dashboard\/details-assets\/f49554b4-7946-426b-8a71-160f81f69c12","coordinates":[-48.506742,-21.410008]},{"id":"4323481c-d4f1-4454-a9af-62dc1af5ba6e","title":"SP - TAPIRATIBA","tipo":"Cebraspe","url":"\/dashboard\/details-assets\/4323481c-d4f1-4454-a9af-62dc1af5ba6e","coordinates":[-46.745515,-21.471885]},{"id":"ed63e5f7-741e-4e78-b874-637f853d07a9","title":"SP - SUZANO","tipo":"Cebraspe","url":"\/dashboard\/details-assets\/ed63e5f7-741e-4e78-b874-637f853d07a9","coordinates":[-46.30781,-23.536827]},{"id":"c70f68af-1501-4f96-be88-18939d33ca18","title":"SP - TABOAO DA SERRA","tipo":"Cebraspe","url":"\/dashboard\/details-assets\/c70f68af-1501-4f96-be88-18939d33ca18","coordinates":[-46.78578,-23.623328]},{"id":"946fa06a-3527-414f-a4dc-6aab47451052","title":"SP - SOROCABA","tipo":"Cebraspe","url":"\/dashboard\/details-assets\/946fa06a-3527-414f-a4dc-6aab47451052","coordinates":[-47.457853,-23.499323]},{"id":"fce3ae3e-ff24-4df8-a750-081d3d476a4d","title":"SP - SUMARE","tipo":"Cebraspe","url":"\/dashboard\/details-assets\/fce3ae3e-ff24-4df8-a750-081d3d476a4d","coordinates":[-47.265803,-22.822145]},{"id":"64926a2c-f052-4c96-88bf-ea9440aa00d4","title":"SP - SOCORRO","tipo":"Cebraspe","url":"\/dashboard\/details-assets\/64926a2c-f052-4c96-88bf-ea9440aa00d4","coordinates":[-46.529212,-22.59203]},{"id":"97471d14-85bf-470a-94e1-eb9c8666f6c0","title":"SP - SERRANA","tipo":"Cebraspe","url":"\/dashboard\/details-assets\/97471d14-85bf-470a-94e1-eb9c8666f6c0","coordinates":[-47.597762,-21.209478]},{"id":"18cda7bf-64f7-4b4b-b2aa-31f2e9de242f","title":"SP - SERTAOZINHO","tipo":"Cebraspe","url":"\/dashboard\/details-assets\/18cda7bf-64f7-4b4b-b2aa-31f2e9de242f","coordinates":[-47.991148,-21.137022]},{"id":"827d9a90-33f2-432f-9395-b1df7775ca8a","title":"SP - SAO VICENTE","tipo":"Cebraspe","url":"\/dashboard\/details-assets\/827d9a90-33f2-432f-9395-b1df7775ca8a","coordinates":[-46.384491,-23.967373]},{"id":"2cfc6448-7e33-4080-ae5a-1194d599bbbb","title":"SP - SAO SEBASTIAO","tipo":"Cebraspe","url":"\/dashboard\/details-assets\/2cfc6448-7e33-4080-ae5a-1194d599bbbb","coordinates":[-45.40268,-23.806688]},{"id":"3ec9ab96-921c-4fda-a0df-d628e9f3ae0d","title":"SP - SAO ROQUE","tipo":"Cebraspe","url":"\/dashboard\/details-assets\/3ec9ab96-921c-4fda-a0df-d628e9f3ae0d","coordinates":[-47.135423,-23.530359]},{"id":"d4ed1179-3eaf-4b09-97e1-6c068e811550","title":"SP - SAO PAULO","tipo":"Cebraspe","url":"\/dashboard\/details-assets\/d4ed1179-3eaf-4b09-97e1-6c068e811550","coordinates":[-46.570383,-23.567386]},{"id":"47882abb-e209-439a-ad9e-3a6d690fd342","title":"SP - SAO MIGUEL ARCANJO","tipo":"Cebraspe","url":"\/dashboard\/details-assets\/47882abb-e209-439a-ad9e-3a6d690fd342","coordinates":[-47.995589,-23.87949]},{"id":"ae081958-39c4-4c49-82f6-55ab50c26277","title":"SP - SAO MANUEL","tipo":"Cebraspe","url":"\/dashboard\/details-assets\/ae081958-39c4-4c49-82f6-55ab50c26277","coordinates":[-48.568763,-22.73646]},{"id":"79f21cf0-bcb0-4c2e-9c22-4629de1e0a3c","title":"SP - SAO JOSE DOS CAMPOS","tipo":"Cebraspe","url":"\/dashboard\/details-assets\/79f21cf0-bcb0-4c2e-9c22-4629de1e0a3c","coordinates":[-45.899405,-23.23021]},{"id":"0b1eabf8-d76f-4e90-a329-83cca70202a7","title":"SP - SAO JOSE DO RIO PRETO","tipo":"Cebraspe","url":"\/dashboard\/details-assets\/0b1eabf8-d76f-4e90-a329-83cca70202a7","coordinates":[-49.376227,-20.811761]},{"id":"7f040abe-d0b1-4283-bdbb-afc70480981d","title":"SP - SAO JOSE DO RIO PARDO","tipo":"Cebraspe","url":"\/dashboard\/details-assets\/7f040abe-d0b1-4283-bdbb-afc70480981d","coordinates":[-46.887746,-21.59577]},{"id":"3afedc41-c46d-46c8-bef6-f08fd9c477bf","title":"SP - SAO JOAQUIM DA BARRA","tipo":"Cebraspe","url":"\/dashboard\/details-assets\/3afedc41-c46d-46c8-bef6-f08fd9c477bf","coordinates":[-47.863268,-20.583166]},{"id":"d8cb5324-6488-4252-aa03-87443ad02452","title":"SP - SAO JOAO DA BOA VISTA","tipo":"Cebraspe","url":"\/dashboard\/details-assets\/d8cb5324-6488-4252-aa03-87443ad02452","coordinates":[-46.796351,-21.972011]},{"id":"6634c2e2-27a1-41f9-88b0-1ca9d1883d1f","title":"SP - SAO CAETANO DO SUL","tipo":"Cebraspe","url":"\/dashboard\/details-assets\/6634c2e2-27a1-41f9-88b0-1ca9d1883d1f","coordinates":[-46.571515,-23.614705]},{"id":"e782e97a-aace-4aae-86c0-9a58121fa8dc","title":"SP - SAO CARLOS","tipo":"Cebraspe","url":"\/dashboard\/details-assets\/e782e97a-aace-4aae-86c0-9a58121fa8dc","coordinates":[-53.017394,-27.078635]},{"id":"a3b86af8-84b0-4690-8803-1d7b38dad7c2","title":"SP - SANTOS","tipo":"Cebraspe","url":"\/dashboard\/details-assets\/a3b86af8-84b0-4690-8803-1d7b38dad7c2","coordinates":[-46.331371,-23.933737]},{"id":"4d14b9fd-8337-43ae-ad58-e224bfafc6dd","title":"SP - SAO BERNARDO DO CAMPO","tipo":"Cebraspe","url":"\/dashboard\/details-assets\/4d14b9fd-8337-43ae-ad58-e224bfafc6dd","coordinates":[-46.550257,-23.710304]},{"id":"f0e1b7b4-e585-419b-affd-875ea8d19eb9","title":"SP - SANTO ANDRE","tipo":"Cebraspe","url":"\/dashboard\/details-assets\/f0e1b7b4-e585-419b-affd-875ea8d19eb9","coordinates":[-46.530874,-23.65751]},{"id":"9d77f464-88e8-4ff2-8d3a-487115a6aa05","title":"SP - SANTANA DE PARNAIBA","tipo":"Cebraspe","url":"\/dashboard\/details-assets\/9d77f464-88e8-4ff2-8d3a-487115a6aa05","coordinates":[-46.922093,-23.449453]},{"id":"0fa091b4-9db3-4763-b39d-0dbdbf9430fc","title":"SP - SANTA ROSA DE VITERBO","tipo":"Cebraspe","url":"\/dashboard\/details-assets\/0fa091b4-9db3-4763-b39d-0dbdbf9430fc","coordinates":[-47.355603,-21.504574]},{"id":"5b18d74d-2aa7-4052-b69a-c34d63ad1b9f","title":"SP - SANTA ISABEL","tipo":"Cebraspe","url":"\/dashboard\/details-assets\/5b18d74d-2aa7-4052-b69a-c34d63ad1b9f","coordinates":[-46.224396,-23.312622]},{"id":"b9087b96-f834-420e-918b-da500cb50365","title":"SP - SANTA FE DO SUL","tipo":"Cebraspe","url":"\/dashboard\/details-assets\/b9087b96-f834-420e-918b-da500cb50365","coordinates":[-50.926777,-20.211693]},{"id":"5edbd331-6ee8-4cc9-9e5a-575e5285d190","title":"SP - SANTA CRUZ DO RIO PARDO","tipo":"Cebraspe","url":"\/dashboard\/details-assets\/5edbd331-6ee8-4cc9-9e5a-575e5285d190","coordinates":[-49.624609,-22.905722]},{"id":"9a23e2d0-11eb-49e4-a568-178b5fca9b4d","title":"SP - SALTO DE PIRAPORA","tipo":"Cebraspe","url":"\/dashboard\/details-assets\/9a23e2d0-11eb-49e4-a568-178b5fca9b4d","coordinates":[-47.57468,-23.649132]},{"id":"f1440cf1-c754-4184-aaf5-ac7e9702c23a","title":"SP - SANTA BARBARA D OESTE","tipo":"Cebraspe","url":"\/dashboard\/details-assets\/f1440cf1-c754-4184-aaf5-ac7e9702c23a","coordinates":[-47.413955,-22.755393]},{"id":"8d7c061c-d941-4a97-819d-b2d2b20040e1","title":"SP - SALTO","tipo":"Cebraspe","url":"\/dashboard\/details-assets\/8d7c061c-d941-4a97-819d-b2d2b20040e1","coordinates":[-47.292416,-23.204074]},{"id":"fa080662-0d08-460a-a6b2-fadae7f203cf","title":"SP - ROSANA","tipo":"Cebraspe","url":"\/dashboard\/details-assets\/fa080662-0d08-460a-a6b2-fadae7f203cf","coordinates":[-53.058654,-22.581175]},{"id":"93dfc81c-796d-45c1-ab66-4ea7b56de08a","title":"SP - RIO GRANDE DA SERRA","tipo":"Cebraspe","url":"\/dashboard\/details-assets\/93dfc81c-796d-45c1-ab66-4ea7b56de08a","coordinates":[-46.3972,-23.74393]},{"id":"83ce35cb-3246-4dd9-8c0d-15233ae88d70","title":"SP - RIO CLARO","tipo":"Cebraspe","url":"\/dashboard\/details-assets\/83ce35cb-3246-4dd9-8c0d-15233ae88d70","coordinates":[-47.563533,-22.412511]},{"id":"db68ec42-d598-4191-8cd0-da5639f454b4","title":"SP - RIBEIRAO PRETO","tipo":"Cebraspe","url":"\/dashboard\/details-assets\/db68ec42-d598-4191-8cd0-da5639f454b4","coordinates":[-47.805476,-21.184834]},{"id":"343ecd1c-72f7-44cb-8cb8-f81944c1275f","title":"SP - RIBEIRAO PIRES","tipo":"Cebraspe","url":"\/dashboard\/details-assets\/343ecd1c-72f7-44cb-8cb8-f81944c1275f","coordinates":[-46.415344,-23.707423]},{"id":"6d3dde31-f585-4aab-9e70-f764f287d5a4","title":"SP - REGISTRO","tipo":"Cebraspe","url":"\/dashboard\/details-assets\/6d3dde31-f585-4aab-9e70-f764f287d5a4","coordinates":[-47.841055,-24.494251]},{"id":"aaf17ab3-b53f-4b1a-97a8-e9cb801fe657","title":"SP - PROMISSAO","tipo":"Cebraspe","url":"\/dashboard\/details-assets\/aaf17ab3-b53f-4b1a-97a8-e9cb801fe657","coordinates":[-49.857735,-21.538867]},{"id":"adebc047-49fe-4f80-81d1-7da24206843a","title":"SP - RANCHARIA","tipo":"Cebraspe","url":"\/dashboard\/details-assets\/adebc047-49fe-4f80-81d1-7da24206843a","coordinates":[-50.890212,-22.228451]},{"id":"596932e6-0235-49dc-9ef3-a59129365f04","title":"SP - PRESIDENTE VENCESLAU","tipo":"Cebraspe","url":"\/dashboard\/details-assets\/596932e6-0235-49dc-9ef3-a59129365f04","coordinates":[-51.840259,-21.87594]},{"id":"96fe9333-b8f9-42ca-a0f5-64249cf6bd17","title":"SP - PRESIDENTE EPITACIO","tipo":"Cebraspe","url":"\/dashboard\/details-assets\/96fe9333-b8f9-42ca-a0f5-64249cf6bd17","coordinates":[-52.115276,-21.768782]},{"id":"da76c624-ef7c-4a5b-ad7d-87ccabed57f3","title":"SP - PRESIDENTE PRUDENTE","tipo":"Cebraspe","url":"\/dashboard\/details-assets\/da76c624-ef7c-4a5b-ad7d-87ccabed57f3","coordinates":[-51.386766,-22.122743]},{"id":"7f2ccbca-3167-4c3d-80cb-d50de5144adb","title":"SP - PRAIA GRANDE","tipo":"Cebraspe","url":"\/dashboard\/details-assets\/7f2ccbca-3167-4c3d-80cb-d50de5144adb","coordinates":[-46.412462,-24.008842]},{"id":"fa592e65-3128-44cc-9960-a5e1f029c5b1","title":"SP - PORTO FERREIRA","tipo":"Cebraspe","url":"\/dashboard\/details-assets\/fa592e65-3128-44cc-9960-a5e1f029c5b1","coordinates":[-47.48141,-21.858363]},{"id":"16b663f5-56aa-473f-aff0-227978421c7e","title":"SP - PORTO FELIZ","tipo":"Cebraspe","url":"\/dashboard\/details-assets\/16b663f5-56aa-473f-aff0-227978421c7e","coordinates":[-47.524597,-23.214412]},{"id":"58b78e25-fb89-45aa-97d7-89f46c9dfa7e","title":"SP - PONTAL","tipo":"Cebraspe","url":"\/dashboard\/details-assets\/58b78e25-fb89-45aa-97d7-89f46c9dfa7e","coordinates":[-48.037837,-21.02571]},{"id":"da5abbd7-fc84-48fd-a498-e3178a594ed0","title":"SP - POA","tipo":"Cebraspe","url":"\/dashboard\/details-assets\/da5abbd7-fc84-48fd-a498-e3178a594ed0","coordinates":[-46.34622,-23.528627]},{"id":"8e1c61a5-aee9-4e5f-aa12-029ddc63772f","title":"SP - PITANGUEIRAS","tipo":"Cebraspe","url":"\/dashboard\/details-assets\/8e1c61a5-aee9-4e5f-aa12-029ddc63772f","coordinates":[-51.585768,-23.230304]},{"id":"0584f36d-4aa8-4b72-aab8-61f030ff19a3","title":"SP - PIRASSUNUNGA","tipo":"Cebraspe","url":"\/dashboard\/details-assets\/0584f36d-4aa8-4b72-aab8-61f030ff19a3","coordinates":[-47.425173,-21.994049]},{"id":"7bbbab7f-c98f-4d79-a48d-979d43710bae","title":"SP - PIRAJUI","tipo":"Cebraspe","url":"\/dashboard\/details-assets\/7bbbab7f-c98f-4d79-a48d-979d43710bae","coordinates":[-49.457917,-21.974887]},{"id":"9f4601ef-a72e-421e-acd5-f56f0316f05e","title":"SP - PIRACICABA","tipo":"Cebraspe","url":"\/dashboard\/details-assets\/9f4601ef-a72e-421e-acd5-f56f0316f05e","coordinates":[-47.646846,-22.723722]},{"id":"a6f7cddc-6b59-4d7f-b267-6075c1cf3e5f","title":"SP - PIRAJU","tipo":"Cebraspe","url":"\/dashboard\/details-assets\/a6f7cddc-6b59-4d7f-b267-6075c1cf3e5f","coordinates":[-49.383974,-23.192991]},{"id":"654107c0-9657-45a3-a078-537c0dd14aa4","title":"SP - PINDAMONHANGABA","tipo":"Cebraspe","url":"\/dashboard\/details-assets\/654107c0-9657-45a3-a078-537c0dd14aa4","coordinates":[-45.462049,-22.926669]},{"id":"562bf5b4-efc2-47b6-8bbf-b10c6bc4b2ac","title":"SP - PILAR DO SUL","tipo":"Cebraspe","url":"\/dashboard\/details-assets\/562bf5b4-efc2-47b6-8bbf-b10c6bc4b2ac","coordinates":[-47.715508,-23.814612]},{"id":"52daee4f-f4d2-47c2-9573-dba13b0b766d","title":"SP - PIEDADE","tipo":"Cebraspe","url":"\/dashboard\/details-assets\/52daee4f-f4d2-47c2-9573-dba13b0b766d","coordinates":[-47.418015,-23.714202]},{"id":"a2f14a7d-3235-4e4d-b8b1-42a4c444effa","title":"SP - PERUIBE","tipo":"Cebraspe","url":"\/dashboard\/details-assets\/a2f14a7d-3235-4e4d-b8b1-42a4c444effa","coordinates":[-46.997302,-24.319509]},{"id":"5b2d015c-fb27-41bb-9341-2b8a5ee3da2a","title":"SP - PEREIRA BARRETO","tipo":"Cebraspe","url":"\/dashboard\/details-assets\/5b2d015c-fb27-41bb-9341-2b8a5ee3da2a","coordinates":[-51.106661,-20.636669]},{"id":"87bf9e05-1eda-45cf-8c3b-b85d5939ab19","title":"SP - PENAPOLIS","tipo":"Cebraspe","url":"\/dashboard\/details-assets\/87bf9e05-1eda-45cf-8c3b-b85d5939ab19","coordinates":[-50.073036,-21.418383]},{"id":"17454e1d-7b3a-4ca3-ae59-7b8b31137840","title":"SP - PEDREIRA","tipo":"Cebraspe","url":"\/dashboard\/details-assets\/17454e1d-7b3a-4ca3-ae59-7b8b31137840","coordinates":[-46.897802,-22.743771]},{"id":"d1273dab-42ee-4b08-b536-3e003f72146b","title":"SP - PAULINIA","tipo":"Cebraspe","url":"\/dashboard\/details-assets\/d1273dab-42ee-4b08-b536-3e003f72146b","coordinates":[-47.154386,-22.759922]},{"id":"be339fbf-6a63-459b-a509-0858116e3cf1","title":"SP - PEDERNEIRAS","tipo":"Cebraspe","url":"\/dashboard\/details-assets\/be339fbf-6a63-459b-a509-0858116e3cf1","coordinates":[-48.779681,-22.355491]},{"id":"3655afc9-bdd0-4e6e-b842-1017e2ac3564","title":"SP - OURINHOS","tipo":"Cebraspe","url":"\/dashboard\/details-assets\/3655afc9-bdd0-4e6e-b842-1017e2ac3564","coordinates":[-49.86858,-22.977267]},{"id":"828b5913-1f67-4bed-9e68-f0d86c03652b","title":"SP - PARAGUACU PAULISTA","tipo":"Cebraspe","url":"\/dashboard\/details-assets\/828b5913-1f67-4bed-9e68-f0d86c03652b","coordinates":[-50.575029,-22.417711]},{"id":"2d31a9a2-f9c6-4a0e-b7f0-1aa154746c97","title":"SP - OSVALDO CRUZ","tipo":"Cebraspe","url":"\/dashboard\/details-assets\/2d31a9a2-f9c6-4a0e-b7f0-1aa154746c97","coordinates":[-50.873139,-21.797083]},{"id":"893d7c4b-b9de-4cd6-999d-66a03639fba9","title":"SP - OSASCO","tipo":"Cebraspe","url":"\/dashboard\/details-assets\/893d7c4b-b9de-4cd6-999d-66a03639fba9","coordinates":[-46.78881,-23.533612]},{"id":"2f3e985c-42a3-4f60-8b5a-fd78b9d56153","title":"SP - ORLANDIA","tipo":"Cebraspe","url":"\/dashboard\/details-assets\/2f3e985c-42a3-4f60-8b5a-fd78b9d56153","coordinates":[-47.885819,-20.71754]},{"id":"45a14664-8970-4287-8f45-b971e37e810d","title":"SP - OLIMPIA","tipo":"Cebraspe","url":"\/dashboard\/details-assets\/45a14664-8970-4287-8f45-b971e37e810d","coordinates":[-48.911061,-20.737112]},{"id":"52787a17-0330-4b70-8f10-59eac7bb8a01","title":"SP - NOVO HORIZONTE","tipo":"Cebraspe","url":"\/dashboard\/details-assets\/52787a17-0330-4b70-8f10-59eac7bb8a01","coordinates":[-49.224652,-21.464975]},{"id":"c2c4278a-cd47-4e12-b51c-5f2e4496bd5b","title":"SP - MONTE MOR","tipo":"Cebraspe","url":"\/dashboard\/details-assets\/c2c4278a-cd47-4e12-b51c-5f2e4496bd5b","coordinates":[-47.313269,-22.945522]},{"id":"c5c3d8cc-213f-401b-ab84-7e2288f449a5","title":"SP - NOVA ODESSA","tipo":"Cebraspe","url":"\/dashboard\/details-assets\/c5c3d8cc-213f-401b-ab84-7e2288f449a5","coordinates":[-47.293635,-22.782795]},{"id":"ace53434-756c-4974-8d04-afeedcb765a0","title":"SP - MONTE APRAZIVEL","tipo":"Cebraspe","url":"\/dashboard\/details-assets\/ace53434-756c-4974-8d04-afeedcb765a0","coordinates":[-49.714116,-20.77214]},{"id":"fcb219cb-1bfe-4ea4-9005-509af7bce264","title":"SP - MONGAGUA","tipo":"Cebraspe","url":"\/dashboard\/details-assets\/fcb219cb-1bfe-4ea4-9005-509af7bce264","coordinates":[-46.619993,-24.094116]},{"id":"5bc41312-b837-4eb1-9224-1ad4772bdf85","title":"SP - MONTE ALTO","tipo":"Cebraspe","url":"\/dashboard\/details-assets\/5bc41312-b837-4eb1-9224-1ad4772bdf85","coordinates":[-48.496651,-21.263864]},{"id":"71a94ef7-4831-4429-bb04-70031a10b05c","title":"SP - MOGI MIRIM","tipo":"Cebraspe","url":"\/dashboard\/details-assets\/71a94ef7-4831-4429-bb04-70031a10b05c","coordinates":[-46.956367,-22.432695]},{"id":"26828df3-6e75-42b2-b324-f5ea50dd4849","title":"SP - MOGI GUACU","tipo":"Cebraspe","url":"\/dashboard\/details-assets\/26828df3-6e75-42b2-b324-f5ea50dd4849","coordinates":[-46.944474,-22.36572]},{"id":"95de1283-f0a8-4191-b9cb-5d02baf64e39","title":"SP - MOGI DAS CRUZES","tipo":"Cebraspe","url":"\/dashboard\/details-assets\/95de1283-f0a8-4191-b9cb-5d02baf64e39","coordinates":[-46.19676,-23.522706]},{"id":"9b0f0354-95bd-4391-883f-5ace84a4b46f","title":"SP - MOCOCA","tipo":"Cebraspe","url":"\/dashboard\/details-assets\/9b0f0354-95bd-4391-883f-5ace84a4b46f","coordinates":[-47.007171,-21.468991]},{"id":"2d14ffe9-3e58-4061-891b-577e1487ef6f","title":"SP - MIRASSOL","tipo":"Cebraspe","url":"\/dashboard\/details-assets\/2d14ffe9-3e58-4061-891b-577e1487ef6f","coordinates":[-49.512139,-20.817004]},{"id":"030df1c5-c6ba-4286-a5d4-3c5bdaf3969b","title":"SP - MIRANTE DO PARANAPANEMA","tipo":"Cebraspe","url":"\/dashboard\/details-assets\/030df1c5-c6ba-4286-a5d4-3c5bdaf3969b","coordinates":[-51.905794,-22.290559]},{"id":"8309e7fa-dbf2-4e61-bd57-86d0797acf16","title":"SP - MIRANDOPOLIS","tipo":"Cebraspe","url":"\/dashboard\/details-assets\/8309e7fa-dbf2-4e61-bd57-86d0797acf16","coordinates":[-51.102338,-21.133105]},{"id":"77431ccd-fb65-4063-bbe5-0c236d362fd5","title":"SP - MIRACATU","tipo":"Cebraspe","url":"\/dashboard\/details-assets\/77431ccd-fb65-4063-bbe5-0c236d362fd5","coordinates":[-47.462913,-24.277132]},{"id":"a208ee65-7303-40eb-ab4d-a5ed623113ec","title":"SP - MATAO","tipo":"Cebraspe","url":"\/dashboard\/details-assets\/a208ee65-7303-40eb-ab4d-a5ed623113ec","coordinates":[-48.364423,-21.602989]},{"id":"775dc738-f987-4223-8ad4-d8eebf603611","title":"SP - MAUA","tipo":"Cebraspe","url":"\/dashboard\/details-assets\/775dc738-f987-4223-8ad4-d8eebf603611","coordinates":[-46.461709,-23.668163]},{"id":"1fb0ba8e-9233-4069-b414-befde9cf2fd3","title":"SP - MARILIA","tipo":"Cebraspe","url":"\/dashboard\/details-assets\/1fb0ba8e-9233-4069-b414-befde9cf2fd3","coordinates":[-49.950529,-22.217585]},{"id":"01e408ac-9dd7-46fc-9fc7-1df8c09d17d6","title":"SP - MARTINOPOLIS","tipo":"Cebraspe","url":"\/dashboard\/details-assets\/01e408ac-9dd7-46fc-9fc7-1df8c09d17d6","coordinates":[-51.172105,-22.149528]},{"id":"523a38ef-3011-4686-9d9a-f1e1fe2031b6","title":"SP - MAIRIPORA","tipo":"Cebraspe","url":"\/dashboard\/details-assets\/523a38ef-3011-4686-9d9a-f1e1fe2031b6","coordinates":[-46.590279,-23.319505]},{"id":"69b4eca3-95a8-45cc-ab0e-5255557c79d4","title":"SP - MAIRINQUE","tipo":"Cebraspe","url":"\/dashboard\/details-assets\/69b4eca3-95a8-45cc-ab0e-5255557c79d4","coordinates":[-47.194723,-23.529723]},{"id":"c49ae039-e5b0-4175-b37a-378ca9300a5f","title":"SP - LOUVEIRA","tipo":"Cebraspe","url":"\/dashboard\/details-assets\/c49ae039-e5b0-4175-b37a-378ca9300a5f","coordinates":[-46.94644,-23.086778]},{"id":"4c1295e4-a5c8-47cc-ae7e-c22d89066d25","title":"SP - LORENA","tipo":"Cebraspe","url":"\/dashboard\/details-assets\/4c1295e4-a5c8-47cc-ae7e-c22d89066d25","coordinates":[-45.124248,-22.731693]},{"id":"b7264568-e893-4ad4-bf46-6a6210ed76bb","title":"SP - LIMEIRA","tipo":"Cebraspe","url":"\/dashboard\/details-assets\/b7264568-e893-4ad4-bf46-6a6210ed76bb","coordinates":[-47.40194,-22.562194]},{"id":"b5ba9ac2-9a21-4154-bf10-0ae2734dd960","title":"SP - LINS","tipo":"Cebraspe","url":"\/dashboard\/details-assets\/b5ba9ac2-9a21-4154-bf10-0ae2734dd960","coordinates":[-49.751423,-21.672346]},{"id":"e776b32c-ed13-4cab-a147-133c9fde65f7","title":"SP - LEME","tipo":"Cebraspe","url":"\/dashboard\/details-assets\/e776b32c-ed13-4cab-a147-133c9fde65f7","coordinates":[-47.388708,-22.185436]},{"id":"ed0d6f69-2925-406f-a70c-7dfa7e995dfc","title":"SP - LENCOIS PAULISTA","tipo":"Cebraspe","url":"\/dashboard\/details-assets\/ed0d6f69-2925-406f-a70c-7dfa7e995dfc","coordinates":[-48.798682,-22.597507]},{"id":"e1173588-43fd-480a-a7e1-38e5e7c2b9ff","title":"SP - JUQUITIBA","tipo":"Cebraspe","url":"\/dashboard\/details-assets\/e1173588-43fd-480a-a7e1-38e5e7c2b9ff","coordinates":[-47.081594,-23.935689]},{"id":"ccf42596-754b-4419-aac8-3c6df376d652","title":"SP - JOSE BONIFACIO","tipo":"Cebraspe","url":"\/dashboard\/details-assets\/ccf42596-754b-4419-aac8-3c6df376d652","coordinates":[-49.686283,-21.053719]},{"id":"4aa3e02f-917e-4cbf-8b80-2434f35d4d1a","title":"SP - JUNDIAI","tipo":"Cebraspe","url":"\/dashboard\/details-assets\/4aa3e02f-917e-4cbf-8b80-2434f35d4d1a","coordinates":[-46.885274,-23.187668]},{"id":"6b5a29ba-79f4-4099-85c6-478ee4792b12","title":"SP - JARDINOPOLIS","tipo":"Cebraspe","url":"\/dashboard\/details-assets\/6b5a29ba-79f4-4099-85c6-478ee4792b12","coordinates":[-47.777205,-21.027762]},{"id":"ffb8d684-8fc9-46ef-b2e4-0fff800f379f","title":"SP - JAU","tipo":"Cebraspe","url":"\/dashboard\/details-assets\/ffb8d684-8fc9-46ef-b2e4-0fff800f379f","coordinates":[-48.558141,-22.295791]},{"id":"8bba2dc4-b3d3-473a-b01f-b9fac7459c89","title":"SP - JANDIRA","tipo":"Cebraspe","url":"\/dashboard\/details-assets\/8bba2dc4-b3d3-473a-b01f-b9fac7459c89","coordinates":[-46.905221,-23.529939]},{"id":"e22b3447-a7d4-418a-92c6-6acb4f21da5b","title":"SP - JAGUARIUNA","tipo":"Cebraspe","url":"\/dashboard\/details-assets\/e22b3447-a7d4-418a-92c6-6acb4f21da5b","coordinates":[-46.982343,-22.706782]},{"id":"ae1739eb-81d6-4efb-92ed-5a728026fc1d","title":"SP - JALES","tipo":"Cebraspe","url":"\/dashboard\/details-assets\/ae1739eb-81d6-4efb-92ed-5a728026fc1d","coordinates":[-50.550356,-20.267853]},{"id":"31e1f5e2-f717-4fbc-8e9f-b4ea15c05178","title":"SP - JACAREI","tipo":"Cebraspe","url":"\/dashboard\/details-assets\/31e1f5e2-f717-4fbc-8e9f-b4ea15c05178","coordinates":[-45.969593,-23.30488]},{"id":"d0d70a12-d5ab-4f5c-811d-b8a1f541e5e1","title":"SP - ITUVERAVA","tipo":"Cebraspe","url":"\/dashboard\/details-assets\/d0d70a12-d5ab-4f5c-811d-b8a1f541e5e1","coordinates":[-47.780416,-20.336288]},{"id":"dc2316ed-2f51-41ac-bd2e-e117a1a4323e","title":"SP - JABOTICABAL","tipo":"Cebraspe","url":"\/dashboard\/details-assets\/dc2316ed-2f51-41ac-bd2e-e117a1a4323e","coordinates":[-48.32035,-21.254471]},{"id":"fa47cc4f-d2c6-48a4-87e9-6675f6d8325a","title":"SP - ITUPEVA","tipo":"Cebraspe","url":"\/dashboard\/details-assets\/fa47cc4f-d2c6-48a4-87e9-6675f6d8325a","coordinates":[-47.055701,-23.15341]},{"id":"39bb7ed0-b22d-4b37-8c25-fb621642fdfb","title":"SP - ITATIBA","tipo":"Cebraspe","url":"\/dashboard\/details-assets\/39bb7ed0-b22d-4b37-8c25-fb621642fdfb","coordinates":[-46.837558,-23.004853]},{"id":"7309fc31-a42c-4bbb-a54d-401cc1a3b68e","title":"SP - ITU","tipo":"Cebraspe","url":"\/dashboard\/details-assets\/7309fc31-a42c-4bbb-a54d-401cc1a3b68e","coordinates":[-47.29975,-23.265442]},{"id":"bb3c4bfd-ead3-435b-a67e-0e810fd127e3","title":"SP - ITARARE","tipo":"Cebraspe","url":"\/dashboard\/details-assets\/bb3c4bfd-ead3-435b-a67e-0e810fd127e3","coordinates":[-49.33612,-24.112138]},{"id":"43257270-9710-49be-ab72-0a07fdd00135","title":"SP - ITAQUAQUECETUBA","tipo":"Cebraspe","url":"\/dashboard\/details-assets\/43257270-9710-49be-ab72-0a07fdd00135","coordinates":[-46.351603,-23.476897]},{"id":"93612f1a-84c0-419d-8269-a5cf7edab40c","title":"SP - ITAPOLIS","tipo":"Cebraspe","url":"\/dashboard\/details-assets\/93612f1a-84c0-419d-8269-a5cf7edab40c","coordinates":[-48.813392,-21.594704]},{"id":"df6dd4ee-3920-41b1-8ef3-702509ff4782","title":"SP - ITAPEVI","tipo":"Cebraspe","url":"\/dashboard\/details-assets\/df6dd4ee-3920-41b1-8ef3-702509ff4782","coordinates":[-46.933373,-23.546934]},{"id":"7f5f09df-7c73-4a3c-9994-67d9eedad058","title":"SP - ITAPIRA","tipo":"Cebraspe","url":"\/dashboard\/details-assets\/7f5f09df-7c73-4a3c-9994-67d9eedad058","coordinates":[-46.821248,-22.436005]},{"id":"c39a92e1-67db-44f4-bac0-9440705b8e72","title":"SP - ITAPEVA","tipo":"Cebraspe","url":"\/dashboard\/details-assets\/c39a92e1-67db-44f4-bac0-9440705b8e72","coordinates":[-48.877389,-23.983438]},{"id":"2a43f723-3874-48cf-a08d-235e04ba0c2f","title":"SP - ITAPETININGA","tipo":"Cebraspe","url":"\/dashboard\/details-assets\/2a43f723-3874-48cf-a08d-235e04ba0c2f","coordinates":[-48.046143,-23.587872]},{"id":"546dd2cf-0a7e-4c11-b33a-ee8b42f7e7f3","title":"SP - ITAPECERICA DA SERRA","tipo":"Cebraspe","url":"\/dashboard\/details-assets\/546dd2cf-0a7e-4c11-b33a-ee8b42f7e7f3","coordinates":[-46.850552,-23.715357]},{"id":"af235e27-c9ff-40d0-a51a-ca47eab02bda","title":"SP - ITANHAEM","tipo":"Cebraspe","url":"\/dashboard\/details-assets\/af235e27-c9ff-40d0-a51a-ca47eab02bda","coordinates":[-46.790991,-24.186121]},{"id":"798dbf35-3be2-46df-bba6-661abd3f1cde","title":"SP - INDAIATUBA","tipo":"Cebraspe","url":"\/dashboard\/details-assets\/798dbf35-3be2-46df-bba6-661abd3f1cde","coordinates":[-47.212309,-23.081646]},{"id":"65680ced-b141-4476-a95d-3e46217df3e0","title":"SP - ITAI","tipo":"Cebraspe","url":"\/dashboard\/details-assets\/65680ced-b141-4476-a95d-3e46217df3e0","coordinates":[-49.081032,-23.419055]},{"id":"1433cef8-3661-4018-81d7-cb25776b760c","title":"SP - ILHABELA","tipo":"Cebraspe","url":"\/dashboard\/details-assets\/1433cef8-3661-4018-81d7-cb25776b760c","coordinates":[-45.354355,-23.807791]},{"id":"049fce29-e3da-419d-ba06-29ba62732194","title":"SP - IGUAPE","tipo":"Cebraspe","url":"\/dashboard\/details-assets\/049fce29-e3da-419d-ba06-29ba62732194","coordinates":[-47.553137,-24.706954]},{"id":"e962c928-875a-4037-b0cf-dc423982f3f6","title":"SP - ILHA SOLTEIRA","tipo":"Cebraspe","url":"\/dashboard\/details-assets\/e962c928-875a-4037-b0cf-dc423982f3f6","coordinates":[-51.344891,-20.429372]},{"id":"6293ed18-fbdc-4e19-ae18-a57d60844652","title":"SP - IBITINGA","tipo":"Cebraspe","url":"\/dashboard\/details-assets\/6293ed18-fbdc-4e19-ae18-a57d60844652","coordinates":[-48.827695,-21.757083]},{"id":"a09c949c-076f-43ac-8a49-58058d4b6d77","title":"SP - IBIUNA","tipo":"Cebraspe","url":"\/dashboard\/details-assets\/a09c949c-076f-43ac-8a49-58058d4b6d77","coordinates":[-47.220491,-23.652632]},{"id":"fabdc951-f5c8-4033-8055-ce3d99294c44","title":"SP - IBATE","tipo":"Cebraspe","url":"\/dashboard\/details-assets\/fabdc951-f5c8-4033-8055-ce3d99294c44","coordinates":[-48.002388,-21.955602]},{"id":"c8fa1b0b-6d8b-47a2-9596-b9f191079652","title":"SP - HORTOLANDIA","tipo":"Cebraspe","url":"\/dashboard\/details-assets\/c8fa1b0b-6d8b-47a2-9596-b9f191079652","coordinates":[-47.221097,-22.858395]},{"id":"318924a7-18be-4696-8125-ad3fb1e95d9e","title":"SP - GUARULHOS","tipo":"Cebraspe","url":"\/dashboard\/details-assets\/318924a7-18be-4696-8125-ad3fb1e95d9e","coordinates":[-46.531084,-23.468506]},{"id":"c735c3a3-45d9-478e-bbbe-c051705fc4c4","title":"SP - GUARUJA","tipo":"Cebraspe","url":"\/dashboard\/details-assets\/c735c3a3-45d9-478e-bbbe-c051705fc4c4","coordinates":[-46.249034,-23.995149]},{"id":"d360cb50-e128-424c-8689-d0b04971c4b9","title":"SP - GUARATINGUETA","tipo":"Cebraspe","url":"\/dashboard\/details-assets\/d360cb50-e128-424c-8689-d0b04971c4b9","coordinates":[-45.1916,-22.817425]},{"id":"4207978e-cfef-44fe-8f18-1c7fc2252df4","title":"SP - GUARARAPES","tipo":"Cebraspe","url":"\/dashboard\/details-assets\/4207978e-cfef-44fe-8f18-1c7fc2252df4","coordinates":[-50.642639,-21.253446]},{"id":"9f805df8-4093-4e66-85ab-54589ea3874c","title":"SP - GUAIRA","tipo":"Cebraspe","url":"\/dashboard\/details-assets\/9f805df8-4093-4e66-85ab-54589ea3874c","coordinates":[-54.246758,-24.085275]},{"id":"2a8631a1-b8b7-445f-8582-016dea4fff8a","title":"SP - FRANCO DA ROCHA","tipo":"Cebraspe","url":"\/dashboard\/details-assets\/2a8631a1-b8b7-445f-8582-016dea4fff8a","coordinates":[-46.727875,-23.320302]},{"id":"93a3182f-162d-43e4-91fb-9a1fef8b75e2","title":"SP - GARCA","tipo":"Cebraspe","url":"\/dashboard\/details-assets\/93a3182f-162d-43e4-91fb-9a1fef8b75e2","coordinates":[-49.65653,-22.210709]},{"id":"36440f31-f615-42fe-beae-2c578fdf8583","title":"SP - FRANCISCO MORATO","tipo":"Cebraspe","url":"\/dashboard\/details-assets\/36440f31-f615-42fe-beae-2c578fdf8583","coordinates":[-46.732527,-23.275825]},{"id":"cb46ee40-3a6c-4b45-9897-3aced2b35708","title":"SP - FRANCA","tipo":"Cebraspe","url":"\/dashboard\/details-assets\/cb46ee40-3a6c-4b45-9897-3aced2b35708","coordinates":[-47.402332,-20.536097]},{"id":"df2e8100-a2d6-4d0e-80e0-440e468231a3","title":"SP - FERRAZ DE VASCONCELOS","tipo":"Cebraspe","url":"\/dashboard\/details-assets\/df2e8100-a2d6-4d0e-80e0-440e468231a3","coordinates":[-46.364493,-23.528796]},{"id":"8da597d9-2ef7-4030-9206-c4a771556d7c","title":"SP - FERNANDOPOLIS","tipo":"Cebraspe","url":"\/dashboard\/details-assets\/8da597d9-2ef7-4030-9206-c4a771556d7c","coordinates":[-50.248748,-20.282383]},{"id":"1ed35d30-a1c2-4e90-88ca-a085aa946a97","title":"SP - EMBU-GUACU","tipo":"Cebraspe","url":"\/dashboard\/details-assets\/1ed35d30-a1c2-4e90-88ca-a085aa946a97","coordinates":[-46.817109,-23.831829]},{"id":"6a66d1d4-d6f4-4541-8507-d907a9d682e6","title":"SP - ESPIRITO SANTO DO PINHAL","tipo":"Cebraspe","url":"\/dashboard\/details-assets\/6a66d1d4-d6f4-4541-8507-d907a9d682e6","coordinates":[-46.745514,-22.197053]},{"id":"08fa627f-3e12-4c50-826c-2975aa65cc26","title":"SP - EMBU DAS ARTES","tipo":"Cebraspe","url":"\/dashboard\/details-assets\/08fa627f-3e12-4c50-826c-2975aa65cc26","coordinates":[-46.85086,-23.647312]},{"id":"a301f1b6-6b2a-4429-90e2-d003610cd0e8","title":"SP - ELDORADO","tipo":"Cebraspe","url":"\/dashboard\/details-assets\/a301f1b6-6b2a-4429-90e2-d003610cd0e8","coordinates":[-54.280028,-23.774054]},{"id":"dc4f96ca-ce9e-4b8c-9474-4214b0d96dbd","title":"SP - DIADEMA","tipo":"Cebraspe","url":"\/dashboard\/details-assets\/dc4f96ca-ce9e-4b8c-9474-4214b0d96dbd","coordinates":[-46.623381,-23.689295]},{"id":"933084e6-a84e-47f8-aad0-da5ebe640eb3","title":"SP - DRACENA","tipo":"Cebraspe","url":"\/dashboard\/details-assets\/933084e6-a84e-47f8-aad0-da5ebe640eb3","coordinates":[-51.53405,-21.486138]},{"id":"c126bcc2-42f0-45a5-9b52-8ec4f23bdbe8","title":"SP - CUBATAO","tipo":"Cebraspe","url":"\/dashboard\/details-assets\/c126bcc2-42f0-45a5-9b52-8ec4f23bdbe8","coordinates":[-46.420032,-23.883839]},{"id":"7884ce7e-180c-4d9f-ad96-2baedd80f296","title":"SP - CRUZEIRO","tipo":"Cebraspe","url":"\/dashboard\/details-assets\/7884ce7e-180c-4d9f-ad96-2baedd80f296","coordinates":[-44.961732,-22.57775]},{"id":"0db4c2a3-0e4b-4935-b235-7210bd49de27","title":"SP - COTIA","tipo":"Cebraspe","url":"\/dashboard\/details-assets\/0db4c2a3-0e4b-4935-b235-7210bd49de27","coordinates":[-46.931846,-23.603514]},{"id":"016e1998-54aa-4c12-8092-af3e21e20beb","title":"SP - COSMOPOLIS","tipo":"Cebraspe","url":"\/dashboard\/details-assets\/016e1998-54aa-4c12-8092-af3e21e20beb","coordinates":[-47.196771,-22.645785]},{"id":"3eb7ea47-01db-4bd9-a6df-5332fbde3194","title":"SP - CERQUILHO","tipo":"Cebraspe","url":"\/dashboard\/details-assets\/3eb7ea47-01db-4bd9-a6df-5332fbde3194","coordinates":[-47.737531,-23.168672]},{"id":"30644d45-2d1e-4eca-9657-e9cc6b3de22c","title":"SP - CERQUEIRA CESAR","tipo":"Cebraspe","url":"\/dashboard\/details-assets\/30644d45-2d1e-4eca-9657-e9cc6b3de22c","coordinates":[-49.16533,-23.034797]},{"id":"8c134dbf-4e23-4bb9-8247-c074fdfd5eaa","title":"SP - CATANDUVA","tipo":"Cebraspe","url":"\/dashboard\/details-assets\/8c134dbf-4e23-4bb9-8247-c074fdfd5eaa","coordinates":[-48.975871,-21.139538]},{"id":"c0fee47d-bd34-4538-81f9-ae1d9e5b0d92","title":"SP - CASA BRANCA","tipo":"Cebraspe","url":"\/dashboard\/details-assets\/c0fee47d-bd34-4538-81f9-ae1d9e5b0d92","coordinates":[-47.079758,-21.777987]},{"id":"6f1f61d8-2ba0-417f-970b-464cdf515b46","title":"SP - CARAPICUIBA","tipo":"Cebraspe","url":"\/dashboard\/details-assets\/6f1f61d8-2ba0-417f-970b-464cdf515b46","coordinates":[-46.841445,-23.535249]},{"id":"c520fba5-eb8f-48b4-bd23-d97444997433","title":"SP - CARAGUATATUBA","tipo":"Cebraspe","url":"\/dashboard\/details-assets\/c520fba5-eb8f-48b4-bd23-d97444997433","coordinates":[-45.410818,-23.622006]},{"id":"f025f094-7d6e-4fd0-8542-e2f9df0c4af2","title":"SP - CAPIVARI","tipo":"Cebraspe","url":"\/dashboard\/details-assets\/f025f094-7d6e-4fd0-8542-e2f9df0c4af2","coordinates":[-47.502206,-22.999549]},{"id":"3a709a8d-312b-46c3-a631-755552c0a065","title":"SP - CAPAO BONITO","tipo":"Cebraspe","url":"\/dashboard\/details-assets\/3a709a8d-312b-46c3-a631-755552c0a065","coordinates":[-48.351435,-24.006801]},{"id":"7cbc608d-7d74-4bef-9a01-8b34a145c453","title":"SP - CANDIDO MOTA","tipo":"Cebraspe","url":"\/dashboard\/details-assets\/7cbc608d-7d74-4bef-9a01-8b34a145c453","coordinates":[-50.388393,-22.746925]},{"id":"20c4c581-098c-4253-bbde-afd85c672b4f","title":"SP - CAMPOS DO JORDAO","tipo":"Cebraspe","url":"\/dashboard\/details-assets\/20c4c581-098c-4253-bbde-afd85c672b4f","coordinates":[-45.589202,-22.740092]},{"id":"d94fdfdb-0b48-4b03-acd0-4012cff9044f","title":"SP - CAMPO LIMPO PAULISTA","tipo":"Cebraspe","url":"\/dashboard\/details-assets\/d94fdfdb-0b48-4b03-acd0-4012cff9044f","coordinates":[-46.789369,-23.208293]},{"id":"07deed99-ed86-406a-90c9-1f5e5d3d2b07","title":"SP - CAJURU","tipo":"Cebraspe","url":"\/dashboard\/details-assets\/07deed99-ed86-406a-90c9-1f5e5d3d2b07","coordinates":[-47.303467,-21.275414]},{"id":"46e60b2b-c864-480f-82ec-2462dd3548d4","title":"SP - CAMPINAS","tipo":"Cebraspe","url":"\/dashboard\/details-assets\/46e60b2b-c864-480f-82ec-2462dd3548d4","coordinates":[-47.060156,-22.907342]},{"id":"40c1b415-a600-475d-b8dd-a6d5300128a8","title":"SP - CAJAMAR","tipo":"Cebraspe","url":"\/dashboard\/details-assets\/40c1b415-a600-475d-b8dd-a6d5300128a8","coordinates":[-46.88292,-23.360971]},{"id":"d716c39b-3893-4242-bf3f-49f55e3119cb","title":"SP - CAJATI","tipo":"Cebraspe","url":"\/dashboard\/details-assets\/d716c39b-3893-4242-bf3f-49f55e3119cb","coordinates":[-48.105,-24.726361]},{"id":"00509b2c-46f2-4b62-a74e-ba3adbf9570b","title":"SP - CACHOEIRA PAULISTA","tipo":"Cebraspe","url":"\/dashboard\/details-assets\/00509b2c-46f2-4b62-a74e-ba3adbf9570b","coordinates":[-45.01063,-22.664754]},{"id":"d6a856cc-c9df-4028-9ba8-137753e6f023","title":"SP - CAIEIRAS","tipo":"Cebraspe","url":"\/dashboard\/details-assets\/d6a856cc-c9df-4028-9ba8-137753e6f023","coordinates":[-46.744101,-23.362116]},{"id":"57af601f-9324-4dcd-b186-aa734ea728a2","title":"SP - CACAPAVA","tipo":"Cebraspe","url":"\/dashboard\/details-assets\/57af601f-9324-4dcd-b186-aa734ea728a2","coordinates":[-45.70773,-23.100664]},{"id":"09e270bf-37e6-45eb-bd3a-bbaa1dab3153","title":"SP - BRAGANCA PAULISTA","tipo":"Cebraspe","url":"\/dashboard\/details-assets\/09e270bf-37e6-45eb-bd3a-bbaa1dab3153","coordinates":[-46.542333,-22.956895]},{"id":"ab778967-c9b3-4579-886c-e5dba1651bff","title":"SP - CABREUVA","tipo":"Cebraspe","url":"\/dashboard\/details-assets\/ab778967-c9b3-4579-886c-e5dba1651bff","coordinates":[-47.133658,-23.312674]},{"id":"5e01ab8f-9c8e-4d3b-b446-245119399ca5","title":"SP - BOITUVA","tipo":"Cebraspe","url":"\/dashboard\/details-assets\/5e01ab8f-9c8e-4d3b-b446-245119399ca5","coordinates":[-47.671473,-23.281944]},{"id":"e4340d24-0b82-4851-92bb-4969d0677e15","title":"SP - BOTUCATU","tipo":"Cebraspe","url":"\/dashboard\/details-assets\/e4340d24-0b82-4851-92bb-4969d0677e15","coordinates":[-48.441289,-22.888381]},{"id":"ea287f7e-49d0-464b-9a57-46d6df4b2d0d","title":"SP - BIRIGUI","tipo":"Cebraspe","url":"\/dashboard\/details-assets\/ea287f7e-49d0-464b-9a57-46d6df4b2d0d","coordinates":[-50.339329,-21.292392]},{"id":"bc1f2cf3-a120-4ed6-8f07-7437b9b42513","title":"SP - BERTIOGA","tipo":"Cebraspe","url":"\/dashboard\/details-assets\/bc1f2cf3-a120-4ed6-8f07-7437b9b42513","coordinates":[-46.136538,-23.854014]},{"id":"b4250b63-4e7d-48a2-8a6a-bc781edfefde","title":"SP - BEBEDOURO","tipo":"Cebraspe","url":"\/dashboard\/details-assets\/b4250b63-4e7d-48a2-8a6a-bc781edfefde","coordinates":[-48.477362,-20.949816]},{"id":"2221fe64-6b1a-45a2-aa4d-b0a0451fc435","title":"SP - BATATAIS","tipo":"Cebraspe","url":"\/dashboard\/details-assets\/2221fe64-6b1a-45a2-aa4d-b0a0451fc435","coordinates":[-47.586107,-20.891929]},{"id":"71b5e616-daea-4aff-a0ea-16d537c7f8ad","title":"SP - BAURU","tipo":"Cebraspe","url":"\/dashboard\/details-assets\/71b5e616-daea-4aff-a0ea-16d537c7f8ad","coordinates":[-49.083001,-22.325122]},{"id":"b60f614a-9298-4f12-88a7-e6db37019b56","title":"SP - BARUERI","tipo":"Cebraspe","url":"\/dashboard\/details-assets\/b60f614a-9298-4f12-88a7-e6db37019b56","coordinates":[-46.874653,-23.508902]},{"id":"dba5e66d-c32d-4331-87b9-a4b74f1d9815","title":"SP - BARRINHA","tipo":"Cebraspe","url":"\/dashboard\/details-assets\/dba5e66d-c32d-4331-87b9-a4b74f1d9815","coordinates":[-48.162814,-21.191743]},{"id":"96132f7e-b6eb-4fdf-ad26-573c8ac7145a","title":"SP - BARRA DO TURVO","tipo":"Cebraspe","url":"\/dashboard\/details-assets\/96132f7e-b6eb-4fdf-ad26-573c8ac7145a","coordinates":[-48.545153,-24.876025]},{"id":"4baf70c6-b68c-482a-82d3-5d3351458a86","title":"SP - BARRETOS","tipo":"Cebraspe","url":"\/dashboard\/details-assets\/4baf70c6-b68c-482a-82d3-5d3351458a86","coordinates":[-48.567378,-20.558456]},{"id":"799934b3-74eb-4dc2-8224-6ac358447946","title":"SP - BARRA BONITA","tipo":"Cebraspe","url":"\/dashboard\/details-assets\/799934b3-74eb-4dc2-8224-6ac358447946","coordinates":[-48.552414,-22.490671]},{"id":"c83832b7-12dc-4783-9171-683e67d5dd20","title":"SP - AURIFLAMA","tipo":"Cebraspe","url":"\/dashboard\/details-assets\/c83832b7-12dc-4783-9171-683e67d5dd20","coordinates":[-50.553959,-20.687335]},{"id":"49f1bdd8-d4c5-4dfa-a246-108a800608cf","title":"SP - AVARE","tipo":"Cebraspe","url":"\/dashboard\/details-assets\/49f1bdd8-d4c5-4dfa-a246-108a800608cf","coordinates":[-48.923263,-23.103193]},{"id":"2e377554-e346-4280-8c0c-7735f6f695c2","title":"SP - ASSIS","tipo":"Cebraspe","url":"\/dashboard\/details-assets\/2e377554-e346-4280-8c0c-7735f6f695c2","coordinates":[-50.41751,-22.662835]},{"id":"3e7b2423-3d04-4e25-b840-193b39df0eb3","title":"SP - ATIBAIA","tipo":"Cebraspe","url":"\/dashboard\/details-assets\/3e7b2423-3d04-4e25-b840-193b39df0eb3","coordinates":[-46.555063,-23.116308]},{"id":"53201ceb-7139-451e-adda-31f9e1a66468","title":"SP - ARUJA","tipo":"Cebraspe","url":"\/dashboard\/details-assets\/53201ceb-7139-451e-adda-31f9e1a66468","coordinates":[-46.32049,-23.395827]},{"id":"1ca8ef42-5007-48b8-946f-afa6968c1b4c","title":"SP - ARTUR NOGUEIRA","tipo":"Cebraspe","url":"\/dashboard\/details-assets\/1ca8ef42-5007-48b8-946f-afa6968c1b4c","coordinates":[-47.164301,-22.571343]},{"id":"9fc58012-11aa-4d6b-b801-20bd892e7ce3","title":"SP - ARARAQUARA","tipo":"Cebraspe","url":"\/dashboard\/details-assets\/9fc58012-11aa-4d6b-b801-20bd892e7ce3","coordinates":[-48.17444,-21.790359]},{"id":"1f6505c6-40aa-40df-8193-9c71ba2f3f67","title":"SP - ARARAS","tipo":"Cebraspe","url":"\/dashboard\/details-assets\/1f6505c6-40aa-40df-8193-9c71ba2f3f67","coordinates":[-47.38583,-22.357087]},{"id":"3fd5a42f-c41f-4970-a21d-05f4528330f1","title":"SP - ARACOIABA DA SERRA","tipo":"Cebraspe","url":"\/dashboard\/details-assets\/3fd5a42f-c41f-4970-a21d-05f4528330f1","coordinates":[-47.587243,-23.50732]},{"id":"7beeb291-aac7-4310-8eea-a13a024d8cd0","title":"SP - APIAI","tipo":"Cebraspe","url":"\/dashboard\/details-assets\/7beeb291-aac7-4310-8eea-a13a024d8cd0","coordinates":[-48.84866,-24.513316]},{"id":"2c54a3a0-1d75-408a-a197-a1f849197544","title":"SP - ARACATUBA","tipo":"Cebraspe","url":"\/dashboard\/details-assets\/2c54a3a0-1d75-408a-a197-a1f849197544","coordinates":[-50.439226,-21.205476]},{"id":"d154a325-e0c8-415b-8676-5c6b89c9269b","title":"SP - ANDRADINA","tipo":"Cebraspe","url":"\/dashboard\/details-assets\/d154a325-e0c8-415b-8676-5c6b89c9269b","coordinates":[-51.378848,-20.901464]},{"id":"491274f8-73df-4d9b-96e8-0960c454804a","title":"SP - APARECIDA","tipo":"Cebraspe","url":"\/dashboard\/details-assets\/491274f8-73df-4d9b-96e8-0960c454804a","coordinates":[-45.229429,-22.848154]},{"id":"a8e5459d-5700-4f12-bcb1-bb9bae892300","title":"SP - AMERICANA","tipo":"Cebraspe","url":"\/dashboard\/details-assets\/a8e5459d-5700-4f12-bcb1-bb9bae892300","coordinates":[-47.330363,-22.740883]},{"id":"8da74e28-e967-4b4f-b449-941d45c4b355","title":"SP - AMPARO","tipo":"Cebraspe","url":"\/dashboard\/details-assets\/8da74e28-e967-4b4f-b449-941d45c4b355","coordinates":[-46.765086,-22.699389]},{"id":"cbd47ce7-57d6-4ee2-9733-167c51c098cd","title":"SP - AGUDOS","tipo":"Cebraspe","url":"\/dashboard\/details-assets\/cbd47ce7-57d6-4ee2-9733-167c51c098cd","coordinates":[-48.990156,-22.474037]},{"id":"bbb1380f-2f68-425c-b7c2-bc922db1661c","title":"SP - ADAMANTINA","tipo":"Cebraspe","url":"\/dashboard\/details-assets\/bbb1380f-2f68-425c-b7c2-bc922db1661c","coordinates":[-51.102504,-21.685058]},{"id":"3f335e09-788b-4a9f-9405-13207805ca56","title":"SC - XAXIM","tipo":"Cebraspe","url":"\/dashboard\/details-assets\/3f335e09-788b-4a9f-9405-13207805ca56","coordinates":[-52.534933,-26.963719]},{"id":"0a6589ca-7cf4-4c42-8a78-4a4b71a04fe0","title":"SC - XANXERE","tipo":"Cebraspe","url":"\/dashboard\/details-assets\/0a6589ca-7cf4-4c42-8a78-4a4b71a04fe0","coordinates":[-52.404667,-26.874584]},{"id":"f64b4eb3-a477-4f89-bc2a-5dcc7a15fe12","title":"SC - VIDEIRA","tipo":"Cebraspe","url":"\/dashboard\/details-assets\/f64b4eb3-a477-4f89-bc2a-5dcc7a15fe12","coordinates":[-51.151705,-27.006129]},{"id":"f79eaa87-f0b0-4f8c-be88-b760e238f73b","title":"SC - TUBARAO","tipo":"Cebraspe","url":"\/dashboard\/details-assets\/f79eaa87-f0b0-4f8c-be88-b760e238f73b","coordinates":[-49.005268,-28.480034]},{"id":"7d59551b-6e0a-4aaa-9535-510ac0b87574","title":"SC - TIMBO","tipo":"Cebraspe","url":"\/dashboard\/details-assets\/7d59551b-6e0a-4aaa-9535-510ac0b87574","coordinates":[-49.277712,-26.822903]},{"id":"0bae1aa5-0dab-4bf8-9e05-a586bb61969d","title":"SC - TIJUCAS","tipo":"Cebraspe","url":"\/dashboard\/details-assets\/0bae1aa5-0dab-4bf8-9e05-a586bb61969d","coordinates":[-48.632071,-27.239454]},{"id":"159f315d-b1ea-4187-970f-999fb7ccfb34","title":"SC - TAIO","tipo":"Cebraspe","url":"\/dashboard\/details-assets\/159f315d-b1ea-4187-970f-999fb7ccfb34","coordinates":[-50.005096,-27.117937]},{"id":"19396383-184d-4479-bc31-6499cdb15762","title":"SC - SOMBRIO","tipo":"Cebraspe","url":"\/dashboard\/details-assets\/19396383-184d-4479-bc31-6499cdb15762","coordinates":[-49.63421,-29.109133]},{"id":"39d04116-0193-43d0-ae2a-2e1c50fb6f70","title":"SC - SEARA","tipo":"Cebraspe","url":"\/dashboard\/details-assets\/39d04116-0193-43d0-ae2a-2e1c50fb6f70","coordinates":[-52.307093,-27.14266]},{"id":"462d576b-031c-4c90-a9e8-693b15827480","title":"SC - SAO MIGUEL DO OESTE","tipo":"Cebraspe","url":"\/dashboard\/details-assets\/462d576b-031c-4c90-a9e8-693b15827480","coordinates":[-53.518839,-26.726427]},{"id":"39d48d09-c7a3-41b0-b75a-b32f24a6168c","title":"SC - SAO LOURENCO DO OESTE","tipo":"Cebraspe","url":"\/dashboard\/details-assets\/39d48d09-c7a3-41b0-b75a-b32f24a6168c","coordinates":[-52.852705,-26.354526]},{"id":"c96b53f4-fbfe-4518-8189-3b73b63fa603","title":"SC - SAO JOAQUIM","tipo":"Cebraspe","url":"\/dashboard\/details-assets\/c96b53f4-fbfe-4518-8189-3b73b63fa603","coordinates":[-49.937587,-28.292455]},{"id":"c7c70f22-7a30-431d-9d03-35615fa845c3","title":"SC - SAO JOSE","tipo":"Cebraspe","url":"\/dashboard\/details-assets\/c7c70f22-7a30-431d-9d03-35615fa845c3","coordinates":[-48.642802,-27.610088]},{"id":"6d80bda2-32d5-41ac-ba6f-e125cd1e4594","title":"SC - SAO FRANCISCO DO SUL","tipo":"Cebraspe","url":"\/dashboard\/details-assets\/6d80bda2-32d5-41ac-ba6f-e125cd1e4594","coordinates":[-48.637571,-26.244018]},{"id":"ac49a9b7-8f26-41d1-8ffa-a57e245ca1d5","title":"SC - SAO BENTO DO SUL","tipo":"Cebraspe","url":"\/dashboard\/details-assets\/ac49a9b7-8f26-41d1-8ffa-a57e245ca1d5","coordinates":[-49.383557,-26.250037]},{"id":"fd4918b8-82d8-478c-8558-e35febcb3196","title":"SC - RIO NEGRINHO","tipo":"Cebraspe","url":"\/dashboard\/details-assets\/fd4918b8-82d8-478c-8558-e35febcb3196","coordinates":[-49.517295,-26.255325]},{"id":"de1b02d8-269e-4878-bf93-d5bdc8c62a9d","title":"SC - QUILOMBO","tipo":"Cebraspe","url":"\/dashboard\/details-assets\/de1b02d8-269e-4878-bf93-d5bdc8c62a9d","coordinates":[-52.72761,-26.740056]},{"id":"c2103497-094f-466f-89e4-4b66f3bd970c","title":"SC - RIO DO SUL","tipo":"Cebraspe","url":"\/dashboard\/details-assets\/c2103497-094f-466f-89e4-4b66f3bd970c","coordinates":[-49.643238,-27.217903]},{"id":"f3ba8e13-c92a-4a90-be1d-8527b6129fba","title":"SC - PORTO UNIAO","tipo":"Cebraspe","url":"\/dashboard\/details-assets\/f3ba8e13-c92a-4a90-be1d-8527b6129fba","coordinates":[-51.08171,-26.238912]},{"id":"4c582ec4-7320-4a6d-814f-1e856e78821b","title":"SC - PALMITOS","tipo":"Cebraspe","url":"\/dashboard\/details-assets\/4c582ec4-7320-4a6d-814f-1e856e78821b","coordinates":[-53.159223,-27.071789]},{"id":"bdcd27e3-7210-462f-8586-2122f2911fc6","title":"SC - PALHOCA","tipo":"Cebraspe","url":"\/dashboard\/details-assets\/bdcd27e3-7210-462f-8586-2122f2911fc6","coordinates":[-48.670288,-27.647044]},{"id":"719fd2bd-092b-41cb-90dd-b05dbc58f8ac","title":"SC - ORLEANS","tipo":"Cebraspe","url":"\/dashboard\/details-assets\/719fd2bd-092b-41cb-90dd-b05dbc58f8ac","coordinates":[-49.291426,-28.360469]},{"id":"f73a40dc-ae3b-4263-87e7-6c569191393f","title":"SC - NAVEGANTES","tipo":"Cebraspe","url":"\/dashboard\/details-assets\/f73a40dc-ae3b-4263-87e7-6c569191393f","coordinates":[-48.649183,-26.897439]},{"id":"253dd0a7-5190-405c-9e8c-359e2b85138c","title":"SC - MARAVILHA","tipo":"Cebraspe","url":"\/dashboard\/details-assets\/253dd0a7-5190-405c-9e8c-359e2b85138c","coordinates":[-53.174819,-26.761624]},{"id":"18ca5357-a51a-4a32-ba5f-8ff9f1725c48","title":"SC - MAFRA","tipo":"Cebraspe","url":"\/dashboard\/details-assets\/18ca5357-a51a-4a32-ba5f-8ff9f1725c48","coordinates":[-49.801038,-26.115228]},{"id":"6111eb62-5d78-40ce-915e-9a655fbd8197","title":"SC - LAGUNA","tipo":"Cebraspe","url":"\/dashboard\/details-assets\/6111eb62-5d78-40ce-915e-9a655fbd8197","coordinates":[-48.781389,-28.483586]},{"id":"9695f081-d242-4d52-b2c8-bf539472b516","title":"SC - LAGES","tipo":"Cebraspe","url":"\/dashboard\/details-assets\/9695f081-d242-4d52-b2c8-bf539472b516","coordinates":[-50.330222,-27.817259]},{"id":"6e7cee7e-d24e-4c19-9207-f182ace5a3c8","title":"SC - JOACABA","tipo":"Cebraspe","url":"\/dashboard\/details-assets\/6e7cee7e-d24e-4c19-9207-f182ace5a3c8","coordinates":[-51.50669,-27.173945]},{"id":"36e3f623-b100-4823-8fc3-4f6280648f39","title":"SC - JOINVILLE","tipo":"Cebraspe","url":"\/dashboard\/details-assets\/36e3f623-b100-4823-8fc3-4f6280648f39","coordinates":[-48.849409,-26.304518]},{"id":"87b51ce8-fd6e-4151-9d50-113d812f4154","title":"SC - JARAGUA DO SUL","tipo":"Cebraspe","url":"\/dashboard\/details-assets\/87b51ce8-fd6e-4151-9d50-113d812f4154","coordinates":[-49.076299,-26.490484]},{"id":"f46498bc-9a3f-4103-a04c-ec24cc4be596","title":"SC - ITAPIRANGA","tipo":"Cebraspe","url":"\/dashboard\/details-assets\/f46498bc-9a3f-4103-a04c-ec24cc4be596","coordinates":[-53.714802,-27.175375]},{"id":"5ecdbe5e-fa59-491d-9547-f29e437ea5ef","title":"SC - ITUPORANGA","tipo":"Cebraspe","url":"\/dashboard\/details-assets\/5ecdbe5e-fa59-491d-9547-f29e437ea5ef","coordinates":[-49.603415,-27.414858]},{"id":"2516c612-4a80-4287-a2ee-68c1713e79a9","title":"SC - ITAPEMA","tipo":"Cebraspe","url":"\/dashboard\/details-assets\/2516c612-4a80-4287-a2ee-68c1713e79a9","coordinates":[-48.617399,-27.095938]},{"id":"68725765-24dc-4bbf-8bc7-1900c12c43df","title":"SC - ITAJAI","tipo":"Cebraspe","url":"\/dashboard\/details-assets\/68725765-24dc-4bbf-8bc7-1900c12c43df","coordinates":[-48.670913,-26.910705]},{"id":"2ed88a59-490f-4bf8-83c0-8de7b61bca6f","title":"SC - INDAIAL","tipo":"Cebraspe","url":"\/dashboard\/details-assets\/2ed88a59-490f-4bf8-83c0-8de7b61bca6f","coordinates":[-49.24014,-26.906256]},{"id":"37cd6733-bf89-4c0a-9d27-86d572588184","title":"SC - IMBITUBA","tipo":"Cebraspe","url":"\/dashboard\/details-assets\/37cd6733-bf89-4c0a-9d27-86d572588184","coordinates":[-48.669284,-28.239951]},{"id":"14bb25f8-a9d5-4d5c-9ff8-a80bf6cc0a2d","title":"SC - ICARA","tipo":"Cebraspe","url":"\/dashboard\/details-assets\/14bb25f8-a9d5-4d5c-9ff8-a80bf6cc0a2d","coordinates":[-49.309144,-28.71371]},{"id":"76243797-dcba-4b9c-a95f-de8a773c50ef","title":"SC - GUARAMIRIM","tipo":"Cebraspe","url":"\/dashboard\/details-assets\/76243797-dcba-4b9c-a95f-de8a773c50ef","coordinates":[-48.992104,-26.474445]},{"id":"f0845672-207f-4674-b0e9-89b2df4849c8","title":"SC - GAROPABA","tipo":"Cebraspe","url":"\/dashboard\/details-assets\/f0845672-207f-4674-b0e9-89b2df4849c8","coordinates":[-48.6355,-28.024935]},{"id":"5fcd5a6b-0166-4119-bb47-567069cc08b0","title":"SC - FRAIBURGO","tipo":"Cebraspe","url":"\/dashboard\/details-assets\/5fcd5a6b-0166-4119-bb47-567069cc08b0","coordinates":[-50.925079,-27.023447]},{"id":"d3d34650-0e0f-4c85-a74f-f9c99a182f92","title":"SC - FLORIANOPOLIS","tipo":"Cebraspe","url":"\/dashboard\/details-assets\/d3d34650-0e0f-4c85-a74f-f9c99a182f92","coordinates":[-48.547637,-27.587796]},{"id":"40b0e3cf-c8d1-4a28-81d3-65dcf0ed8dbf","title":"SC - DIONISIO CERQUEIRA","tipo":"Cebraspe","url":"\/dashboard\/details-assets\/40b0e3cf-c8d1-4a28-81d3-65dcf0ed8dbf","coordinates":[-53.631395,-26.266489]},{"id":"b1d0c349-acd4-4c8d-9578-4e48a8722d9c","title":"SC - CURITIBANOS","tipo":"Cebraspe","url":"\/dashboard\/details-assets\/b1d0c349-acd4-4c8d-9578-4e48a8722d9c","coordinates":[-50.582601,-27.282983]},{"id":"02b05bab-cb01-4f85-9cfb-5b9df7bcfef4","title":"SC - CRICIUMA","tipo":"Cebraspe","url":"\/dashboard\/details-assets\/02b05bab-cb01-4f85-9cfb-5b9df7bcfef4","coordinates":[-49.36594,-28.673572]},{"id":"5828dafa-65ef-4518-b045-595531b9b9a6","title":"SC - CONCORDIA","tipo":"Cebraspe","url":"\/dashboard\/details-assets\/5828dafa-65ef-4518-b045-595531b9b9a6","coordinates":[-52.023971,-27.233659]},{"id":"7dfba9f0-46b8-4d29-9506-3c39e1043045","title":"SC - CHAPECO","tipo":"Cebraspe","url":"\/dashboard\/details-assets\/7dfba9f0-46b8-4d29-9506-3c39e1043045","coordinates":[-52.615699,-27.100934]},{"id":"14da6a53-8ca7-452c-ad12-273581aab5a8","title":"SC - CANOINHAS","tipo":"Cebraspe","url":"\/dashboard\/details-assets\/14da6a53-8ca7-452c-ad12-273581aab5a8","coordinates":[-50.397849,-26.178807]},{"id":"1141249f-ceef-459d-9617-32a7afaeb75c","title":"SC - CAMPOS NOVOS","tipo":"Cebraspe","url":"\/dashboard\/details-assets\/1141249f-ceef-459d-9617-32a7afaeb75c","coordinates":[-51.223673,-27.399053]},{"id":"d78a0c92-489f-464d-9eed-54684fd47486","title":"SC - CAMBORIU","tipo":"Cebraspe","url":"\/dashboard\/details-assets\/d78a0c92-489f-464d-9eed-54684fd47486","coordinates":[-48.649996,-27.026456]},{"id":"471c4dce-0387-4551-b76a-940b50c35bcb","title":"SC - BRUSQUE","tipo":"Cebraspe","url":"\/dashboard\/details-assets\/471c4dce-0387-4551-b76a-940b50c35bcb","coordinates":[-48.915163,-27.09831]},{"id":"795f6070-5036-45d8-9cfd-ec3c13d9adc0","title":"SC - CACADOR","tipo":"Cebraspe","url":"\/dashboard\/details-assets\/795f6070-5036-45d8-9cfd-ec3c13d9adc0","coordinates":[-51.019035,-26.775348]},{"id":"4d7b7608-24f2-472a-aa11-0d9a6a247125","title":"SC - BRACO DO NORTE","tipo":"Cebraspe","url":"\/dashboard\/details-assets\/4d7b7608-24f2-472a-aa11-0d9a6a247125","coordinates":[-49.164548,-28.280039]},{"id":"1498ccc9-e6ee-44a1-8817-52df89057731","title":"SC - BLUMENAU","tipo":"Cebraspe","url":"\/dashboard\/details-assets\/1498ccc9-e6ee-44a1-8817-52df89057731","coordinates":[-49.057631,-26.916108]},{"id":"04379f28-8d70-465b-b7b8-5d77833bbdea","title":"SC - BIGUACU","tipo":"Cebraspe","url":"\/dashboard\/details-assets\/04379f28-8d70-465b-b7b8-5d77833bbdea","coordinates":[-48.654489,-27.494323]},{"id":"5dc6f179-0e08-450a-8646-bd1aa0bfb577","title":"SC - ARARANGUA","tipo":"Cebraspe","url":"\/dashboard\/details-assets\/5dc6f179-0e08-450a-8646-bd1aa0bfb577","coordinates":[-49.492301,-28.936119]},{"id":"89ca583c-2eff-4f27-b8ee-dc97e55bf797","title":"SC - BALNEARIO CAMBORIU","tipo":"Cebraspe","url":"\/dashboard\/details-assets\/89ca583c-2eff-4f27-b8ee-dc97e55bf797","coordinates":[-48.634617,-26.991819]},{"id":"2913351d-cb8c-4530-af0b-a18974eab938","title":"RR - SAO JOAO DA BALIZA","tipo":"Cebraspe","url":"\/dashboard\/details-assets\/2913351d-cb8c-4530-af0b-a18974eab938","coordinates":[-59.906044,0.947157]},{"id":"0ff3739b-c8cf-4e0d-9f44-14d6b8836237","title":"RR - RORAINOPOLIS","tipo":"Cebraspe","url":"\/dashboard\/details-assets\/0ff3739b-c8cf-4e0d-9f44-14d6b8836237","coordinates":[-60.42506,0.937195]},{"id":"b5b6c63c-bc3d-4fe2-afc7-17b5aeb02d52","title":"RR - MUCAJAI","tipo":"Cebraspe","url":"\/dashboard\/details-assets\/b5b6c63c-bc3d-4fe2-afc7-17b5aeb02d52","coordinates":[-60.911519,2.479772]},{"id":"06861f2d-ec5c-4dad-887f-3defbb90a68c","title":"RR - CARACARAI","tipo":"Cebraspe","url":"\/dashboard\/details-assets\/06861f2d-ec5c-4dad-887f-3defbb90a68c","coordinates":[-61.149177,1.803871]},{"id":"d88135e9-724b-43b4-9296-3a1ee5a5bc86","title":"RR - BONFIM","tipo":"Cebraspe","url":"\/dashboard\/details-assets\/d88135e9-724b-43b4-9296-3a1ee5a5bc86","coordinates":[-59.835435,3.363998]},{"id":"9c8ff31a-f6a9-4de2-b185-3affdbc3597b","title":"RR - ALTO ALEGRE","tipo":"Cebraspe","url":"\/dashboard\/details-assets\/9c8ff31a-f6a9-4de2-b185-3affdbc3597b","coordinates":[-61.491959,2.908753]},{"id":"5ffe5038-f4e0-4e37-8243-cdf303decce4","title":"RR - BOA VISTA","tipo":"Cebraspe","url":"\/dashboard\/details-assets\/5ffe5038-f4e0-4e37-8243-cdf303decce4","coordinates":[-60.670533,2.816682]},{"id":"af538b5a-6bed-4b02-b188-da7e8de8dfc0","title":"RO - VILHENA","tipo":"Cebraspe","url":"\/dashboard\/details-assets\/af538b5a-6bed-4b02-b188-da7e8de8dfc0","coordinates":[-60.138584,-12.741373]},{"id":"b3d8642b-9525-4df4-9baa-0d6de8042cc8","title":"RO - SAO MIGUEL DO GUAPORE","tipo":"Cebraspe","url":"\/dashboard\/details-assets\/b3d8642b-9525-4df4-9baa-0d6de8042cc8","coordinates":[-62.714485,-11.693907]},{"id":"dc076989-e308-4c10-8036-3425cd9ff830","title":"RO - ROLIM DE MOURA","tipo":"Cebraspe","url":"\/dashboard\/details-assets\/dc076989-e308-4c10-8036-3425cd9ff830","coordinates":[-61.785781,-11.722259]},{"id":"b2c4f9bc-8dc7-41d6-8feb-5b04bb269849","title":"RO - SAO FRANCISCO DO GUAPORE","tipo":"Cebraspe","url":"\/dashboard\/details-assets\/b2c4f9bc-8dc7-41d6-8feb-5b04bb269849","coordinates":[-63.570865,-12.063798]},{"id":"ef210571-f2c8-43ae-8eac-41381273bc94","title":"RO - PRESIDENTE MEDICI","tipo":"Cebraspe","url":"\/dashboard\/details-assets\/ef210571-f2c8-43ae-8eac-41381273bc94","coordinates":[-61.909439,-11.173205]},{"id":"2dba4dd4-c339-48ac-9bf4-3199bf06b06c","title":"RO - PIMENTA BUENO","tipo":"Cebraspe","url":"\/dashboard\/details-assets\/2dba4dd4-c339-48ac-9bf4-3199bf06b06c","coordinates":[-61.183666,-11.677537]},{"id":"a2eaf279-fb7c-46b9-bdfb-0a7c0b567668","title":"RO - PORTO VELHO","tipo":"Cebraspe","url":"\/dashboard\/details-assets\/a2eaf279-fb7c-46b9-bdfb-0a7c0b567668","coordinates":[-63.831446,-8.768892]},{"id":"ad7df8e2-347e-45ae-82b4-34b0f4799fe6","title":"RO - OURO PRETO DO OESTE","tipo":"Cebraspe","url":"\/dashboard\/details-assets\/ad7df8e2-347e-45ae-82b4-34b0f4799fe6","coordinates":[-62.261055,-10.723574]},{"id":"72a62724-2e78-4c02-b1f8-01e441b2a86e","title":"RO - NOVA BRASILANDIA D OESTE","tipo":"Cebraspe","url":"\/dashboard\/details-assets\/72a62724-2e78-4c02-b1f8-01e441b2a86e","coordinates":[-62.30823,-11.721325]},{"id":"74e327c8-b5d1-4e1f-8569-7a07a8f63be5","title":"RO - MONTE NEGRO","tipo":"Cebraspe","url":"\/dashboard\/details-assets\/74e327c8-b5d1-4e1f-8569-7a07a8f63be5","coordinates":[-63.296329,-10.262018]},{"id":"d7ed008b-f8fb-4a2a-8bce-aa46c581e21a","title":"RO - MIRANTE DA SERRA","tipo":"Cebraspe","url":"\/dashboard\/details-assets\/d7ed008b-f8fb-4a2a-8bce-aa46c581e21a","coordinates":[-62.669427,-11.045609]},{"id":"ba1f88f1-8cd5-4bc1-b52d-15475fca0e17","title":"RO - MACHADINHO D OESTE","tipo":"Cebraspe","url":"\/dashboard\/details-assets\/ba1f88f1-8cd5-4bc1-b52d-15475fca0e17","coordinates":[-61.999593,-9.425562]},{"id":"72d495dc-e9f7-44d7-91da-94a88325c6d0","title":"RO - JI-PARANA","tipo":"Cebraspe","url":"\/dashboard\/details-assets\/72d495dc-e9f7-44d7-91da-94a88325c6d0","coordinates":[-61.945095,-10.882051]},{"id":"2502d5e8-6232-404f-af30-80a72708eb11","title":"RO - JARU","tipo":"Cebraspe","url":"\/dashboard\/details-assets\/2502d5e8-6232-404f-af30-80a72708eb11","coordinates":[-62.476231,-10.435949]},{"id":"172f9e8c-23be-4576-8d70-755bad355223","title":"RO - GUAJARA-MIRIM","tipo":"Cebraspe","url":"\/dashboard\/details-assets\/172f9e8c-23be-4576-8d70-755bad355223","coordinates":[-65.323952,-10.773884]},{"id":"94578442-3719-43d9-af32-8eaf30e5de74","title":"RO - COLORADO DO OESTE","tipo":"Cebraspe","url":"\/dashboard\/details-assets\/94578442-3719-43d9-af32-8eaf30e5de74","coordinates":[-60.555067,-13.130564]},{"id":"e41dcda3-513e-4ba4-9f82-70ef05b8029f","title":"RO - ESPIGAO D OESTE","tipo":"Cebraspe","url":"\/dashboard\/details-assets\/e41dcda3-513e-4ba4-9f82-70ef05b8029f","coordinates":[-61.020173,-11.528555]},{"id":"0797d8c1-137b-42c9-9458-c9b4558de0da","title":"RO - CACOAL","tipo":"Cebraspe","url":"\/dashboard\/details-assets\/0797d8c1-137b-42c9-9458-c9b4558de0da","coordinates":[-61.442944,-11.433865]},{"id":"82555058-ee71-4272-951f-749f2cb7c0c2","title":"RO - CEREJEIRAS","tipo":"Cebraspe","url":"\/dashboard\/details-assets\/82555058-ee71-4272-951f-749f2cb7c0c2","coordinates":[-60.818426,-13.195033]},{"id":"7aeb5db6-2a44-4890-a743-da8a7fafc28b","title":"RO - BURITIS","tipo":"Cebraspe","url":"\/dashboard\/details-assets\/7aeb5db6-2a44-4890-a743-da8a7fafc28b","coordinates":[-63.829679,-10.209805]},{"id":"0623f534-571f-4af6-8635-c23293f7407e","title":"RO - ALVORADA D OESTE","tipo":"Cebraspe","url":"\/dashboard\/details-assets\/0623f534-571f-4af6-8635-c23293f7407e","coordinates":[-62.28777,-11.348088]},{"id":"aab4fa2b-bd8c-4f30-b15b-56eaa4c3b4db","title":"RO - ARIQUEMES","tipo":"Cebraspe","url":"\/dashboard\/details-assets\/aab4fa2b-bd8c-4f30-b15b-56eaa4c3b4db","coordinates":[-63.033269,-9.908463]},{"id":"7db37e9e-e19b-4b28-ad56-dd88de082815","title":"RO - ALTO PARAISO","tipo":"Cebraspe","url":"\/dashboard\/details-assets\/7db37e9e-e19b-4b28-ad56-dd88de082815","coordinates":[-63.326704,-9.689614]},{"id":"bc351f0f-7ce7-4af1-810e-bd2f63504f9a","title":"RO - ALTA FLORESTA D OESTE","tipo":"Cebraspe","url":"\/dashboard\/details-assets\/bc351f0f-7ce7-4af1-810e-bd2f63504f9a","coordinates":[-61.999824,-11.93554]},{"id":"297fc2d9-a3a1-4f30-a01b-c3e7c13750b6","title":"RS - VIAMAO","tipo":"Cebraspe","url":"\/dashboard\/details-assets\/297fc2d9-a3a1-4f30-a01b-c3e7c13750b6","coordinates":[-51.098978,-30.065259]},{"id":"0aee5d57-6098-4d9d-99f5-94ca857474a1","title":"RS - VENANCIO AIRES","tipo":"Cebraspe","url":"\/dashboard\/details-assets\/0aee5d57-6098-4d9d-99f5-94ca857474a1","coordinates":[-52.19188,-29.611653]},{"id":"1b1a8b75-875e-4d07-a708-014f08fd8170","title":"RS - VERANOPOLIS","tipo":"Cebraspe","url":"\/dashboard\/details-assets\/1b1a8b75-875e-4d07-a708-014f08fd8170","coordinates":[-51.552287,-28.933957]},{"id":"dd3ccce8-388d-42c1-8371-6466d58019bb","title":"RS - VACARIA","tipo":"Cebraspe","url":"\/dashboard\/details-assets\/dd3ccce8-388d-42c1-8371-6466d58019bb","coordinates":[-50.936599,-28.502354]},{"id":"5e8b88a8-704b-445d-a786-a16826bd4a5a","title":"RS - URUGUAIANA","tipo":"Cebraspe","url":"\/dashboard\/details-assets\/5e8b88a8-704b-445d-a786-a16826bd4a5a","coordinates":[-57.085843,-29.761912]},{"id":"2508c6b0-6cae-4419-b77f-f123bf6dff66","title":"RS - TRES PASSOS","tipo":"Cebraspe","url":"\/dashboard\/details-assets\/2508c6b0-6cae-4419-b77f-f123bf6dff66","coordinates":[-53.929699,-27.45616]},{"id":"9c1404e2-2584-4c0f-bea0-77ba043ecf8a","title":"RS - TRAMANDAI","tipo":"Cebraspe","url":"\/dashboard\/details-assets\/9c1404e2-2584-4c0f-bea0-77ba043ecf8a","coordinates":[-50.130377,-29.987302]},{"id":"1b1d0220-589a-49a1-ac63-d62b1775b1b4","title":"RS - TRES DE MAIO","tipo":"Cebraspe","url":"\/dashboard\/details-assets\/1b1d0220-589a-49a1-ac63-d62b1775b1b4","coordinates":[-54.235302,-27.77966]},{"id":"65e89d77-d16c-4f4f-ba8f-74c8bdcc8a84","title":"RS - TEUTONIA","tipo":"Cebraspe","url":"\/dashboard\/details-assets\/65e89d77-d16c-4f4f-ba8f-74c8bdcc8a84","coordinates":[-51.812817,-29.488914]},{"id":"8c1e8b0f-af85-4467-958b-a4c45154ecfa","title":"RS - TORRES","tipo":"Cebraspe","url":"\/dashboard\/details-assets\/8c1e8b0f-af85-4467-958b-a4c45154ecfa","coordinates":[-49.730404,-29.335931]},{"id":"0132ebaf-2b2b-477d-80bd-f569f903550c","title":"RS - TAQUARA","tipo":"Cebraspe","url":"\/dashboard\/details-assets\/0132ebaf-2b2b-477d-80bd-f569f903550c","coordinates":[-50.781169,-29.650513]},{"id":"a424d223-b67e-45c7-91f5-8dcee4f178a9","title":"RS - TAQUARI","tipo":"Cebraspe","url":"\/dashboard\/details-assets\/a424d223-b67e-45c7-91f5-8dcee4f178a9","coordinates":[-51.862776,-29.802801]},{"id":"ac43473e-0a54-411c-b99a-75b4a2ec8215","title":"RS - TAPEJARA","tipo":"Cebraspe","url":"\/dashboard\/details-assets\/ac43473e-0a54-411c-b99a-75b4a2ec8215","coordinates":[-52.022133,-28.084171]},{"id":"4064715e-7400-4cd1-a953-b17456a1531e","title":"RS - SOLEDADE","tipo":"Cebraspe","url":"\/dashboard\/details-assets\/4064715e-7400-4cd1-a953-b17456a1531e","coordinates":[-52.509866,-28.827738]},{"id":"29247810-4a85-48eb-bd36-d52cd81b264b","title":"RS - SOBRADINHO","tipo":"Cebraspe","url":"\/dashboard\/details-assets\/29247810-4a85-48eb-bd36-d52cd81b264b","coordinates":[-53.024918,-29.413061]},{"id":"50d7f6f9-6385-41f6-8960-63b83ff615e9","title":"RS - SARANDI","tipo":"Cebraspe","url":"\/dashboard\/details-assets\/50d7f6f9-6385-41f6-8960-63b83ff615e9","coordinates":[-52.923996,-27.931934]},{"id":"29baeccc-0fa8-4e4b-a483-529592e90063","title":"RS - SAPUCAIA DO SUL","tipo":"Cebraspe","url":"\/dashboard\/details-assets\/29baeccc-0fa8-4e4b-a483-529592e90063","coordinates":[-51.151875,-29.824868]},{"id":"5a77e280-5e0f-4dbd-8519-06eba2e99e64","title":"RS - SAO VICENTE DO SUL","tipo":"Cebraspe","url":"\/dashboard\/details-assets\/5a77e280-5e0f-4dbd-8519-06eba2e99e64","coordinates":[-54.676002,-29.692061]},{"id":"44241c23-54c6-40aa-8909-64b4605802d7","title":"RS - SAPIRANGA","tipo":"Cebraspe","url":"\/dashboard\/details-assets\/44241c23-54c6-40aa-8909-64b4605802d7","coordinates":[-51.003623,-29.638554]},{"id":"73a8ff45-9871-4ba2-b02b-013159f3b948","title":"RS - SAO SEPE","tipo":"Cebraspe","url":"\/dashboard\/details-assets\/73a8ff45-9871-4ba2-b02b-013159f3b948","coordinates":[-53.571821,-30.163989]},{"id":"1a6a6240-2b51-4ad1-b59b-05919e64cc96","title":"RS - SAO MARCOS","tipo":"Cebraspe","url":"\/dashboard\/details-assets\/1a6a6240-2b51-4ad1-b59b-05919e64cc96","coordinates":[-51.066707,-28.969849]},{"id":"6eb563bd-0de0-42e3-bc5c-80ddb5cb75ba","title":"RS - SAO LUIZ GONZAGA","tipo":"Cebraspe","url":"\/dashboard\/details-assets\/6eb563bd-0de0-42e3-bc5c-80ddb5cb75ba","coordinates":[-54.95966,-28.406647]},{"id":"7163e3c1-5c5f-4284-9805-3554f576eb16","title":"RS - SAO LOURENCO DO SUL","tipo":"Cebraspe","url":"\/dashboard\/details-assets\/7163e3c1-5c5f-4284-9805-3554f576eb16","coordinates":[-51.976915,-31.364024]},{"id":"bd720a37-1bf1-4c69-a28d-7f5c2aec67da","title":"RS - SAO LEOPOLDO","tipo":"Cebraspe","url":"\/dashboard\/details-assets\/bd720a37-1bf1-4c69-a28d-7f5c2aec67da","coordinates":[-51.146235,-29.765867]},{"id":"aa5d69a4-9e1f-4add-a5d8-87af8208d5b9","title":"RS - SAO JOSE DO NORTE","tipo":"Cebraspe","url":"\/dashboard\/details-assets\/aa5d69a4-9e1f-4add-a5d8-87af8208d5b9","coordinates":[-52.034202,-32.020609]},{"id":"31a4e6ac-acea-4f3c-8301-56d3fdd3643b","title":"RS - SAO JERONIMO","tipo":"Cebraspe","url":"\/dashboard\/details-assets\/31a4e6ac-acea-4f3c-8301-56d3fdd3643b","coordinates":[-51.725011,-29.962127]},{"id":"a5746315-9d39-4481-aca4-b1deac3400ad","title":"RS - SAO BORJA","tipo":"Cebraspe","url":"\/dashboard\/details-assets\/a5746315-9d39-4481-aca4-b1deac3400ad","coordinates":[-53.77626,-27.843667]},{"id":"7f0dfc3e-b3bb-4eed-a4f5-7ea253a91b66","title":"RS - SAO GABRIEL","tipo":"Cebraspe","url":"\/dashboard\/details-assets\/7f0dfc3e-b3bb-4eed-a4f5-7ea253a91b66","coordinates":[-54.320478,-30.33676]},{"id":"30048a8a-6492-4386-bb3a-dfcf01bfcbcd","title":"RS - SANTO ANTONIO DA PATRULHA","tipo":"Cebraspe","url":"\/dashboard\/details-assets\/30048a8a-6492-4386-bb3a-dfcf01bfcbcd","coordinates":[-50.520986,-29.832034]},{"id":"73b6982e-d42b-4817-9a2d-b0a83c740a94","title":"RS - SANTO ANGELO","tipo":"Cebraspe","url":"\/dashboard\/details-assets\/73b6982e-d42b-4817-9a2d-b0a83c740a94","coordinates":[-54.264143,-28.301938]},{"id":"716c1993-6370-4cc4-b9fa-1926999e94a5","title":"RS - SANTA VITORIA DO PALMAR","tipo":"Cebraspe","url":"\/dashboard\/details-assets\/716c1993-6370-4cc4-b9fa-1926999e94a5","coordinates":[-53.366482,-33.521563]},{"id":"239140ac-9383-4dee-864c-b06874f35de7","title":"RS - SANTIAGO","tipo":"Cebraspe","url":"\/dashboard\/details-assets\/239140ac-9383-4dee-864c-b06874f35de7","coordinates":[-54.869076,-29.19146]},{"id":"7f3f85cb-87e2-4ce3-b046-cac66699b1b0","title":"RS - SANTA ROSA","tipo":"Cebraspe","url":"\/dashboard\/details-assets\/7f3f85cb-87e2-4ce3-b046-cac66699b1b0","coordinates":[-54.480156,-27.870682]},{"id":"b7ee1ea5-99b0-4c54-935f-2727d9d5ff0d","title":"RS - SANTA CRUZ DO SUL","tipo":"Cebraspe","url":"\/dashboard\/details-assets\/b7ee1ea5-99b0-4c54-935f-2727d9d5ff0d","coordinates":[-52.434838,-29.722516]},{"id":"b8003c34-8a93-41d7-954a-01b16f92ffc2","title":"RS - SANTA MARIA","tipo":"Cebraspe","url":"\/dashboard\/details-assets\/b8003c34-8a93-41d7-954a-01b16f92ffc2","coordinates":[-53.809876,-29.690439]},{"id":"9caf8c1a-fe77-4c9b-8676-b2126d39704a","title":"RS - SANT ANA DO LIVRAMENTO","tipo":"Cebraspe","url":"\/dashboard\/details-assets\/9caf8c1a-fe77-4c9b-8676-b2126d39704a","coordinates":[-55.53923,-30.877285]},{"id":"442e0186-c31c-483f-b234-5230b883e4d7","title":"RS - ROSARIO DO SUL","tipo":"Cebraspe","url":"\/dashboard\/details-assets\/442e0186-c31c-483f-b234-5230b883e4d7","coordinates":[-54.945761,-30.244033]},{"id":"f3e374f9-4c65-49a6-9038-7bde7477fe55","title":"RS - RIO PARDO","tipo":"Cebraspe","url":"\/dashboard\/details-assets\/f3e374f9-4c65-49a6-9038-7bde7477fe55","coordinates":[-52.379018,-29.985626]},{"id":"2eda2930-5b7c-44c6-8ba9-6257bc030bae","title":"RS - QUARAI","tipo":"Cebraspe","url":"\/dashboard\/details-assets\/2eda2930-5b7c-44c6-8ba9-6257bc030bae","coordinates":[-56.448809,-30.384513]},{"id":"ab5531ad-50c5-4a57-8cfa-0128f4ccb829","title":"RS - RIO GRANDE","tipo":"Cebraspe","url":"\/dashboard\/details-assets\/ab5531ad-50c5-4a57-8cfa-0128f4ccb829","coordinates":[-52.08677,-32.050446]},{"id":"3bb6c01a-26e5-4d0e-a6db-9dfdf445968f","title":"RS - PIRATINI","tipo":"Cebraspe","url":"\/dashboard\/details-assets\/3bb6c01a-26e5-4d0e-a6db-9dfdf445968f","coordinates":[-53.097831,-31.447788]},{"id":"22405445-f78b-40f3-9441-ff45f5844c1b","title":"RS - PORTO ALEGRE","tipo":"Cebraspe","url":"\/dashboard\/details-assets\/22405445-f78b-40f3-9441-ff45f5844c1b","coordinates":[-51.217658,-30.034647]},{"id":"197a99b5-cdc9-4d26-b9a7-cc2e4da355af","title":"RS - PELOTAS","tipo":"Cebraspe","url":"\/dashboard\/details-assets\/197a99b5-cdc9-4d26-b9a7-cc2e4da355af","coordinates":[-52.34432,-31.749965]},{"id":"7ba8dbb6-048f-4d7a-ac27-6a881bf06a75","title":"RS - PASSO FUNDO","tipo":"Cebraspe","url":"\/dashboard\/details-assets\/7ba8dbb6-048f-4d7a-ac27-6a881bf06a75","coordinates":[-52.407095,-28.261767]},{"id":"474c9e94-7253-44d9-8727-54bcae62ae5f","title":"RS - PAROBE","tipo":"Cebraspe","url":"\/dashboard\/details-assets\/474c9e94-7253-44d9-8727-54bcae62ae5f","coordinates":[-50.834866,-29.631749]},{"id":"2d4dd0bc-78c8-4eff-a9db-14e556db9c9d","title":"RS - PALMEIRA DAS MISSOES","tipo":"Cebraspe","url":"\/dashboard\/details-assets\/2d4dd0bc-78c8-4eff-a9db-14e556db9c9d","coordinates":[-53.314954,-27.900621]},{"id":"0e80ecfe-2026-466e-8f04-42d0390dc2b6","title":"RS - PANAMBI","tipo":"Cebraspe","url":"\/dashboard\/details-assets\/0e80ecfe-2026-466e-8f04-42d0390dc2b6","coordinates":[-53.500265,-28.292731]},{"id":"a5184d5f-6995-4d97-a41e-1191479451cb","title":"RS - OSORIO","tipo":"Cebraspe","url":"\/dashboard\/details-assets\/a5184d5f-6995-4d97-a41e-1191479451cb","coordinates":[-50.266798,-29.892697]},{"id":"4fcb0aa2-bf58-43e6-bec5-e31f6aa9f731","title":"RS - NOVO HAMBURGO","tipo":"Cebraspe","url":"\/dashboard\/details-assets\/4fcb0aa2-bf58-43e6-bec5-e31f6aa9f731","coordinates":[-51.12557,-29.691899]},{"id":"cabce288-d7b5-4542-8311-78ba15157788","title":"RS - NOVA PRATA","tipo":"Cebraspe","url":"\/dashboard\/details-assets\/cabce288-d7b5-4542-8311-78ba15157788","coordinates":[-51.608996,-28.783945]},{"id":"f8434e8b-dcd5-422d-90da-9ac077277fa8","title":"RS - NOVA PETROPOLIS","tipo":"Cebraspe","url":"\/dashboard\/details-assets\/f8434e8b-dcd5-422d-90da-9ac077277fa8","coordinates":[-51.111287,-29.375634]},{"id":"dc7b4dcd-e741-4a02-abd1-f5bea474a14b","title":"RS - MOSTARDAS","tipo":"Cebraspe","url":"\/dashboard\/details-assets\/dc7b4dcd-e741-4a02-abd1-f5bea474a14b","coordinates":[-50.919159,-31.108225]},{"id":"d7d17fb0-ad03-47f3-9d40-930348f9ee37","title":"RS - MONTENEGRO","tipo":"Cebraspe","url":"\/dashboard\/details-assets\/d7d17fb0-ad03-47f3-9d40-930348f9ee37","coordinates":[-51.461299,-29.688119]},{"id":"7e4c71af-e180-4b3e-8c5f-bb67e71da384","title":"RS - MARAU","tipo":"Cebraspe","url":"\/dashboard\/details-assets\/7e4c71af-e180-4b3e-8c5f-bb67e71da384","coordinates":[-52.196777,-28.448454]},{"id":"f02d3412-cada-4cfd-9067-77baa78a9dd0","title":"RS - MACHADINHO","tipo":"Cebraspe","url":"\/dashboard\/details-assets\/f02d3412-cada-4cfd-9067-77baa78a9dd0","coordinates":[-51.667507,-27.56814]},{"id":"e763f419-33d1-4082-98f0-d92b8c147273","title":"RS - LAGOA VERMELHA","tipo":"Cebraspe","url":"\/dashboard\/details-assets\/e763f419-33d1-4082-98f0-d92b8c147273","coordinates":[-51.527229,-28.20887]},{"id":"286befe4-f341-43db-866f-adae37b4dcc6","title":"RS - LAJEADO","tipo":"Cebraspe","url":"\/dashboard\/details-assets\/286befe4-f341-43db-866f-adae37b4dcc6","coordinates":[-51.967828,-29.465454]},{"id":"781ea0b9-bf45-4eb8-ab92-671c5135ff97","title":"RS - JAGUARAO","tipo":"Cebraspe","url":"\/dashboard\/details-assets\/781ea0b9-bf45-4eb8-ab92-671c5135ff97","coordinates":[-53.377523,-32.563569]},{"id":"7debd899-5622-41e1-8732-7b4a8859598c","title":"RS - JULIO DE CASTILHOS","tipo":"Cebraspe","url":"\/dashboard\/details-assets\/7debd899-5622-41e1-8732-7b4a8859598c","coordinates":[-53.6831,-29.226449]},{"id":"8a2e790a-2684-44d1-bf3a-339766e86fc3","title":"RS - ITAQUI","tipo":"Cebraspe","url":"\/dashboard\/details-assets\/8a2e790a-2684-44d1-bf3a-339766e86fc3","coordinates":[-56.557133,-29.128637]},{"id":"764c4af0-24fb-4572-af2b-e6a9328832d9","title":"RS - IVOTI","tipo":"Cebraspe","url":"\/dashboard\/details-assets\/764c4af0-24fb-4572-af2b-e6a9328832d9","coordinates":[-51.159574,-29.594157]},{"id":"f8ad3db6-e2f6-4740-96dc-c7bcdf0fb7ce","title":"RS - IJUI","tipo":"Cebraspe","url":"\/dashboard\/details-assets\/f8ad3db6-e2f6-4740-96dc-c7bcdf0fb7ce","coordinates":[-53.918067,-28.388537]},{"id":"eb8a297e-f268-4b8f-a5ba-c0b6111b0893","title":"RS - IMBE","tipo":"Cebraspe","url":"\/dashboard\/details-assets\/eb8a297e-f268-4b8f-a5ba-c0b6111b0893","coordinates":[-50.13058,-29.974778]},{"id":"3ed42335-bb74-43fa-b4c1-24b0820f1015","title":"RS - IGREJINHA","tipo":"Cebraspe","url":"\/dashboard\/details-assets\/3ed42335-bb74-43fa-b4c1-24b0820f1015","coordinates":[-50.798711,-29.57222]},{"id":"e45a8af6-a9ee-4c2b-8d50-f8e4a3a51b05","title":"RS - HORIZONTINA","tipo":"Cebraspe","url":"\/dashboard\/details-assets\/e45a8af6-a9ee-4c2b-8d50-f8e4a3a51b05","coordinates":[-54.308792,-27.630097]},{"id":"3772c734-78c7-4ca0-8439-6ec3a4fc4da5","title":"RS - GUAPORE","tipo":"Cebraspe","url":"\/dashboard\/details-assets\/3772c734-78c7-4ca0-8439-6ec3a4fc4da5","coordinates":[-51.890651,-28.849134]},{"id":"3904dab5-5fd0-42e9-91c7-314839863203","title":"RS - GRAVATAI","tipo":"Cebraspe","url":"\/dashboard\/details-assets\/3904dab5-5fd0-42e9-91c7-314839863203","coordinates":[-50.990793,-29.945519]},{"id":"7fe01b8b-44e9-48f0-beaf-92b8f23bdc6e","title":"RS - GUAIBA","tipo":"Cebraspe","url":"\/dashboard\/details-assets\/7fe01b8b-44e9-48f0-beaf-92b8f23bdc6e","coordinates":[-51.314684,-30.108602]},{"id":"4b46f260-da7b-4f52-88c7-ef606c6aaf78","title":"RS - GETULIO VARGAS","tipo":"Cebraspe","url":"\/dashboard\/details-assets\/4b46f260-da7b-4f52-88c7-ef606c6aaf78","coordinates":[-52.249574,-27.875912]},{"id":"16f1dd77-6857-4b30-8766-b3948e3c7ac7","title":"RS - GIRUA","tipo":"Cebraspe","url":"\/dashboard\/details-assets\/16f1dd77-6857-4b30-8766-b3948e3c7ac7","coordinates":[-54.35084,-28.029744]},{"id":"7c3fd797-2ffc-4031-9604-ce9f3848c371","title":"RS - FREDERICO WESTPHALEN","tipo":"Cebraspe","url":"\/dashboard\/details-assets\/7c3fd797-2ffc-4031-9604-ce9f3848c371","coordinates":[-53.400777,-27.358882]},{"id":"92fbf539-1dd5-4285-8879-762499d8d4d0","title":"RS - GARIBALDI","tipo":"Cebraspe","url":"\/dashboard\/details-assets\/92fbf539-1dd5-4285-8879-762499d8d4d0","coordinates":[-51.529548,-29.254549]},{"id":"ca06ed27-6d01-4a4e-bfe5-a7c4ceb769a5","title":"RS - FARROUPILHA","tipo":"Cebraspe","url":"\/dashboard\/details-assets\/ca06ed27-6d01-4a4e-bfe5-a7c4ceb769a5","coordinates":[-51.34835,-29.223679]},{"id":"65281c52-5e2e-4f3c-9bc8-d7728138ea0e","title":"RS - ESTRELA","tipo":"Cebraspe","url":"\/dashboard\/details-assets\/65281c52-5e2e-4f3c-9bc8-d7728138ea0e","coordinates":[-51.97026,-29.503472]},{"id":"d05be79f-f438-41c3-86ba-c1c01bb1c909","title":"RS - ESTEIO","tipo":"Cebraspe","url":"\/dashboard\/details-assets\/d05be79f-f438-41c3-86ba-c1c01bb1c909","coordinates":[-51.183662,-29.84623]},{"id":"7f7e466c-2f21-4035-9551-7bd8673f47cd","title":"RS - ESPUMOSO","tipo":"Cebraspe","url":"\/dashboard\/details-assets\/7f7e466c-2f21-4035-9551-7bd8673f47cd","coordinates":[-52.841927,-28.731445]},{"id":"0444bb40-1bd7-4a91-915d-40fb4053bfe9","title":"RS - ESTANCIA VELHA","tipo":"Cebraspe","url":"\/dashboard\/details-assets\/0444bb40-1bd7-4a91-915d-40fb4053bfe9","coordinates":[-51.174294,-29.650148]},{"id":"8c6e71ae-bfa4-4bc5-ad07-2dd1b1c53bba","title":"RS - ERECHIM","tipo":"Cebraspe","url":"\/dashboard\/details-assets\/8c6e71ae-bfa4-4bc5-ad07-2dd1b1c53bba","coordinates":[-52.275877,-27.633406]},{"id":"13776e6b-e258-469e-a7c3-4edb8a502040","title":"RS - ENCRUZILHADA DO SUL","tipo":"Cebraspe","url":"\/dashboard\/details-assets\/13776e6b-e258-469e-a7c3-4edb8a502040","coordinates":[-52.522045,-30.543657]},{"id":"0ded47d0-ccb4-4753-a3ba-ed7d2cfc6287","title":"RS - ENCANTADO","tipo":"Cebraspe","url":"\/dashboard\/details-assets\/0ded47d0-ccb4-4753-a3ba-ed7d2cfc6287","coordinates":[-51.873023,-29.239917]},{"id":"ae0dd2a5-69ce-491c-9848-0d89af685b15","title":"RS - ELDORADO DO SUL","tipo":"Cebraspe","url":"\/dashboard\/details-assets\/ae0dd2a5-69ce-491c-9848-0d89af685b15","coordinates":[-51.310419,-29.999293]},{"id":"8a678b45-84ac-4be9-90d8-a2335e7d7de9","title":"RS - DOM PEDRITO","tipo":"Cebraspe","url":"\/dashboard\/details-assets\/8a678b45-84ac-4be9-90d8-a2335e7d7de9","coordinates":[-54.67413,-30.981267]},{"id":"1a19bb1f-9105-4ab7-a05b-91b5aaacce66","title":"RS - CRUZ ALTA","tipo":"Cebraspe","url":"\/dashboard\/details-assets\/1a19bb1f-9105-4ab7-a05b-91b5aaacce66","coordinates":[-53.605355,-28.645488]},{"id":"a208561c-e447-4e1a-a770-c1429ea4e58c","title":"RS - DOIS IRMAOS","tipo":"Cebraspe","url":"\/dashboard\/details-assets\/a208561c-e447-4e1a-a770-c1429ea4e58c","coordinates":[-51.087619,-29.584159]},{"id":"cc4c5067-164e-44fd-ace4-d7d8728e90ee","title":"RS - CHARQUEADAS","tipo":"Cebraspe","url":"\/dashboard\/details-assets\/cc4c5067-164e-44fd-ace4-d7d8728e90ee","coordinates":[-51.625006,-29.9568]},{"id":"431fce26-3591-42d9-a80b-9e7f9918f343","title":"RS - CERRO LARGO","tipo":"Cebraspe","url":"\/dashboard\/details-assets\/431fce26-3591-42d9-a80b-9e7f9918f343","coordinates":[-54.739997,-28.147841]},{"id":"f201803c-3a5d-4a84-98e2-852e0f096937","title":"RS - CAXIAS DO SUL","tipo":"Cebraspe","url":"\/dashboard\/details-assets\/f201803c-3a5d-4a84-98e2-852e0f096937","coordinates":[-51.17886,-29.166899]},{"id":"65a3958b-2efb-452d-addc-3f080f4528b0","title":"RS - CARLOS BARBOSA","tipo":"Cebraspe","url":"\/dashboard\/details-assets\/65a3958b-2efb-452d-addc-3f080f4528b0","coordinates":[-51.503818,-29.298297]},{"id":"e241e824-788d-4e75-99d0-696dd3c94ad9","title":"RS - CARAZINHO","tipo":"Cebraspe","url":"\/dashboard\/details-assets\/e241e824-788d-4e75-99d0-696dd3c94ad9","coordinates":[-52.791897,-28.286511]},{"id":"389b7e39-def5-47b7-a8ad-baf702b801c5","title":"RS - CAPAO DA CANOA","tipo":"Cebraspe","url":"\/dashboard\/details-assets\/389b7e39-def5-47b7-a8ad-baf702b801c5","coordinates":[-50.020022,-29.761467]},{"id":"42d3b49e-a32c-4a75-8f49-0ffbc22e1f86","title":"RS - CAPAO DO LEAO","tipo":"Cebraspe","url":"\/dashboard\/details-assets\/42d3b49e-a32c-4a75-8f49-0ffbc22e1f86","coordinates":[-52.487008,-31.766839]},{"id":"71ffb495-a380-4bba-a688-d6dcef6f6d84","title":"RS - CANOAS","tipo":"Cebraspe","url":"\/dashboard\/details-assets\/71ffb495-a380-4bba-a688-d6dcef6f6d84","coordinates":[-51.18103,-29.918697]},{"id":"728930b6-0150-48b0-882f-37709853d648","title":"RS - CANGUCU","tipo":"Cebraspe","url":"\/dashboard\/details-assets\/728930b6-0150-48b0-882f-37709853d648","coordinates":[-52.676286,-31.39386]},{"id":"fd68a78d-734f-46b4-9f86-da3f4ad85fa8","title":"RS - CANELA","tipo":"Cebraspe","url":"\/dashboard\/details-assets\/fd68a78d-734f-46b4-9f86-da3f4ad85fa8","coordinates":[-50.814867,-29.357972]},{"id":"3d1b21dc-e46e-4077-84da-abbeb8e4630e","title":"RS - CAMAQUA","tipo":"Cebraspe","url":"\/dashboard\/details-assets\/3d1b21dc-e46e-4077-84da-abbeb8e4630e","coordinates":[-51.814601,-30.850704]},{"id":"18234784-6cd4-4f8b-a6be-7ab47061b915","title":"RS - CAMPO BOM","tipo":"Cebraspe","url":"\/dashboard\/details-assets\/18234784-6cd4-4f8b-a6be-7ab47061b915","coordinates":[-51.05887,-29.675685]},{"id":"8d2c4b92-7545-48e3-ad60-d9bbef4409cd","title":"RS - CACHOEIRINHA","tipo":"Cebraspe","url":"\/dashboard\/details-assets\/8d2c4b92-7545-48e3-ad60-d9bbef4409cd","coordinates":[-51.093677,-29.950629]},{"id":"47c1e6fb-17ef-4a77-a288-9508cb660404","title":"RS - CACHOEIRA DO SUL","tipo":"Cebraspe","url":"\/dashboard\/details-assets\/47c1e6fb-17ef-4a77-a288-9508cb660404","coordinates":[-52.893413,-30.04582]},{"id":"14e02b05-edde-40fe-a42e-2a4d92f9a011","title":"RS - CACAPAVA DO SUL","tipo":"Cebraspe","url":"\/dashboard\/details-assets\/14e02b05-edde-40fe-a42e-2a4d92f9a011","coordinates":[-53.487569,-30.514743]},{"id":"c73a15ed-fb73-46c3-a662-6d2c8eda5b36","title":"RS - BENTO GONCALVES","tipo":"Cebraspe","url":"\/dashboard\/details-assets\/c73a15ed-fb73-46c3-a662-6d2c8eda5b36","coordinates":[-51.51556,-29.167402]},{"id":"16b48982-592e-494e-8e1e-38179e8145ec","title":"RS - BUTIA","tipo":"Cebraspe","url":"\/dashboard\/details-assets\/16b48982-592e-494e-8e1e-38179e8145ec","coordinates":[-51.961483,-30.116144]},{"id":"3968e777-bd5a-434a-bd7b-0c8899f67313","title":"RS - BAGE","tipo":"Cebraspe","url":"\/dashboard\/details-assets\/3968e777-bd5a-434a-bd7b-0c8899f67313","coordinates":[-54.107083,-31.330502]},{"id":"f1070ea8-5f15-4520-990a-ffc5a4f800cb","title":"RS - ARROIO GRANDE","tipo":"Cebraspe","url":"\/dashboard\/details-assets\/f1070ea8-5f15-4520-990a-ffc5a4f800cb","coordinates":[-53.086694,-32.233155]},{"id":"d0040574-cffe-47cf-bc0b-62cbc141f017","title":"RS - ALVORADA","tipo":"Cebraspe","url":"\/dashboard\/details-assets\/d0040574-cffe-47cf-bc0b-62cbc141f017","coordinates":[-51.077729,-29.997493]},{"id":"50632e22-7e9e-417c-a65e-db67fa838188","title":"RS - ARROIO DO MEIO","tipo":"Cebraspe","url":"\/dashboard\/details-assets\/50632e22-7e9e-417c-a65e-db67fa838188","coordinates":[-51.947449,-29.398891]},{"id":"bfdfbe6e-c403-4e2d-8c09-533580567cd6","title":"RS - ALEGRETE","tipo":"Cebraspe","url":"\/dashboard\/details-assets\/bfdfbe6e-c403-4e2d-8c09-533580567cd6","coordinates":[-55.779303,-29.766027]},{"id":"f79145e7-b4c7-4ba2-838e-228e3e033db4","title":"RN - VERA CRUZ","tipo":"Cebraspe","url":"\/dashboard\/details-assets\/f79145e7-b4c7-4ba2-838e-228e3e033db4","coordinates":[-35.427185,-6.037456]},{"id":"71634648-26d2-4aa1-a0f6-41b03dfc5213","title":"RN - UMARIZAL","tipo":"Cebraspe","url":"\/dashboard\/details-assets\/71634648-26d2-4aa1-a0f6-41b03dfc5213","coordinates":[-37.813258,-5.989902]},{"id":"158f5803-1c4c-4388-a072-4694a97a22a8","title":"RN - TIBAU","tipo":"Cebraspe","url":"\/dashboard\/details-assets\/158f5803-1c4c-4388-a072-4694a97a22a8","coordinates":[-37.251303,-4.841437]},{"id":"60f0f2c4-8bc8-4cdc-913e-e47caf88c3b8","title":"RN - TOUROS","tipo":"Cebraspe","url":"\/dashboard\/details-assets\/60f0f2c4-8bc8-4cdc-913e-e47caf88c3b8","coordinates":[-35.455293,-5.202607]},{"id":"fa030d7f-9236-4d2d-9a86-c23600313031","title":"RN - SAO JOSE DE MIPIBU","tipo":"Cebraspe","url":"\/dashboard\/details-assets\/fa030d7f-9236-4d2d-9a86-c23600313031","coordinates":[-35.240275,-6.070466]},{"id":"4279acb0-d4eb-4442-97ef-d98224675c3b","title":"RN - SAO MIGUEL","tipo":"Cebraspe","url":"\/dashboard\/details-assets\/4279acb0-d4eb-4442-97ef-d98224675c3b","coordinates":[-38.496344,-6.212343]},{"id":"7201dac3-899c-42c9-ad7a-cb0137ed0ebd","title":"RN - SAO GONCALO DO AMARANTE","tipo":"Cebraspe","url":"\/dashboard\/details-assets\/7201dac3-899c-42c9-ad7a-cb0137ed0ebd","coordinates":[-35.331156,-5.789556]},{"id":"7fa90d04-8f63-4423-b66a-b3d8c6cb0359","title":"RN - SANTO ANTONIO","tipo":"Cebraspe","url":"\/dashboard\/details-assets\/7fa90d04-8f63-4423-b66a-b3d8c6cb0359","coordinates":[-35.475137,-6.305174]},{"id":"29c59bce-45b8-4f28-9993-9b6e695ca129","title":"RN - PORTALEGRE","tipo":"Cebraspe","url":"\/dashboard\/details-assets\/29c59bce-45b8-4f28-9993-9b6e695ca129","coordinates":[-37.983146,-6.021181]},{"id":"ed010904-1019-45ee-887c-d140e0f2cc94","title":"RN - SANTA CRUZ","tipo":"Cebraspe","url":"\/dashboard\/details-assets\/ed010904-1019-45ee-887c-d140e0f2cc94","coordinates":[-40.337688,-8.237961]},{"id":"d5214f35-a7ac-47d1-b3ca-2654980b52b3","title":"RN - PAU DOS FERROS","tipo":"Cebraspe","url":"\/dashboard\/details-assets\/d5214f35-a7ac-47d1-b3ca-2654980b52b3","coordinates":[-38.203262,-6.114732]},{"id":"e8814cb2-a905-45f2-b143-c88625223f66","title":"RN - PATU","tipo":"Cebraspe","url":"\/dashboard\/details-assets\/e8814cb2-a905-45f2-b143-c88625223f66","coordinates":[-37.640102,-6.101532]},{"id":"a690a900-8221-4e4d-828c-4504923cb435","title":"RN - PARNAMIRIM","tipo":"Cebraspe","url":"\/dashboard\/details-assets\/a690a900-8221-4e4d-828c-4504923cb435","coordinates":[-39.575787,-8.090138]},{"id":"ed96984a-0cc9-4748-a786-a749e5af0824","title":"RN - NOVA CRUZ","tipo":"Cebraspe","url":"\/dashboard\/details-assets\/ed96984a-0cc9-4748-a786-a749e5af0824","coordinates":[-35.4323,-6.480065]},{"id":"d5767383-287e-4546-99a8-51754994add6","title":"RN - PARELHAS","tipo":"Cebraspe","url":"\/dashboard\/details-assets\/d5767383-287e-4546-99a8-51754994add6","coordinates":[-36.657805,-6.688755]},{"id":"5448cf1a-d781-481b-b67b-9b24880c9cde","title":"RN - NATAL","tipo":"Cebraspe","url":"\/dashboard\/details-assets\/5448cf1a-d781-481b-b67b-9b24880c9cde","coordinates":[-35.215863,-5.79872]},{"id":"ba3b50d2-61a6-4b06-9c6d-d94a844dd2c0","title":"RN - NISIA FLORESTA","tipo":"Cebraspe","url":"\/dashboard\/details-assets\/ba3b50d2-61a6-4b06-9c6d-d94a844dd2c0","coordinates":[-35.21131,-6.090714]},{"id":"77bcab75-017e-497d-b0e1-ebf19a3d72dd","title":"RN - MOSSORO","tipo":"Cebraspe","url":"\/dashboard\/details-assets\/77bcab75-017e-497d-b0e1-ebf19a3d72dd","coordinates":[-37.356874,-5.193801]},{"id":"3678048d-082a-4d5f-b0f5-345d6af02c74","title":"RN - MACAU","tipo":"Cebraspe","url":"\/dashboard\/details-assets\/3678048d-082a-4d5f-b0f5-345d6af02c74","coordinates":[-36.634973,-5.113368]},{"id":"2c106b14-5160-4048-92ff-88933c32d2bf","title":"RN - MACAIBA","tipo":"Cebraspe","url":"\/dashboard\/details-assets\/2c106b14-5160-4048-92ff-88933c32d2bf","coordinates":[-35.355237,-5.857237]},{"id":"7bb52ca3-65ce-418e-a0ad-b3424d0b3547","title":"RN - LUIS GOMES","tipo":"Cebraspe","url":"\/dashboard\/details-assets\/7bb52ca3-65ce-418e-a0ad-b3424d0b3547","coordinates":[-38.38642,-6.414028]},{"id":"c795ef40-16aa-4bf0-873c-adfa51622363","title":"RN - JUCURUTU","tipo":"Cebraspe","url":"\/dashboard\/details-assets\/c795ef40-16aa-4bf0-873c-adfa51622363","coordinates":[-37.020226,-6.033419]},{"id":"0aadcc4f-836a-4e94-8c8b-b42b8f0441b4","title":"RN - JARDIM DE PIRANHAS","tipo":"Cebraspe","url":"\/dashboard\/details-assets\/0aadcc4f-836a-4e94-8c8b-b42b8f0441b4","coordinates":[-37.349218,-6.380098]},{"id":"4aefc222-719b-488a-8b87-10c46ae2d9d9","title":"RN - JOAO CAMARA","tipo":"Cebraspe","url":"\/dashboard\/details-assets\/4aefc222-719b-488a-8b87-10c46ae2d9d9","coordinates":[-35.816788,-5.538423]},{"id":"3c223629-75a4-4173-a222-259f4dc0c147","title":"RN - IPANGUACU","tipo":"Cebraspe","url":"\/dashboard\/details-assets\/3c223629-75a4-4173-a222-259f4dc0c147","coordinates":[-36.322497,-5.106585]},