[{"id":"abb95089-32d6-48d2-ad39-659edf86b1d2","title":"TO - PALMAS","tipo":"Cebraspe","url":"\/dashboard\/details-assets\/abb95089-32d6-48d2-ad39-659edf86b1d2","coordinates":[-48.317036,-10.230299]},{"id":"ef084c72-9dab-4e85-afe0-866c26751add","title":"SP - SAO PAULO","tipo":"Cebraspe","url":"\/dashboard\/details-assets\/ef084c72-9dab-4e85-afe0-866c26751add","coordinates":[-46.570383,-23.567386]},{"id":"886726da-65b9-4aac-aa1b-81493589d84d","title":"SP - SAO JOSE DOS CAMPOS","tipo":"Cebraspe","url":"\/dashboard\/details-assets\/886726da-65b9-4aac-aa1b-81493589d84d","coordinates":[-45.899405,-23.23021]},{"id":"bad79975-c432-491e-8866-9499e635311c","title":"SP - SAO CARLOS","tipo":"Cebraspe","url":"\/dashboard\/details-assets\/bad79975-c432-491e-8866-9499e635311c","coordinates":[-53.017394,-27.078635]},{"id":"0017ed91-72bd-4bde-bdb2-cc0fbe9263a9","title":"SE - SAO CRISTOVAO","tipo":"Cebraspe","url":"\/dashboard\/details-assets\/0017ed91-72bd-4bde-bdb2-cc0fbe9263a9","coordinates":[-37.205934,-11.012236]},{"id":"83ee9c5b-d9f9-4e47-b8e2-4adf9d848cce","title":"SP - SANTO ANDRE","tipo":"Cebraspe","url":"\/dashboard\/details-assets\/83ee9c5b-d9f9-4e47-b8e2-4adf9d848cce","coordinates":[-46.530874,-23.65751]},{"id":"6f4844dd-81d2-4b11-a9b8-626bb415c014","title":"SE - ARACAJU","tipo":"Cebraspe","url":"\/dashboard\/details-assets\/6f4844dd-81d2-4b11-a9b8-626bb415c014","coordinates":[-37.073082,-10.947247]},{"id":"4a58552f-7946-4b36-99e5-97e5002e8ed1","title":"SC - FLORIANOPOLIS","tipo":"Cebraspe","url":"\/dashboard\/details-assets\/4a58552f-7946-4b36-99e5-97e5002e8ed1","coordinates":[-48.547637,-27.587796]},{"id":"8fa3ea1b-5e07-4de0-9fde-88dab4351afb","title":"SC - BLUMENAU","tipo":"Cebraspe","url":"\/dashboard\/details-assets\/8fa3ea1b-5e07-4de0-9fde-88dab4351afb","coordinates":[-49.057631,-26.916108]},{"id":"78b885bb-0777-4a60-99fb-787600f50ec7","title":"SC - CHAPECO","tipo":"Cebraspe","url":"\/dashboard\/details-assets\/78b885bb-0777-4a60-99fb-787600f50ec7","coordinates":[-52.615699,-27.100934]},{"id":"3c71c071-1f77-4f3f-9cbe-c9826b3a2963","title":"RS - SANTA MARIA","tipo":"Cebraspe","url":"\/dashboard\/details-assets\/3c71c071-1f77-4f3f-9cbe-c9826b3a2963","coordinates":[-53.809876,-29.690439]},{"id":"ac23396d-8f7d-421f-a325-525c8d2f1a84","title":"RS - RIO GRANDE","tipo":"Cebraspe","url":"\/dashboard\/details-assets\/ac23396d-8f7d-421f-a325-525c8d2f1a84","coordinates":[-52.08677,-32.050446]},{"id":"20795506-4762-4066-a172-ecbde69f7b18","title":"RS - PORTO ALEGRE","tipo":"Cebraspe","url":"\/dashboard\/details-assets\/20795506-4762-4066-a172-ecbde69f7b18","coordinates":[-51.217658,-30.034647]},{"id":"4206be58-4781-4565-a4ae-4b289646951c","title":"RS - PELOTAS","tipo":"Cebraspe","url":"\/dashboard\/details-assets\/4206be58-4781-4565-a4ae-4b289646951c","coordinates":[-52.34432,-31.749965]},{"id":"3546d1b9-f667-4806-931c-69dd58fbc931","title":"RS - BENTO GONCALVES","tipo":"Cebraspe","url":"\/dashboard\/details-assets\/3546d1b9-f667-4806-931c-69dd58fbc931","coordinates":[-51.51556,-29.167402]},{"id":"eb7ef371-c02e-441d-999f-9d897d9066ff","title":"RS - BAGE","tipo":"Cebraspe","url":"\/dashboard\/details-assets\/eb7ef371-c02e-441d-999f-9d897d9066ff","coordinates":[-54.107083,-31.330502]},{"id":"96a44b0f-fd05-451a-a607-4f1e5d3f053e","title":"RR - BOA VISTA","tipo":"Cebraspe","url":"\/dashboard\/details-assets\/96a44b0f-fd05-451a-a607-4f1e5d3f053e","coordinates":[-60.670533,2.816682]},{"id":"55242971-2035-4572-ad98-9b8fc25d7bd5","title":"RO - PORTO VELHO","tipo":"Cebraspe","url":"\/dashboard\/details-assets\/55242971-2035-4572-ad98-9b8fc25d7bd5","coordinates":[-63.831446,-8.768892]},{"id":"a4b47c4b-20d2-4039-a049-eb5b0097d57b","title":"RN - NATAL","tipo":"Cebraspe","url":"\/dashboard\/details-assets\/a4b47c4b-20d2-4039-a049-eb5b0097d57b","coordinates":[-35.215863,-5.79872]},{"id":"77f9d4f8-34cb-4f73-b554-31c2896f11cf","title":"RN - MOSSORO","tipo":"Cebraspe","url":"\/dashboard\/details-assets\/77f9d4f8-34cb-4f73-b554-31c2896f11cf","coordinates":[-37.356874,-5.193801]},{"id":"5d373a1d-2b48-4ab8-8d4a-a993819c4eee","title":"RJ - SEROPEDICA","tipo":"Cebraspe","url":"\/dashboard\/details-assets\/5d373a1d-2b48-4ab8-8d4a-a993819c4eee","coordinates":[-43.69508,-22.769165]},{"id":"d67fc0c1-adcf-496c-ae78-0e3732a5d349","title":"RJ - RIO DE JANEIRO","tipo":"Cebraspe","url":"\/dashboard\/details-assets\/d67fc0c1-adcf-496c-ae78-0e3732a5d349","coordinates":[-43.209229,-22.916026]},{"id":"2176a0d9-94c3-4427-93bb-fe9d1e6d0c83","title":"RJ - NITEROI","tipo":"Cebraspe","url":"\/dashboard\/details-assets\/2176a0d9-94c3-4427-93bb-fe9d1e6d0c83","coordinates":[-43.115221,-22.885898]},{"id":"8d4489fb-8bb6-4685-aebc-6e1e178f286e","title":"RJ - CAMPOS DOS GOYTACAZES","tipo":"Cebraspe","url":"\/dashboard\/details-assets\/8d4489fb-8bb6-4685-aebc-6e1e178f286e","coordinates":[-41.318488,-21.76269]},{"id":"a316d625-87cd-4413-a380-87c18c04bcc2","title":"PR - FOZ DO IGUACU","tipo":"Cebraspe","url":"\/dashboard\/details-assets\/a316d625-87cd-4413-a380-87c18c04bcc2","coordinates":[-54.587102,-25.542493]},{"id":"4cd62155-5eea-4c3c-a7bd-fa767703c9a9","title":"PR - CURITIBA","tipo":"Cebraspe","url":"\/dashboard\/details-assets\/4cd62155-5eea-4c3c-a7bd-fa767703c9a9","coordinates":[-49.271848,-25.432956]},{"id":"31b4b8b6-32f9-4d67-b1a5-f6e567ce9e27","title":"PE - RECIFE","tipo":"Cebraspe","url":"\/dashboard\/details-assets\/31b4b8b6-32f9-4d67-b1a5-f6e567ce9e27","coordinates":[-34.888942,-8.062762]},{"id":"b4c8966b-d400-4972-bd23-3f230a0a81e7","title":"PI - TERESINA","tipo":"Cebraspe","url":"\/dashboard\/details-assets\/b4c8966b-d400-4972-bd23-3f230a0a81e7","coordinates":[-42.80527,-5.086342]},{"id":"c5332003-a060-4600-bfc5-0e80eb1d9c42","title":"PE - PETROLINA","tipo":"Cebraspe","url":"\/dashboard\/details-assets\/c5332003-a060-4600-bfc5-0e80eb1d9c42","coordinates":[-40.499999,-9.397376]},{"id":"c0ceb19d-6f5a-4a44-a07d-944c3401ca36","title":"PB - JOAO PESSOA","tipo":"Cebraspe","url":"\/dashboard\/details-assets\/c0ceb19d-6f5a-4a44-a07d-944c3401ca36","coordinates":[-34.873385,-7.149382]},{"id":"d5aa791b-f37c-4c2b-b390-912796b71786","title":"PB - CAMPINA GRANDE","tipo":"Cebraspe","url":"\/dashboard\/details-assets\/d5aa791b-f37c-4c2b-b390-912796b71786","coordinates":[-35.883859,-7.221497]},{"id":"bab32b7b-bdbd-484d-9f69-4fe6666fd17c","title":"PA - SANTAREM","tipo":"Cebraspe","url":"\/dashboard\/details-assets\/bab32b7b-bdbd-484d-9f69-4fe6666fd17c","coordinates":[-54.71857,-2.436213]},{"id":"e02e4935-aca5-4d6e-af19-74ca1e0b39e4","title":"PA - MARABA","tipo":"Cebraspe","url":"\/dashboard\/details-assets\/e02e4935-aca5-4d6e-af19-74ca1e0b39e4","coordinates":[-49.142025,-5.352606]},{"id":"37751eb4-ca1d-4f63-a3a4-c79a463e2efa","title":"PA - BELEM","tipo":"Cebraspe","url":"\/dashboard\/details-assets\/37751eb4-ca1d-4f63-a3a4-c79a463e2efa","coordinates":[-48.487826,-1.459845]},{"id":"70062607-b2f5-4cbe-ac24-0e83a0805314","title":"MS - DOURADOS","tipo":"Cebraspe","url":"\/dashboard\/details-assets\/70062607-b2f5-4cbe-ac24-0e83a0805314","coordinates":[-54.811289,-22.227236]},{"id":"666befae-15e8-4baa-ad89-84221ce18302","title":"MT - CUIABA","tipo":"Cebraspe","url":"\/dashboard\/details-assets\/666befae-15e8-4baa-ad89-84221ce18302","coordinates":[-56.073252,-15.569989]},{"id":"7619243c-1345-428a-a022-2e0a98d7cd1f","title":"MS - CAMPO GRANDE","tipo":"Cebraspe","url":"\/dashboard\/details-assets\/7619243c-1345-428a-a022-2e0a98d7cd1f","coordinates":[-54.615744,-20.45803]},{"id":"cafdd90d-651d-48bb-bc62-0f39fccc10ca","title":"MG - VICOSA","tipo":"Cebraspe","url":"\/dashboard\/details-assets\/cafdd90d-651d-48bb-bc62-0f39fccc10ca","coordinates":[-42.879477,-20.752072]},{"id":"35aebb4a-9f70-4ebf-bff7-bf9257920a0a","title":"MG - UBERLANDIA","tipo":"Cebraspe","url":"\/dashboard\/details-assets\/35aebb4a-9f70-4ebf-bff7-bf9257920a0a","coordinates":[-48.27795,-18.918999]},{"id":"3c2ac6d1-1e05-490e-8865-50d6c365b868","title":"MG - UBERABA","tipo":"Cebraspe","url":"\/dashboard\/details-assets\/3c2ac6d1-1e05-490e-8865-50d6c365b868","coordinates":[-47.983625,-19.713535]},{"id":"2fdee05b-ebfe-4623-84d4-1a180004d3e8","title":"MG - SAO JOAO DEL REI","tipo":"Cebraspe","url":"\/dashboard\/details-assets\/2fdee05b-ebfe-4623-84d4-1a180004d3e8","coordinates":[-44.260973,-21.135509]},{"id":"f5f1bc6f-a3f7-483f-bda5-5f38d1e46858","title":"MG - POUSO ALEGRE","tipo":"Cebraspe","url":"\/dashboard\/details-assets\/f5f1bc6f-a3f7-483f-bda5-5f38d1e46858","coordinates":[-45.937144,-22.230303]},{"id":"d22da377-ca3f-4601-b894-5b6e4cadb6d7","title":"MG - OURO PRETO","tipo":"Cebraspe","url":"\/dashboard\/details-assets\/d22da377-ca3f-4601-b894-5b6e4cadb6d7","coordinates":[-43.506448,-20.386776]},{"id":"b260ec56-3b03-430c-a3e6-aea0b4831324","title":"MG - LAVRAS","tipo":"Cebraspe","url":"\/dashboard\/details-assets\/b260ec56-3b03-430c-a3e6-aea0b4831324","coordinates":[-44.999931,-21.24287]},{"id":"bb0d52c1-7dba-49f9-a9e1-341248220536","title":"MG - MONTES CLAROS","tipo":"Cebraspe","url":"\/dashboard\/details-assets\/bb0d52c1-7dba-49f9-a9e1-341248220536","coordinates":[-43.865422,-16.722707]},{"id":"e797a3fd-db4f-48bd-960f-21cce3ca03c6","title":"MG - JUIZ DE FORA","tipo":"Cebraspe","url":"\/dashboard\/details-assets\/e797a3fd-db4f-48bd-960f-21cce3ca03c6","coordinates":[-43.348817,-21.760924]},{"id":"03aebea8-2ec3-4f51-8c93-62f82555d065","title":"MG - BELO HORIZONTE","tipo":"Cebraspe","url":"\/dashboard\/details-assets\/03aebea8-2ec3-4f51-8c93-62f82555d065","coordinates":[-43.926453,-19.937524]},{"id":"7f8f45e7-d81f-40a7-a71e-afd73b7e0c3d","title":"MG - ALFENAS","tipo":"Cebraspe","url":"\/dashboard\/details-assets\/7f8f45e7-d81f-40a7-a71e-afd73b7e0c3d","coordinates":[-45.948918,-21.428178]},{"id":"55dbcb93-fdb9-4412-84c4-6f55bf06cb36","title":"MA - SAO LUIS","tipo":"Cebraspe","url":"\/dashboard\/details-assets\/55dbcb93-fdb9-4412-84c4-6f55bf06cb36","coordinates":[-44.297919,-2.531886]},{"id":"20ab417d-1d3c-4aef-843d-4ff1d9525379","title":"GO - GOIANIA","tipo":"Cebraspe","url":"\/dashboard\/details-assets\/20ab417d-1d3c-4aef-843d-4ff1d9525379","coordinates":[-49.255814,-16.67331]},{"id":"6c62b8ef-ee06-42a9-8cc1-b897facfffa7","title":"ES - VITORIA","tipo":"Cebraspe","url":"\/dashboard\/details-assets\/6c62b8ef-ee06-42a9-8cc1-b897facfffa7","coordinates":[-40.322209,-20.320154]},{"id":"2b08ed24-dc9c-4cc8-82db-d04be0d2d5d7","title":"DF - BRASILIA","tipo":"Cebraspe","url":"\/dashboard\/details-assets\/2b08ed24-dc9c-4cc8-82db-d04be0d2d5d7","coordinates":[-47.882166,-15.794229]},{"id":"574698d6-36c6-458f-8184-4d20ceebff70","title":"CE - REDENCAO","tipo":"Cebraspe","url":"\/dashboard\/details-assets\/574698d6-36c6-458f-8184-4d20ceebff70","coordinates":[-50.029642,-8.027604]},{"id":"d6fd2321-242a-40ea-9ee1-e47811d6a338","title":"CE - JUAZEIRO DO NORTE","tipo":"Cebraspe","url":"\/dashboard\/details-assets\/d6fd2321-242a-40ea-9ee1-e47811d6a338","coordinates":[-39.316993,-7.210766]},{"id":"ca86da7f-92a5-4857-a1a3-5f78c2e28bb7","title":"CE - FORTALEZA","tipo":"Cebraspe","url":"\/dashboard\/details-assets\/ca86da7f-92a5-4857-a1a3-5f78c2e28bb7","coordinates":[-38.589928,-3.723805]},{"id":"e1b0dbfc-8f87-45ed-bcbf-42e6b32f746e","title":"BA - SALVADOR","tipo":"Cebraspe","url":"\/dashboard\/details-assets\/e1b0dbfc-8f87-45ed-bcbf-42e6b32f746e","coordinates":[-38.489434,-12.990687]},{"id":"bc519100-7277-4c99-a663-4f24f0291b89","title":"AM - MANAUS","tipo":"Cebraspe","url":"\/dashboard\/details-assets\/bc519100-7277-4c99-a663-4f24f0291b89","coordinates":[-60.023335,-3.134691]},{"id":"73621923-46fe-4e68-b207-64cabf7b29f7","title":"AP - MACAPA","tipo":"Cebraspe","url":"\/dashboard\/details-assets\/73621923-46fe-4e68-b207-64cabf7b29f7","coordinates":[-51.057405,0.038951]},{"id":"296ac731-0181-4455-a3ba-5934ef39fe6b","title":"AL - MACEIO","tipo":"Cebraspe","url":"\/dashboard\/details-assets\/296ac731-0181-4455-a3ba-5934ef39fe6b","coordinates":[-35.70163,-9.660822]},{"id":"c184e228-98bf-45d7-884f-ca21c9ad636a","title":"AC - RIO BRANCO","tipo":"Cebraspe","url":"\/dashboard\/details-assets\/c184e228-98bf-45d7-884f-ca21c9ad636a","coordinates":[-67.829853,-9.973437]}]