{"type":"FeatureCollection","features":[{"type":"Feature","properties":{"municipio":"020b038f-e027-4a84-b1e0-190ff702851e","title":"TO - TOCANTINOPOLIS","tipo":"CAEd","url":"\/dashboard\/details-assets\/020b038f-e027-4a84-b1e0-190ff702851e"},"geometry":{"type":"Point","coordinates":[-47.4294977,-6.324747]}},{"type":"Feature","properties":{"municipio":"c7e87379-bfe4-42ee-8682-19a806a7e4eb","title":"TO - ARRAIAS","tipo":"CAEd","url":"\/dashboard\/details-assets\/c7e87379-bfe4-42ee-8682-19a806a7e4eb"},"geometry":{"type":"Point","coordinates":[-46.9805103,-12.6770601]}},{"type":"Feature","properties":{"municipio":"8ed83357-b528-4ce8-9eb9-07e4d0b7be01","title":"TO - BARROLANDIA","tipo":"CAEd","url":"\/dashboard\/details-assets\/8ed83357-b528-4ce8-9eb9-07e4d0b7be01"},"geometry":{"type":"Point","coordinates":[-48.728503727734,-9.8236251457354]}},{"type":"Feature","properties":{"municipio":"b8d74998-48b7-4b67-a092-23addc273be1","title":"TO - ARAGUATINS","tipo":"CAEd","url":"\/dashboard\/details-assets\/b8d74998-48b7-4b67-a092-23addc273be1"},"geometry":{"type":"Point","coordinates":[-48.1193893,-5.6484113]}},{"type":"Feature","properties":{"municipio":"45afd456-20fa-49e2-8bfc-2e4f90e8eb1c","title":"TO - CRISTALANDIA","tipo":"CAEd","url":"\/dashboard\/details-assets\/45afd456-20fa-49e2-8bfc-2e4f90e8eb1c"},"geometry":{"type":"Point","coordinates":[-49.221380773438,-10.579946539256]}},{"type":"Feature","properties":{"municipio":"3445b8ef-28f5-41b6-b642-48e93609e251","title":"TO - GUARAI","tipo":"CAEd","url":"\/dashboard\/details-assets\/3445b8ef-28f5-41b6-b642-48e93609e251"},"geometry":{"type":"Point","coordinates":[-48.511861,-8.8358375]}},{"type":"Feature","properties":{"municipio":"07a9500c-d5d6-4f16-9754-48703bb25a46","title":"TO - MIRACEMA DO TOCANTINS","tipo":"CAEd","url":"\/dashboard\/details-assets\/07a9500c-d5d6-4f16-9754-48703bb25a46"},"geometry":{"type":"Point","coordinates":[-48.393409,-9.5659692]}},{"type":"Feature","properties":{"municipio":"8faa7f92-ff52-43ff-874b-48c815e0d3f6","title":"TO - COLINAS DO TOCANTINS","tipo":"CAEd","url":"\/dashboard\/details-assets\/8faa7f92-ff52-43ff-874b-48c815e0d3f6"},"geometry":{"type":"Point","coordinates":[-48.4485905,-7.990545492219]}},{"type":"Feature","properties":{"municipio":"ab534186-fd69-40cd-82d7-47f7aee47c2b","title":"TO - PALMAS","tipo":"CAEd","url":"\/dashboard\/details-assets\/ab534186-fd69-40cd-82d7-47f7aee47c2b"},"geometry":{"type":"Point","coordinates":[-48.317035914063,-10.230299313278]}},{"type":"Feature","properties":{"municipio":"3a28e7b9-ffe6-40a1-b1ed-53cf5950fa76","title":"TO - WANDERLANDIA","tipo":"CAEd","url":"\/dashboard\/details-assets\/3a28e7b9-ffe6-40a1-b1ed-53cf5950fa76"},"geometry":{"type":"Point","coordinates":[-47.987982289063,-6.8520335475457]}},{"type":"Feature","properties":{"municipio":"81b8b7ab-4332-4a18-aea0-6d0f851c5dda","title":"TO - PIUM","tipo":"CAEd","url":"\/dashboard\/details-assets\/81b8b7ab-4332-4a18-aea0-6d0f851c5dda"},"geometry":{"type":"Point","coordinates":[-49.1798964,-10.4427779]}},{"type":"Feature","properties":{"municipio":"6ad02018-8056-4d4e-ba48-7882dc0d7b6b","title":"TO - FORMOSO DO ARAGUAIA","tipo":"CAEd","url":"\/dashboard\/details-assets\/6ad02018-8056-4d4e-ba48-7882dc0d7b6b"},"geometry":{"type":"Point","coordinates":[-49.5366012,-11.8057599]}},{"type":"Feature","properties":{"municipio":"608a58a4-e30a-46a3-876c-79fb27453ce4","title":"TO - TAGUATINGA","tipo":"CAEd","url":"\/dashboard\/details-assets\/608a58a4-e30a-46a3-876c-79fb27453ce4"},"geometry":{"type":"Point","coordinates":[-46.4340888,-12.4060068]}},{"type":"Feature","properties":{"municipio":"4638bac3-40ae-45f7-80dd-8bb0e68feecb","title":"TO - BERNARDO SAYAO","tipo":"CAEd","url":"\/dashboard\/details-assets\/4638bac3-40ae-45f7-80dd-8bb0e68feecb"},"geometry":{"type":"Point","coordinates":[-48.8945273,-7.8818515]}},{"type":"Feature","properties":{"municipio":"8ed26fe2-f4eb-4bd0-bd6c-85fbf0b84132","title":"TO - BABACULANDIA","tipo":"CAEd","url":"\/dashboard\/details-assets\/8ed26fe2-f4eb-4bd0-bd6c-85fbf0b84132"},"geometry":{"type":"Point","coordinates":[-47.759016,-7.2032092]}},{"type":"Feature","properties":{"municipio":"f4447cf1-cc7e-4926-94e7-9dcdcf6025ab","title":"TO - PORTO NACIONAL","tipo":"CAEd","url":"\/dashboard\/details-assets\/f4447cf1-cc7e-4926-94e7-9dcdcf6025ab"},"geometry":{"type":"Point","coordinates":[-48.4084858,-10.703164]}},{"type":"Feature","properties":{"municipio":"65fb5917-528f-4f92-988e-97de78f9a739","title":"TO - COLMEIA","tipo":"CAEd","url":"\/dashboard\/details-assets\/65fb5917-528f-4f92-988e-97de78f9a739"},"geometry":{"type":"Point","coordinates":[-48.768925837109,-8.7169140878007]}},{"type":"Feature","properties":{"municipio":"54516318-3e6e-41bd-b2c9-91588b5e914e","title":"TO - NOVO ALEGRE","tipo":"CAEd","url":"\/dashboard\/details-assets\/54516318-3e6e-41bd-b2c9-91588b5e914e"},"geometry":{"type":"Point","coordinates":[-46.574058,-12.9002047]}},{"type":"Feature","properties":{"municipio":"a7053ef8-3fa9-4fe3-93ad-91ea3cb2fc1e","title":"TO - PARAISO DO TOCANTINS","tipo":"CAEd","url":"\/dashboard\/details-assets\/a7053ef8-3fa9-4fe3-93ad-91ea3cb2fc1e"},"geometry":{"type":"Point","coordinates":[-48.874963289062,-10.102217870889]}},{"type":"Feature","properties":{"municipio":"3e29339c-c8d2-486a-8564-972f8ead96ea","title":"TO - LUZINOPOLIS","tipo":"CAEd","url":"\/dashboard\/details-assets\/3e29339c-c8d2-486a-8564-972f8ead96ea"},"geometry":{"type":"Point","coordinates":[-47.8606275,-6.1900539]}},{"type":"Feature","properties":{"municipio":"f50e86f8-30a7-477e-8c45-a2b0bdffc0b1","title":"TO - PEDRO AFONSO","tipo":"CAEd","url":"\/dashboard\/details-assets\/f50e86f8-30a7-477e-8c45-a2b0bdffc0b1"},"geometry":{"type":"Point","coordinates":[-48.178974972656,-8.9629429949355]}},{"type":"Feature","properties":{"municipio":"a1241a89-5010-4a35-a020-a78e0bae98a2","title":"TO - DIANOPOLIS","tipo":"CAEd","url":"\/dashboard\/details-assets\/a1241a89-5010-4a35-a020-a78e0bae98a2"},"geometry":{"type":"Point","coordinates":[-46.825933703125,-11.748061757958]}},{"type":"Feature","properties":{"municipio":"c83890d2-1281-46dd-8800-b5198ef51c1b","title":"TO - CARIRI DO TOCANTINS","tipo":"CAEd","url":"\/dashboard\/details-assets\/c83890d2-1281-46dd-8800-b5198ef51c1b"},"geometry":{"type":"Point","coordinates":[-49.1625989,-11.9598899]}},{"type":"Feature","properties":{"municipio":"67b96f6f-f440-4d5d-8888-f636e44223d5","title":"TO - XAMBIOA","tipo":"CAEd","url":"\/dashboard\/details-assets\/67b96f6f-f440-4d5d-8888-f636e44223d5"},"geometry":{"type":"Point","coordinates":[-48.4387577,-6.5348814]}},{"type":"Feature","properties":{"municipio":"17fd70d5-3b0b-4b71-8ae4-fb9873cb65b0","title":"TO - PEIXE","tipo":"CAEd","url":"\/dashboard\/details-assets\/17fd70d5-3b0b-4b71-8ae4-fb9873cb65b0"},"geometry":{"type":"Point","coordinates":[-48.5486964,-12.0258526]}},{"type":"Feature","properties":{"municipio":"042aefc7-e1a0-4bcd-9417-e606cb909255","title":"TO - MIRANORTE","tipo":"CAEd","url":"\/dashboard\/details-assets\/042aefc7-e1a0-4bcd-9417-e606cb909255"},"geometry":{"type":"Point","coordinates":[-48.595229948047,-9.5164249529529]}},{"type":"Feature","properties":{"municipio":"6e4d2018-9f95-4ddc-aaec-2ae0e1733e80","title":"SP - LINS","tipo":"Cesgranrio","url":"\/dashboard\/details-assets\/6e4d2018-9f95-4ddc-aaec-2ae0e1733e80"},"geometry":{"type":"Point","coordinates":[-49.751423386686,-21.672346499352]}},{"type":"Feature","properties":{"municipio":"54927ea4-11b0-46ea-8d8c-32a24761a43e","title":"SP - TAQUARITINGA","tipo":"Cesgranrio","url":"\/dashboard\/details-assets\/54927ea4-11b0-46ea-8d8c-32a24761a43e"},"geometry":{"type":"Point","coordinates":[-48.506742182854,-21.410007999358]}},{"type":"Feature","properties":{"municipio":"82532d09-5ea7-4762-9746-341c0c65accb","title":"SP - SERTAOZINHO","tipo":"Cesgranrio","url":"\/dashboard\/details-assets\/82532d09-5ea7-4762-9746-341c0c65accb"},"geometry":{"type":"Point","coordinates":[-47.990137,-21.1379949]}},{"type":"Feature","properties":{"municipio":"09b59fc4-a297-408c-8b1c-3183b1065975","title":"SP - FRANCO DA ROCHA","tipo":"Cesgranrio","url":"\/dashboard\/details-assets\/09b59fc4-a297-408c-8b1c-3183b1065975"},"geometry":{"type":"Point","coordinates":[-46.727874668553,-23.320302499313]}},{"type":"Feature","properties":{"municipio":"820d7dc0-468a-48d1-bcaf-34d7b26cae7b","title":"TO - ARAGUAINA","tipo":"CAEd","url":"\/dashboard\/details-assets\/820d7dc0-468a-48d1-bcaf-34d7b26cae7b"},"geometry":{"type":"Point","coordinates":[-48.2874074,-7.2109414]}},{"type":"Feature","properties":{"municipio":"889cbc48-e5ba-473e-ba11-36cc05151009","title":"SP - REGINOPOLIS","tipo":"Cesgranrio","url":"\/dashboard\/details-assets\/889cbc48-e5ba-473e-ba11-36cc05151009"},"geometry":{"type":"Point","coordinates":[-49.2241724,-21.8888654]}},{"type":"Feature","properties":{"municipio":"4e535dba-2741-40a1-af82-23a1169f40e1","title":"SP - JUNDIAI","tipo":"Cesgranrio","url":"\/dashboard\/details-assets\/4e535dba-2741-40a1-af82-23a1169f40e1"},"geometry":{"type":"Point","coordinates":[-46.885273967997,-23.187667999316]}},{"type":"Feature","properties":{"municipio":"bf99dc2a-b5d4-4f69-b908-2432217f5ec9","title":"SP - VOTORANTIM","tipo":"Cesgranrio","url":"\/dashboard\/details-assets\/bf99dc2a-b5d4-4f69-b908-2432217f5ec9"},"geometry":{"type":"Point","coordinates":[-47.4445978,-23.540286]}},{"type":"Feature","properties":{"municipio":"627ad4b8-49fc-4239-8115-24b2abb219f8","title":"SP - LAVINIA","tipo":"Cesgranrio","url":"\/dashboard\/details-assets\/627ad4b8-49fc-4239-8115-24b2abb219f8"},"geometry":{"type":"Point","coordinates":[-51.0428566,-21.1655923]}},{"type":"Feature","properties":{"municipio":"e3b7c592-7ef3-41f9-93f2-24dab8da5833","title":"SP - HORTOLANDIA","tipo":"Cesgranrio","url":"\/dashboard\/details-assets\/e3b7c592-7ef3-41f9-93f2-24dab8da5833"},"geometry":{"type":"Point","coordinates":[-47.221096609758,-22.858394999324]}},{"type":"Feature","properties":{"municipio":"b9c4620c-7a24-47a4-a425-2321b292d596","title":"SE - ARACAJU","tipo":"Cesgranrio","url":"\/dashboard\/details-assets\/b9c4620c-7a24-47a4-a425-2321b292d596"},"geometry":{"type":"Point","coordinates":[-37.0730823,-10.9472468]}},{"type":"Feature","properties":{"municipio":"6b07bc7b-dfa6-402e-977c-2177d9cf3904","title":"SP - ATIBAIA","tipo":"Cesgranrio","url":"\/dashboard\/details-assets\/6b07bc7b-dfa6-402e-977c-2177d9cf3904"},"geometry":{"type":"Point","coordinates":[-46.555062500674,-23.116307999318]}},{"type":"Feature","properties":{"municipio":"7df84393-bdd8-4621-b2d5-2135226af44a","title":"SP - PARAGUACU PAULISTA","tipo":"Cesgranrio","url":"\/dashboard\/details-assets\/7df84393-bdd8-4621-b2d5-2135226af44a"},"geometry":{"type":"Point","coordinates":[-50.575028530478,-22.417711019334]}},{"type":"Feature","properties":{"municipio":"9ac5b87c-60ce-4519-8d72-28ac36c850e7","title":"SP - TUPI PAULISTA","tipo":"Cesgranrio","url":"\/dashboard\/details-assets\/9ac5b87c-60ce-4519-8d72-28ac36c850e7"},"geometry":{"type":"Point","coordinates":[-51.5754829,-21.3829234]}},{"type":"Feature","properties":{"municipio":"6e19d939-813b-4157-980d-257daeb5df32","title":"SP - MARABA PAULISTA","tipo":"Cesgranrio","url":"\/dashboard\/details-assets\/6e19d939-813b-4157-980d-257daeb5df32"},"geometry":{"type":"Point","coordinates":[-51.962300964844,-22.076135051724]}},{"type":"Feature","properties":{"municipio":"ed76c61a-d674-4fa5-bee9-07690f998731","title":"SP - CAPELA DO ALTO","tipo":"Cesgranrio","url":"\/dashboard\/details-assets\/ed76c61a-d674-4fa5-bee9-07690f998731"},"geometry":{"type":"Point","coordinates":[-45.41081838225,-23.622006499307]}},{"type":"Feature","properties":{"municipio":"ebde2843-0b41-48e6-9ac4-0874e841059d","title":"SP - TREMEMBE","tipo":"Cesgranrio","url":"\/dashboard\/details-assets\/ebde2843-0b41-48e6-9ac4-0874e841059d"},"geometry":{"type":"Point","coordinates":[-45.546823476172,-22.953676314758]}},{"type":"Feature","properties":{"municipio":"c66a08ba-bedd-4f47-9dc7-0a3a43a9da76","title":"SP - MARILIA","tipo":"Cesgranrio","url":"\/dashboard\/details-assets\/c66a08ba-bedd-4f47-9dc7-0a3a43a9da76"},"geometry":{"type":"Point","coordinates":[-49.9505291,-22.2175846]}},{"type":"Feature","properties":{"municipio":"7af15751-06b9-43c8-a154-0dda7aa202b1","title":"SP - PORTO FELIZ","tipo":"Cesgranrio","url":"\/dashboard\/details-assets\/7af15751-06b9-43c8-a154-0dda7aa202b1"},"geometry":{"type":"Point","coordinates":[-47.524596573066,-23.214412267316]}},{"type":"Feature","properties":{"municipio":"ed562f5f-7e5f-4c5d-be0b-0de6fdf4a2b4","title":"SP - TAIUVA","tipo":"Cesgranrio","url":"\/dashboard\/details-assets\/ed562f5f-7e5f-4c5d-be0b-0de6fdf4a2b4"},"geometry":{"type":"Point","coordinates":[-48.4537633,-21.1245903]}},{"type":"Feature","properties":{"municipio":"2290e2b4-921a-45b3-83bd-0c1ad092cd80","title":"SP - ITANHAEM","tipo":"Cesgranrio","url":"\/dashboard\/details-assets\/2290e2b4-921a-45b3-83bd-0c1ad092cd80"},"geometry":{"type":"Point","coordinates":[-46.790991482879,-24.186120666127]}},{"type":"Feature","properties":{"municipio":"b2f111f9-3bf2-47bc-88c5-05de63242f1f","title":"SP - ASSIS","tipo":"Cesgranrio","url":"\/dashboard\/details-assets\/b2f111f9-3bf2-47bc-88c5-05de63242f1f"},"geometry":{"type":"Point","coordinates":[-50.41751004,-22.662835019329]}},{"type":"Feature","properties":{"municipio":"ca563a23-9459-4dce-9968-044d89cd172f","title":"SP - DIADEMA","tipo":"Cesgranrio","url":"\/dashboard\/details-assets\/ca563a23-9459-4dce-9968-044d89cd172f"},"geometry":{"type":"Point","coordinates":[-51.534049660063,-21.486137534356]}},{"type":"Feature","properties":{"municipio":"8e3e88f3-9d72-484e-9c9b-01c4ed87ee03","title":"SE - ESTANCIA","tipo":"Cesgranrio","url":"\/dashboard\/details-assets\/8e3e88f3-9d72-484e-9c9b-01c4ed87ee03"},"geometry":{"type":"Point","coordinates":[-37.43854,-11.268661]}},{"type":"Feature","properties":{"municipio":"302dd6c3-6202-4b3b-aa9d-01968799c9b1","title":"SP - OSASCO","tipo":"Cesgranrio","url":"\/dashboard\/details-assets\/302dd6c3-6202-4b3b-aa9d-01968799c9b1"},"geometry":{"type":"Point","coordinates":[-46.788810144271,-23.533611999309]}},{"type":"Feature","properties":{"municipio":"c0276afb-7983-4945-9389-1999ad971bd1","title":"SP - BALBINOS","tipo":"Cesgranrio","url":"\/dashboard\/details-assets\/c0276afb-7983-4945-9389-1999ad971bd1"},"geometry":{"type":"Point","coordinates":[-49.3348621,-21.8924794]}},{"type":"Feature","properties":{"municipio":"f2c2284a-9b87-4fdd-9338-1923ee1bc2c1","title":"SP - SAO JOSE DOS CAMPOS","tipo":"Cesgranrio","url":"\/dashboard\/details-assets\/f2c2284a-9b87-4fdd-9338-1923ee1bc2c1"},"geometry":{"type":"Point","coordinates":[-45.899405,-23.23021]}},{"type":"Feature","properties":{"municipio":"5a058a4f-9379-41d4-9a89-1a0f11112d29","title":"SP - RIO CLARO","tipo":"Cesgranrio","url":"\/dashboard\/details-assets\/5a058a4f-9379-41d4-9a89-1a0f11112d29"},"geometry":{"type":"Point","coordinates":[-47.563533238434,-22.412511499334]}},{"type":"Feature","properties":{"municipio":"528d2b20-99ca-43e3-96ab-17ebef32bb6f","title":"SE - AREIA BRANCA","tipo":"Cesgranrio","url":"\/dashboard\/details-assets\/528d2b20-99ca-43e3-96ab-17ebef32bb6f"},"geometry":{"type":"Point","coordinates":[-37.329580128125,-10.752053211004]}},{"type":"Feature","properties":{"municipio":"56b1ca12-8417-4ee0-93b9-16ca587011ce","title":"SP - ARACATUBA","tipo":"Cesgranrio","url":"\/dashboard\/details-assets\/56b1ca12-8417-4ee0-93b9-16ca587011ce"},"geometry":{"type":"Point","coordinates":[-50.439226072753,-21.205475999363]}},{"type":"Feature","properties":{"municipio":"abb8a848-df71-4ecf-be71-171a3a78accd","title":"SP - SANTO ANDRE","tipo":"Cesgranrio","url":"\/dashboard\/details-assets\/abb8a848-df71-4ecf-be71-171a3a78accd"},"geometry":{"type":"Point","coordinates":[-46.530874257629,-23.657509999306]}},{"type":"Feature","properties":{"municipio":"1291487a-f24c-4e2d-86a3-16cd000466e6","title":"SP - AVARE","tipo":"Cesgranrio","url":"\/dashboard\/details-assets\/1291487a-f24c-4e2d-86a3-16cd000466e6"},"geometry":{"type":"Point","coordinates":[-48.923263194357,-23.103193499318]}},{"type":"Feature","properties":{"municipio":"d1d752f2-cae6-441d-8122-164b24379e5e","title":"SP - BAURU","tipo":"Cesgranrio","url":"\/dashboard\/details-assets\/d1d752f2-cae6-441d-8122-164b24379e5e"},"geometry":{"type":"Point","coordinates":[-49.08300086709,-22.325122499336]}},{"type":"Feature","properties":{"municipio":"57efae58-3f7f-40ac-9785-144b5390b738","title":"SP - JARDINOPOLIS","tipo":"Cesgranrio","url":"\/dashboard\/details-assets\/57efae58-3f7f-40ac-9785-144b5390b738"},"geometry":{"type":"Point","coordinates":[-47.7772049,-21.0277616]}},{"type":"Feature","properties":{"municipio":"fdc40e6d-6605-4049-8e49-138e9821aa5d","title":"SP - AMERICANA","tipo":"Cesgranrio","url":"\/dashboard\/details-assets\/fdc40e6d-6605-4049-8e49-138e9821aa5d"},"geometry":{"type":"Point","coordinates":[-47.3337008,-22.7378203]}},{"type":"Feature","properties":{"municipio":"7f24dd55-ca08-4931-a213-390a13da76f5","title":"SP - JUNQUEIROPOLIS","tipo":"Cesgranrio","url":"\/dashboard\/details-assets\/7f24dd55-ca08-4931-a213-390a13da76f5"},"geometry":{"type":"Point","coordinates":[-51.4346653,-21.5108173]}},{"type":"Feature","properties":{"municipio":"f345e9a4-f60b-4b8b-9eed-39ecaa00e228","title":"SP - MIRANDOPOLIS","tipo":"Cesgranrio","url":"\/dashboard\/details-assets\/f345e9a4-f60b-4b8b-9eed-39ecaa00e228"},"geometry":{"type":"Point","coordinates":[-51.1023381,-21.1331045]}},{"type":"Feature","properties":{"municipio":"6600445c-86f0-4f97-a3dd-3b07e7175629","title":"SP - ITIRAPINA","tipo":"Cesgranrio","url":"\/dashboard\/details-assets\/6600445c-86f0-4f97-a3dd-3b07e7175629"},"geometry":{"type":"Point","coordinates":[-47.8170462,-22.2567218]}},{"type":"Feature","properties":{"municipio":"6dbc8cc8-4eea-4824-87b4-3bc80cb91bf9","title":"SP - PERUIBE","tipo":"Cesgranrio","url":"\/dashboard\/details-assets\/6dbc8cc8-4eea-4824-87b4-3bc80cb91bf9"},"geometry":{"type":"Point","coordinates":[-47.0016573,-24.3124785]}},{"type":"Feature","properties":{"municipio":"af1ea583-5d88-46cc-9ee8-404e4673ee4b","title":"SP - CERQUEIRA CESAR","tipo":"Cesgranrio","url":"\/dashboard\/details-assets\/af1ea583-5d88-46cc-9ee8-404e4673ee4b"},"geometry":{"type":"Point","coordinates":[-46.623381393203,-23.689294999305]}},{"type":"Feature","properties":{"municipio":"221c20d5-6fad-48e5-ac25-7b09211bab1b","title":"SP - FLORIDA PAULISTA","tipo":"Cesgranrio","url":"\/dashboard\/details-assets\/221c20d5-6fad-48e5-ac25-7b09211bab1b"},"geometry":{"type":"Point","coordinates":[-51.1729216,-21.6131815]}},{"type":"Feature","properties":{"municipio":"8140808f-8308-44cc-a2b9-7a9bc94bb347","title":"SP - SAO PAULO","tipo":"Cesgranrio","url":"\/dashboard\/details-assets\/8140808f-8308-44cc-a2b9-7a9bc94bb347"},"geometry":{"type":"Point","coordinates":[-46.570383182113,-23.567386499308]}},{"type":"Feature","properties":{"municipio":"81241e3b-f0c8-4428-9165-814ad404afb0","title":"SP - CASA BRANCA","tipo":"Cesgranrio","url":"\/dashboard\/details-assets\/81241e3b-f0c8-4428-9165-814ad404afb0"},"geometry":{"type":"Point","coordinates":[-49.165330170888,-23.03479749864]}},{"type":"Feature","properties":{"municipio":"0579a520-0727-439a-9950-7ed0eb668144","title":"SP - SAO JOSE DO RIO PRETO","tipo":"Cesgranrio","url":"\/dashboard\/details-assets\/0579a520-0727-439a-9950-7ed0eb668144"},"geometry":{"type":"Point","coordinates":[-46.8877455,-21.5957703]}},{"type":"Feature","properties":{"municipio":"cbf49a3f-21d1-496e-946a-7fa70d768313","title":"SP - IRAPURU","tipo":"Cesgranrio","url":"\/dashboard\/details-assets\/cbf49a3f-21d1-496e-946a-7fa70d768313"},"geometry":{"type":"Point","coordinates":[-51.354258489844,-21.563269218159]}},{"type":"Feature","properties":{"municipio":"e58d40ab-c1b6-44ac-8d2a-6d3901f4b94b","title":"SP - MOGI GUACU","tipo":"Cesgranrio","url":"\/dashboard\/details-assets\/e58d40ab-c1b6-44ac-8d2a-6d3901f4b94b"},"geometry":{"type":"Point","coordinates":[-46.944474088149,-22.365720188847]}},{"type":"Feature","properties":{"municipio":"96d8150c-8d7a-480e-aec2-6ce3f0161701","title":"SP - MOCOCA","tipo":"Cesgranrio","url":"\/dashboard\/details-assets\/96d8150c-8d7a-480e-aec2-6ce3f0161701"},"geometry":{"type":"Point","coordinates":[-47.007170978737,-21.468990509357]}},{"type":"Feature","properties":{"municipio":"5223884a-0d0e-4372-89c7-703f18beada1","title":"SP - AVANHANDAVA","tipo":"Cesgranrio","url":"\/dashboard\/details-assets\/5223884a-0d0e-4372-89c7-703f18beada1"},"geometry":{"type":"Point","coordinates":[-49.9481429,-21.461674]}},{"type":"Feature","properties":{"municipio":"c28a81ab-11ed-4705-9c49-717987bb7913","title":"SP - SUMARE","tipo":"Cesgranrio","url":"\/dashboard\/details-assets\/c28a81ab-11ed-4705-9c49-717987bb7913"},"geometry":{"type":"Point","coordinates":[-47.26580273209,-22.822144999325]}},{"type":"Feature","properties":{"municipio":"d21c3f1e-8e59-45ea-9eb0-754e184b394a","title":"SP - SANTOS","tipo":"Cesgranrio","url":"\/dashboard\/details-assets\/d21c3f1e-8e59-45ea-9eb0-754e184b394a"},"geometry":{"type":"Point","coordinates":[-46.331370849191,-23.9337374993]}},{"type":"Feature","properties":{"municipio":"07c573d8-d869-42ad-964b-77adcaad7bcf","title":"SP - PRAIA GRANDE","tipo":"Cesgranrio","url":"\/dashboard\/details-assets\/07c573d8-d869-42ad-964b-77adcaad7bcf"},"geometry":{"type":"Point","coordinates":[-46.4124616,-24.0088421]}},{"type":"Feature","properties":{"municipio":"8cb0dfa0-6801-4647-a23f-74c1eb812f7c","title":"SP - OSVALDO CRUZ","tipo":"Cesgranrio","url":"\/dashboard\/details-assets\/8cb0dfa0-6801-4647-a23f-74c1eb812f7c"},"geometry":{"type":"Point","coordinates":[-50.873139110264,-21.797083499349]}},{"type":"Feature","properties":{"municipio":"a8e3a9df-0be8-4a7d-b93d-606898966471","title":"SP - OURINHOS","tipo":"Cesgranrio","url":"\/dashboard\/details-assets\/a8e3a9df-0be8-4a7d-b93d-606898966471"},"geometry":{"type":"Point","coordinates":[-49.868579835937,-22.977267499321]}},{"type":"Feature","properties":{"municipio":"84d603df-8edb-481d-95a4-6011372711c4","title":"SP - PRESIDENTE BERNARDES","tipo":"Cesgranrio","url":"\/dashboard\/details-assets\/84d603df-8edb-481d-95a4-6011372711c4"},"geometry":{"type":"Point","coordinates":[-51.5531899,-22.0077937]}},{"type":"Feature","properties":{"municipio":"afe2bfe2-c287-449c-84ec-645078788c9b","title":"SP - PRESIDENTE PRUDENTE","tipo":"Cesgranrio","url":"\/dashboard\/details-assets\/afe2bfe2-c287-449c-84ec-645078788c9b"},"geometry":{"type":"Point","coordinates":[-51.386765581912,-22.122743499341]}},{"type":"Feature","properties":{"municipio":"98d6fcde-bccf-419a-97cd-641e777bdb73","title":"SP - ARUJA","tipo":"Cesgranrio","url":"\/dashboard\/details-assets\/98d6fcde-bccf-419a-97cd-641e777bdb73"},"geometry":{"type":"Point","coordinates":[-46.320489600114,-23.395826740312]}},{"type":"Feature","properties":{"municipio":"b5e417eb-e174-4495-8375-655d900f021a","title":"SP - TAQUARITUBA","tipo":"Cesgranrio","url":"\/dashboard\/details-assets\/b5e417eb-e174-4495-8375-655d900f021a"},"geometry":{"type":"Point","coordinates":[-49.2459964,-23.5263997]}},{"type":"Feature","properties":{"municipio":"8f3eb7b0-30bf-4ad8-ba36-5c6379edff57","title":"SP - LUCELIA","tipo":"Cesgranrio","url":"\/dashboard\/details-assets\/8f3eb7b0-30bf-4ad8-ba36-5c6379edff57"},"geometry":{"type":"Point","coordinates":[-51.0219868,-21.7186744]}},{"type":"Feature","properties":{"municipio":"a88fca3d-f512-4fbb-84c5-5c74987afd15","title":"SP - RIOLANDIA","tipo":"Cesgranrio","url":"\/dashboard\/details-assets\/a88fca3d-f512-4fbb-84c5-5c74987afd15"},"geometry":{"type":"Point","coordinates":[-49.680085,-19.9818737]}},{"type":"Feature","properties":{"municipio":"28b9252f-2117-46c0-85ac-45b5c04c134e","title":"SE - NOSSA SENHORA DO SOCORRO","tipo":"Cesgranrio","url":"\/dashboard\/details-assets\/28b9252f-2117-46c0-85ac-45b5c04c134e"},"geometry":{"type":"Point","coordinates":[-37.1269791,-10.8531643]}},{"type":"Feature","properties":{"municipio":"c1859e13-b24c-4b61-980e-45cf1c5481a6","title":"SP - POTIM","tipo":"Cesgranrio","url":"\/dashboard\/details-assets\/c1859e13-b24c-4b61-980e-45cf1c5481a6"},"geometry":{"type":"Point","coordinates":[-45.2554893,-22.8401139]}},{"type":"Feature","properties":{"municipio":"131cf2be-b5ab-40e0-8889-4ae28be3adb5","title":"SP - CARAGUATATUBA","tipo":"Cesgranrio","url":"\/dashboard\/details-assets\/131cf2be-b5ab-40e0-8889-4ae28be3adb5"},"geometry":{"type":"Point","coordinates":[-47.079758204827,-21.777986989349]}},{"type":"Feature","properties":{"municipio":"e15c8983-05c9-4e01-8c92-4ac0c365dab7","title":"SP - SOROCABA","tipo":"Cesgranrio","url":"\/dashboard\/details-assets\/e15c8983-05c9-4e01-8c92-4ac0c365dab7"},"geometry":{"type":"Point","coordinates":[-47.457853253204,-23.499322999309]}},{"type":"Feature","properties":{"municipio":"36c0fa28-e81b-464b-9c53-4dab02f44446","title":"SP - MONGAGUA","tipo":"Cesgranrio","url":"\/dashboard\/details-assets\/36c0fa28-e81b-464b-9c53-4dab02f44446"},"geometry":{"type":"Point","coordinates":[-46.619992725371,-24.094116144296]}},{"type":"Feature","properties":{"municipio":"1cbc43f4-afbb-4868-b654-4da0f193e569","title":"SP - ANDRADINA","tipo":"Cesgranrio","url":"\/dashboard\/details-assets\/1cbc43f4-afbb-4868-b654-4da0f193e569"},"geometry":{"type":"Point","coordinates":[-51.378847794764,-20.901463514371]}},{"type":"Feature","properties":{"municipio":"75c57739-0deb-4152-9aa8-4ee94aa96540","title":"SP - SAO BERNARDO DO CAMPO","tipo":"Cesgranrio","url":"\/dashboard\/details-assets\/75c57739-0deb-4152-9aa8-4ee94aa96540"},"geometry":{"type":"Point","coordinates":[-46.550257247678,-23.710304499305]}},{"type":"Feature","properties":{"municipio":"e808abcb-54a5-42f1-9877-b65c51c818e6","title":"SP - GUARULHOS","tipo":"Cesgranrio","url":"\/dashboard\/details-assets\/e808abcb-54a5-42f1-9877-b65c51c818e6"},"geometry":{"type":"Point","coordinates":[-46.531084085661,-23.46850599931]}},{"type":"Feature","properties":{"municipio":"3cfd2099-516e-442a-9cd3-b9ef7c498c29","title":"SP - BOTUCATU","tipo":"Cesgranrio","url":"\/dashboard\/details-assets\/3cfd2099-516e-442a-9cd3-b9ef7c498c29"},"geometry":{"type":"Point","coordinates":[-48.44128938435,-22.888381499323]}},{"type":"Feature","properties":{"municipio":"3802cd20-8833-4228-b3fc-b07eae5e7990","title":"SP - SAO VICENTE","tipo":"Cesgranrio","url":"\/dashboard\/details-assets\/3802cd20-8833-4228-b3fc-b07eae5e7990"},"geometry":{"type":"Point","coordinates":[-46.384490817318,-23.967372999299]}},{"type":"Feature","properties":{"municipio":"00bb41b9-cfb8-4474-8748-b3120c03ee00","title":"SP - PIRACICABA","tipo":"Cesgranrio","url":"\/dashboard\/details-assets\/00bb41b9-cfb8-4474-8748-b3120c03ee00"},"geometry":{"type":"Point","coordinates":[-47.646846236158,-22.723721999327]}},{"type":"Feature","properties":{"municipio":"7f9f8789-16b8-4ba3-a40c-b3271fa6e221","title":"SP - ITAI","tipo":"Cesgranrio","url":"\/dashboard\/details-assets\/7f9f8789-16b8-4ba3-a40c-b3271fa6e221"},"geometry":{"type":"Point","coordinates":[-49.081032248485,-23.419055384311]}},{"type":"Feature","properties":{"municipio":"16249fd0-9270-423b-a80d-ae517e15ca09","title":"SP - MARTINOPOLIS","tipo":"Cesgranrio","url":"\/dashboard\/details-assets\/16249fd0-9270-423b-a80d-ae517e15ca09"},"geometry":{"type":"Point","coordinates":[-51.1721045,-22.1495283]}},{"type":"Feature","properties":{"municipio":"0b27de69-b3d3-436d-8480-ae2136e62fa0","title":"SP - ALVARO DE CARVALHO","tipo":"Cesgranrio","url":"\/dashboard\/details-assets\/0b27de69-b3d3-436d-8480-ae2136e62fa0"},"geometry":{"type":"Point","coordinates":[-49.720501583887,-22.080093432339]}},{"type":"Feature","properties":{"municipio":"5d939102-cc62-4f4c-a1e9-aeb242d616b6","title":"SP - VALPARAISO","tipo":"Cesgranrio","url":"\/dashboard\/details-assets\/5d939102-cc62-4f4c-a1e9-aeb242d616b6"},"geometry":{"type":"Point","coordinates":[-50.8593077,-21.2294354]}},{"type":"Feature","properties":{"municipio":"68b797d5-ea19-43e7-8805-a77436d5163a","title":"SP - PACAEMBU","tipo":"Cesgranrio","url":"\/dashboard\/details-assets\/68b797d5-ea19-43e7-8805-a77436d5163a"},"geometry":{"type":"Point","coordinates":[-51.2658432,-21.563131]}},{"type":"Feature","properties":{"municipio":"ade88ddc-ece9-401e-8bb6-ab955c580290","title":"SP - TANABI","tipo":"Cesgranrio","url":"\/dashboard\/details-assets\/ade88ddc-ece9-401e-8bb6-ab955c580290"},"geometry":{"type":"Point","coordinates":[-49.6546435,-20.6286479]}},{"type":"Feature","properties":{"municipio":"aa6c7f53-1668-4b91-a608-95b67751cf95","title":"SP - CAMPINAS","tipo":"Cesgranrio","url":"\/dashboard\/details-assets\/aa6c7f53-1668-4b91-a608-95b67751cf95"},"geometry":{"type":"Point","coordinates":[-47.060156272973,-22.907342499323]}},{"type":"Feature","properties":{"municipio":"eee6a179-88b3-4c23-a38b-91486bca8569","title":"SP - FLORINIA","tipo":"Cesgranrio","url":"\/dashboard\/details-assets\/eee6a179-88b3-4c23-a38b-91486bca8569"},"geometry":{"type":"Point","coordinates":[-50.735839566406,-22.890802003789]}},{"type":"Feature","properties":{"municipio":"c5641f03-80ec-4d9b-bd54-92318b764ca6","title":"SP - ITAPETININGA","tipo":"Cesgranrio","url":"\/dashboard\/details-assets\/c5641f03-80ec-4d9b-bd54-92318b764ca6"},"geometry":{"type":"Point","coordinates":[-48.046142895455,-23.587872499308]}},{"type":"Feature","properties":{"municipio":"d6aeb2c4-f992-4d29-8cf8-9b51a6a46b15","title":"SP - BATATAIS","tipo":"Cesgranrio","url":"\/dashboard\/details-assets\/d6aeb2c4-f992-4d29-8cf8-9b51a6a46b15"},"geometry":{"type":"Point","coordinates":[-47.586106726868,-20.891929499371]}},{"type":"Feature","properties":{"municipio":"32ecf486-cc2d-43b1-a523-84cf9e46cee1","title":"SP - ITATINGA","tipo":"Cesgranrio","url":"\/dashboard\/details-assets\/32ecf486-cc2d-43b1-a523-84cf9e46cee1"},"geometry":{"type":"Point","coordinates":[-48.6123867,-23.1067087]}},{"type":"Feature","properties":{"municipio":"f9e6313b-f725-4cc5-b9e9-8893fd0f89e8","title":"SP - MIRASSOL","tipo":"Cesgranrio","url":"\/dashboard\/details-assets\/f9e6313b-f725-4cc5-b9e9-8893fd0f89e8"},"geometry":{"type":"Point","coordinates":[-49.512139217927,-20.817004499373]}},{"type":"Feature","properties":{"municipio":"e6273799-2335-4b27-b009-88c29b17071e","title":"SP - JAU","tipo":"Cesgranrio","url":"\/dashboard\/details-assets\/e6273799-2335-4b27-b009-88c29b17071e"},"geometry":{"type":"Point","coordinates":[-48.558141387833,-22.295790989337]}},{"type":"Feature","properties":{"municipio":"79b7bd24-6a9b-4191-b01a-8c3bcb8d22ec","title":"SP - BIRIGUI","tipo":"Cesgranrio","url":"\/dashboard\/details-assets\/79b7bd24-6a9b-4191-b01a-8c3bcb8d22ec"},"geometry":{"type":"Point","coordinates":[-50.339328516987,-21.29239228761]}},{"type":"Feature","properties":{"municipio":"d928c6e1-117f-4d00-bae6-8a1f22795821","title":"TO - ANANAS","tipo":"CAEd","url":"\/dashboard\/details-assets\/d928c6e1-117f-4d00-bae6-8a1f22795821"},"geometry":{"type":"Point","coordinates":[-48.070530683984,-6.3518478530392]}},{"type":"Feature","properties":{"municipio":"f7ce3110-4553-463a-a709-c61273d09035","title":"SP - FRANCA","tipo":"Cesgranrio","url":"\/dashboard\/details-assets\/f7ce3110-4553-463a-a709-c61273d09035"},"geometry":{"type":"Point","coordinates":[-47.402331625677,-20.53609699938]}},{"type":"Feature","properties":{"municipio":"5438ad54-ba44-4d9c-9628-c653613c07f8","title":"SP - IARAS","tipo":"Cesgranrio","url":"\/dashboard\/details-assets\/5438ad54-ba44-4d9c-9628-c653613c07f8"},"geometry":{"type":"Point","coordinates":[-49.158228231641,-22.859614951149]}},{"type":"Feature","properties":{"municipio":"ebf525fc-1073-4a8f-a762-c4c6fd2d89fe","title":"SP - LIMEIRA","tipo":"Cesgranrio","url":"\/dashboard\/details-assets\/ebf525fc-1073-4a8f-a762-c4c6fd2d89fe"},"geometry":{"type":"Point","coordinates":[-47.40193952331,-22.562193999331]}},{"type":"Feature","properties":{"municipio":"54c1a6e9-f11f-43b9-98d1-c407a59f50db","title":"SP - MAUA","tipo":"Cesgranrio","url":"\/dashboard\/details-assets\/54c1a6e9-f11f-43b9-98d1-c407a59f50db"},"geometry":{"type":"Point","coordinates":[-46.4617086,-23.668163]}},{"type":"Feature","properties":{"municipio":"2f0b7b72-c528-4bd6-a7e1-c2e5a7dbd6ef","title":"SP - FERRAZ DE VASCONCELOS","tipo":"Cesgranrio","url":"\/dashboard\/details-assets\/2f0b7b72-c528-4bd6-a7e1-c2e5a7dbd6ef"},"geometry":{"type":"Point","coordinates":[-46.364493063477,-23.528796078391]}},{"type":"Feature","properties":{"municipio":"bdc24f2a-f933-49d4-9bd4-c1c831425ea2","title":"SP - LORENA","tipo":"Cesgranrio","url":"\/dashboard\/details-assets\/bdc24f2a-f933-49d4-9bd4-c1c831425ea2"},"geometry":{"type":"Point","coordinates":[-45.124248144163,-22.731693031956]}},{"type":"Feature","properties":{"municipio":"a8229d77-ac3d-46b9-acdd-e4bff61eda70","title":"SP - PRESIDENTE VENCESLAU","tipo":"Cesgranrio","url":"\/dashboard\/details-assets\/a8229d77-ac3d-46b9-acdd-e4bff61eda70"},"geometry":{"type":"Point","coordinates":[-51.840258805057,-21.875939504347]}},{"type":"Feature","properties":{"municipio":"97e09ff5-bb7d-49d7-bfd0-eb248f4f176b","title":"SP - MAIRINQUE","tipo":"Cesgranrio","url":"\/dashboard\/details-assets\/97e09ff5-bb7d-49d7-bfd0-eb248f4f176b"},"geometry":{"type":"Point","coordinates":[-47.1947232,-23.5297232]}},{"type":"Feature","properties":{"municipio":"5ee3d3b1-3a24-4e07-88ff-eeeb208a0392","title":"SP - TAUBATE","tipo":"Cesgranrio","url":"\/dashboard\/details-assets\/5ee3d3b1-3a24-4e07-88ff-eeeb208a0392"},"geometry":{"type":"Point","coordinates":[-45.5563555,-23.0204559]}},{"type":"Feature","properties":{"municipio":"aa795af3-b731-4517-89e7-f149801dceee","title":"SP - ICEM","tipo":"Cesgranrio","url":"\/dashboard\/details-assets\/aa795af3-b731-4517-89e7-f149801dceee"},"geometry":{"type":"Point","coordinates":[-49.1625989,-20.4053212]}},{"type":"Feature","properties":{"municipio":"f56cdd6a-49ae-4dc2-8878-f05a753c84cb","title":"SP - PRACINHA","tipo":"Cesgranrio","url":"\/dashboard\/details-assets\/f56cdd6a-49ae-4dc2-8878-f05a753c84cb"},"geometry":{"type":"Point","coordinates":[-46.4124616,-24.0088421]}},{"type":"Feature","properties":{"municipio":"a121022e-b64d-4e41-909a-f42416460fb3","title":"SP - ITAQUAQUECETUBA","tipo":"Cesgranrio","url":"\/dashboard\/details-assets\/a121022e-b64d-4e41-909a-f42416460fb3"},"geometry":{"type":"Point","coordinates":[-46.351603140965,-23.47689749931]}},{"type":"Feature","properties":{"municipio":"29de9587-f7c1-4780-acf5-f53b188e3273","title":"SP - ARARAQUARA","tipo":"Cesgranrio","url":"\/dashboard\/details-assets\/29de9587-f7c1-4780-acf5-f53b188e3273"},"geometry":{"type":"Point","coordinates":[-48.174439937544,-21.790359499349]}},{"type":"Feature","properties":{"municipio":"6cf814ee-2ada-4b5d-887a-d0fc320706c5","title":"SP - IPERO","tipo":"Cesgranrio","url":"\/dashboard\/details-assets\/6cf814ee-2ada-4b5d-887a-d0fc320706c5"},"geometry":{"type":"Point","coordinates":[-47.6939091,-23.3518726]}},{"type":"Feature","properties":{"municipio":"cc2fef1a-90d3-48e9-b64e-d0169ad6374d","title":"SP - SAO CARLOS","tipo":"Cesgranrio","url":"\/dashboard\/details-assets\/cc2fef1a-90d3-48e9-b64e-d0169ad6374d"},"geometry":{"type":"Point","coordinates":[-53.017394273321,-27.078635077131]}},{"type":"Feature","properties":{"municipio":"73619e55-2031-4647-b5fc-c7f5aeb11eab","title":"SP - PIRAJUI","tipo":"Cesgranrio","url":"\/dashboard\/details-assets\/73619e55-2031-4647-b5fc-c7f5aeb11eab"},"geometry":{"type":"Point","coordinates":[-49.457917,-21.974887]}},{"type":"Feature","properties":{"municipio":"c1697970-4cf2-43c7-a313-d83adb0dacae","title":"SP - BERNARDINO DE CAMPOS","tipo":"Cesgranrio","url":"\/dashboard\/details-assets\/c1697970-4cf2-43c7-a313-d83adb0dacae"},"geometry":{"type":"Point","coordinates":[-49.4731864,-23.0147985]}},{"type":"Feature","properties":{"municipio":"9fd53054-63b4-4fae-b0b2-d79f1b691c56","title":"SP - GUAREI","tipo":"Cesgranrio","url":"\/dashboard\/details-assets\/9fd53054-63b4-4fae-b0b2-d79f1b691c56"},"geometry":{"type":"Point","coordinates":[-48.1841739,-23.3718457]}},{"type":"Feature","properties":{"municipio":"f1dc1600-cf97-4675-908e-d6ac256fcb97","title":"SP - PONTAL","tipo":"Cesgranrio","url":"\/dashboard\/details-assets\/f1dc1600-cf97-4675-908e-d6ac256fcb97"},"geometry":{"type":"Point","coordinates":[-48.037837302542,-21.025709999367]}},{"type":"Feature","properties":{"municipio":"ce4814d4-de21-4958-a5d7-d6c5185a5e13","title":"SP - GETULINA","tipo":"Cesgranrio","url":"\/dashboard\/details-assets\/ce4814d4-de21-4958-a5d7-d6c5185a5e13"},"geometry":{"type":"Point","coordinates":[-49.922515898438,-21.787247389831]}},{"type":"Feature","properties":{"municipio":"dcb9cb99-f7c7-4dd3-a7db-dae1a7fbf671","title":"SP - ITAPECERICA DA SERRA","tipo":"Cesgranrio","url":"\/dashboard\/details-assets\/dcb9cb99-f7c7-4dd3-a7db-dae1a7fbf671"},"geometry":{"type":"Point","coordinates":[-46.850551966852,-23.715356999305]}},{"type":"Feature","properties":{"municipio":"3c5a0dc1-21c7-4387-b40a-e2d2ac55a646","title":"SP - BRAGANCA PAULISTA","tipo":"Cesgranrio","url":"\/dashboard\/details-assets\/3c5a0dc1-21c7-4387-b40a-e2d2ac55a646"},"geometry":{"type":"Point","coordinates":[-46.54233337398,-22.956895499322]}},{"type":"Feature","properties":{"municipio":"f111d2c1-37bf-4d98-baba-def3b825f1b5","title":"SP - MOJI MIRIM","tipo":"Cesgranrio","url":"\/dashboard\/details-assets\/f111d2c1-37bf-4d98-baba-def3b825f1b5"},"geometry":{"type":"Point","coordinates":[-46.956367126579,-22.432695499334]}},{"type":"Feature","properties":{"municipio":"55cafd2c-8ed0-4bd1-a452-dddfb71133bd","title":"SP - SERRA AZUL","tipo":"Cesgranrio","url":"\/dashboard\/details-assets\/55cafd2c-8ed0-4bd1-a452-dddfb71133bd"},"geometry":{"type":"Point","coordinates":[-47.5642475,-21.311503]}},{"type":"Feature","properties":{"municipio":"9bb1ce29-2f7b-4c12-927d-dc91913b773f","title":"SP - GUARUJA","tipo":"Cesgranrio","url":"\/dashboard\/details-assets\/9bb1ce29-2f7b-4c12-927d-dc91913b773f"},"geometry":{"type":"Point","coordinates":[-46.2568758,-23.9949104]}},{"type":"Feature","properties":{"municipio":"66f0f15d-b4b0-4040-8c5b-fd66ce29e06a","title":"SP - DRACENA","tipo":"Cesgranrio","url":"\/dashboard\/details-assets\/66f0f15d-b4b0-4040-8c5b-fd66ce29e06a"},"geometry":{"type":"Point","coordinates":[-51.534049660063,-21.486137534356]}},{"type":"Feature","properties":{"municipio":"10f4a72d-0ed3-40dd-a56a-fe13f02607b3","title":"SP - RIBEIRAO PRETO","tipo":"Cesgranrio","url":"\/dashboard\/details-assets\/10f4a72d-0ed3-40dd-a56a-fe13f02607b3"},"geometry":{"type":"Point","coordinates":[-47.805475915541,-21.184834499364]}},{"type":"Feature","properties":{"municipio":"c4d963ac-7edc-4bf2-8d92-3c4b1a5dceb6","title":"RS - GUAIBA","tipo":"FGV","url":"\/dashboard\/details-assets\/c4d963ac-7edc-4bf2-8d92-3c4b1a5dceb6"},"geometry":{"type":"Point","coordinates":[-51.314683663725,-30.108601921554]}},{"type":"Feature","properties":{"municipio":"79cf5e53-2eb9-4c4c-8c8e-3b3ca8897ec7","title":"RN - MOSSORO","tipo":"CAEd","url":"\/dashboard\/details-assets\/79cf5e53-2eb9-4c4c-8c8e-3b3ca8897ec7"},"geometry":{"type":"Point","coordinates":[-37.356874136704,-5.1938012345383]}},{"type":"Feature","properties":{"municipio":"535e27e2-eb5e-4902-babf-3a695ed9cca8","title":"SC - SAO JOSE","tipo":"CAEd","url":"\/dashboard\/details-assets\/535e27e2-eb5e-4902-babf-3a695ed9cca8"},"geometry":{"type":"Point","coordinates":[-48.6370861,-27.6140791]}},{"type":"Feature","properties":{"municipio":"e98bc2bc-97b3-400b-86ea-137a42f5b1c5","title":"RO - VILHENA","tipo":"FGV","url":"\/dashboard\/details-assets\/e98bc2bc-97b3-400b-86ea-137a42f5b1c5"},"geometry":{"type":"Point","coordinates":[-60.138583866099,-12.741373471396]}},{"type":"Feature","properties":{"municipio":"a6871523-ddd0-46f6-bef3-130bf8a99a6e","title":"RS - CANGUCU","tipo":"FGV","url":"\/dashboard\/details-assets\/a6871523-ddd0-46f6-bef3-130bf8a99a6e"},"geometry":{"type":"Point","coordinates":[-52.6787852,-31.3964785]}},{"type":"Feature","properties":{"municipio":"0c8761aa-4f69-4716-b745-14b15bba86cb","title":"RS - LAGOA VERMELHA","tipo":"FGV","url":"\/dashboard\/details-assets\/0c8761aa-4f69-4716-b745-14b15bba86cb"},"geometry":{"type":"Point","coordinates":[-51.524456938379,-28.203335644645]}},{"type":"Feature","properties":{"municipio":"3c5a3fc1-63eb-4fa1-8f07-11d7b2fe4b1d","title":"SC - PORTO UNIAO","tipo":"CAEd","url":"\/dashboard\/details-assets\/3c5a3fc1-63eb-4fa1-8f07-11d7b2fe4b1d"},"geometry":{"type":"Point","coordinates":[-51.0817102,-26.2389124]}},{"type":"Feature","properties":{"municipio":"7dc0fdb2-65b6-4921-8313-17d00b0b36c3","title":"SC - PALHOCA","tipo":"CAEd","url":"\/dashboard\/details-assets\/7dc0fdb2-65b6-4921-8313-17d00b0b36c3"},"geometry":{"type":"Point","coordinates":[-48.670287918712,-27.647043682915]}},{"type":"Feature","properties":{"municipio":"85aed8d0-09fc-4a2d-8623-0124e081670f","title":"RS - CHARQUEADAS","tipo":"FGV","url":"\/dashboard\/details-assets\/85aed8d0-09fc-4a2d-8623-0124e081670f"},"geometry":{"type":"Point","coordinates":[-51.625006052185,-29.956800362228]}},{"type":"Feature","properties":{"municipio":"7fd149c1-daaa-47cf-aa83-0289747ad244","title":"RS - CANOAS","tipo":"FGV","url":"\/dashboard\/details-assets\/7fd149c1-daaa-47cf-aa83-0289747ad244"},"geometry":{"type":"Point","coordinates":[-51.181029780688,-29.918696705674]}},{"type":"Feature","properties":{"municipio":"85134b77-915e-42e9-b51f-0dba4acacbce","title":"RS - TORRES","tipo":"FGV","url":"\/dashboard\/details-assets\/85134b77-915e-42e9-b51f-0dba4acacbce"},"geometry":{"type":"Point","coordinates":[-49.723909,-29.3344108]}},{"type":"Feature","properties":{"municipio":"ece27887-1f3c-4d61-98c9-06ccff8e813b","title":"RS - SAO LUIZ GONZAGA","tipo":"FGV","url":"\/dashboard\/details-assets\/ece27887-1f3c-4d61-98c9-06ccff8e813b"},"geometry":{"type":"Point","coordinates":[-54.964519740039,-28.405713068625]}},{"type":"Feature","properties":{"municipio":"5ffeceb4-e2db-426a-b8a2-26e8d74dfa46","title":"RS - CAXIAS DO SUL","tipo":"FGV","url":"\/dashboard\/details-assets\/5ffeceb4-e2db-426a-b8a2-26e8d74dfa46"},"geometry":{"type":"Point","coordinates":[-51.178860205883,-29.166899010259]}},{"type":"Feature","properties":{"municipio":"709a40b8-fd68-43a3-9e88-26632836a8ba","title":"RN - PARNAMIRIM","tipo":"CAEd","url":"\/dashboard\/details-assets\/709a40b8-fd68-43a3-9e88-26632836a8ba"},"geometry":{"type":"Point","coordinates":[-39.575786822973,-8.0901383269058]}},{"type":"Feature","properties":{"municipio":"ec2f5f54-cef0-48ab-9127-1ed7c28890cf","title":"RS - MONTENEGRO","tipo":"FGV","url":"\/dashboard\/details-assets\/ec2f5f54-cef0-48ab-9127-1ed7c28890cf"},"geometry":{"type":"Point","coordinates":[-51.4684153,-29.6829126]}},{"type":"Feature","properties":{"municipio":"5ee22b67-3c90-4447-9dfa-36d1811d4786","title":"RS - ALEGRETE","tipo":"FGV","url":"\/dashboard\/details-assets\/5ee22b67-3c90-4447-9dfa-36d1811d4786"},"geometry":{"type":"Point","coordinates":[-55.784796088281,-29.773179717428]}},{"type":"Feature","properties":{"municipio":"7dccd3f7-bdf7-4a3c-984c-36f0c9322107","title":"SC - CHAPECO","tipo":"CAEd","url":"\/dashboard\/details-assets\/7dccd3f7-bdf7-4a3c-984c-36f0c9322107"},"geometry":{"type":"Point","coordinates":[-52.615699,-27.1009343]}},{"type":"Feature","properties":{"municipio":"b2bcfe40-5f78-4a9f-810b-347e192685df","title":"RS - CAMAQUA","tipo":"FGV","url":"\/dashboard\/details-assets\/b2bcfe40-5f78-4a9f-810b-347e192685df"},"geometry":{"type":"Point","coordinates":[-51.8048311,-30.8493976]}},{"type":"Feature","properties":{"municipio":"806576c9-f8c4-43b0-8a90-3316dca72430","title":"SC - CONCORDIA","tipo":"CAEd","url":"\/dashboard\/details-assets\/806576c9-f8c4-43b0-8a90-3316dca72430"},"geometry":{"type":"Point","coordinates":[-52.023971069748,-27.233658779286]}},{"type":"Feature","properties":{"municipio":"88cff1dc-5acb-40b9-9dd4-2ec2bfeb8fa6","title":"RO - GUAJARA-MIRIM","tipo":"FGV","url":"\/dashboard\/details-assets\/88cff1dc-5acb-40b9-9dd4-2ec2bfeb8fa6"},"geometry":{"type":"Point","coordinates":[-65.323951819692,-10.773883740323]}},{"type":"Feature","properties":{"municipio":"4e21742b-97ae-4e4d-9a9e-2de82629ef0e","title":"SC - RIO DO SUL","tipo":"CAEd","url":"\/dashboard\/details-assets\/4e21742b-97ae-4e4d-9a9e-2de82629ef0e"},"geometry":{"type":"Point","coordinates":[-49.6435018,-27.2160932]}},{"type":"Feature","properties":{"municipio":"5255274c-5589-4b0c-8f8c-2df6a42d0674","title":"RJ - SAO GONCALO","tipo":"Cesgranrio","url":"\/dashboard\/details-assets\/5255274c-5589-4b0c-8f8c-2df6a42d0674"},"geometry":{"type":"Point","coordinates":[-43.0637646,-22.8272883]}},{"type":"Feature","properties":{"municipio":"ff1132ae-e8dc-47d3-8248-2fd0d0b02e42","title":"RS - JULIO DE CASTILHO","tipo":"FGV","url":"\/dashboard\/details-assets\/ff1132ae-e8dc-47d3-8248-2fd0d0b02e42"},"geometry":{"type":"Point","coordinates":[-53.6827015,-29.2293516]}},{"type":"Feature","properties":{"municipio":"3551861b-6acb-4bdf-9441-304f01a260df","title":"SC - TIJUCAS","tipo":"CAEd","url":"\/dashboard\/details-assets\/3551861b-6acb-4bdf-9441-304f01a260df"},"geometry":{"type":"Point","coordinates":[-48.63207056387,-27.239453606442]}},{"type":"Feature","properties":{"municipio":"36772ad9-5795-421d-a046-4f15ca802249","title":"SC - CACADOR","tipo":"CAEd","url":"\/dashboard\/details-assets\/36772ad9-5795-421d-a046-4f15ca802249"},"geometry":{"type":"Point","coordinates":[-51.019034758998,-26.775347671959]}},{"type":"Feature","properties":{"municipio":"7ca91ff2-0027-474d-baf2-4d5dfb2ff1ee","title":"RS - URUGUAIANA","tipo":"FGV","url":"\/dashboard\/details-assets\/7ca91ff2-0027-474d-baf2-4d5dfb2ff1ee"},"geometry":{"type":"Point","coordinates":[-57.0858428,-29.7619121]}},{"type":"Feature","properties":{"municipio":"ec65cb0b-200c-4d8c-be78-4a7916171f55","title":"RS - PALMEIRA DAS MISSOES","tipo":"FGV","url":"\/dashboard\/details-assets\/ec65cb0b-200c-4d8c-be78-4a7916171f55"},"geometry":{"type":"Point","coordinates":[-53.3140353,-27.9001784]}},{"type":"Feature","properties":{"municipio":"c2af44de-af19-4a39-a50e-4a9a9b442fa7","title":"RS - FREDERICO WESTPHALEN","tipo":"FGV","url":"\/dashboard\/details-assets\/c2af44de-af19-4a39-a50e-4a9a9b442fa7"},"geometry":{"type":"Point","coordinates":[-53.3963199,-27.3607338]}},{"type":"Feature","properties":{"municipio":"09204bd9-507e-4f93-8a06-4bd02b642caa","title":"SC - CAMPOS NOVOS","tipo":"CAEd","url":"\/dashboard\/details-assets\/09204bd9-507e-4f93-8a06-4bd02b642caa"},"geometry":{"type":"Point","coordinates":[-51.2258597,-27.4009891]}},{"type":"Feature","properties":{"municipio":"7e09e767-b6bb-4732-951d-44e56d93e428","title":"SC - FLORIANOPOLIS","tipo":"CAEd","url":"\/dashboard\/details-assets\/7e09e767-b6bb-4732-951d-44e56d93e428"},"geometry":{"type":"Point","coordinates":[-48.547637378193,-27.587795547775]}},{"type":"Feature","properties":{"municipio":"d3c1ec22-ba8c-4ab8-a23b-428092693ed8","title":"RS - PORTO ALEGRE","tipo":"FGV","url":"\/dashboard\/details-assets\/d3c1ec22-ba8c-4ab8-a23b-428092693ed8"},"geometry":{"type":"Point","coordinates":[-51.2176584,-30.0346471]}},{"type":"Feature","properties":{"municipio":"c8292085-b882-496b-848f-491797a4dec4","title":"RS - CRUZ ALTA","tipo":"FGV","url":"\/dashboard\/details-assets\/c8292085-b882-496b-848f-491797a4dec4"},"geometry":{"type":"Point","coordinates":[-53.605355,-28.6454883]}},{"type":"Feature","properties":{"municipio":"b5eb87c9-bfc2-4945-8b20-466cc6f48efa","title":"RS - JAGUARI","tipo":"FGV","url":"\/dashboard\/details-assets\/b5eb87c9-bfc2-4945-8b20-466cc6f48efa"},"geometry":{"type":"Point","coordinates":[-54.6533747,-29.4848659]}},{"type":"Feature","properties":{"municipio":"bc5459ce-c014-4b84-a4c2-5970f82ef7c6","title":"RS - TRES PASSOS","tipo":"FGV","url":"\/dashboard\/details-assets\/bc5459ce-c014-4b84-a4c2-5970f82ef7c6"},"geometry":{"type":"Point","coordinates":[-53.929698958011,-27.45615988307]}},{"type":"Feature","properties":{"municipio":"f4cda746-9f4a-4097-bb10-57fb754e1183","title":"RS - CACHOEIRA DO SUL","tipo":"FGV","url":"\/dashboard\/details-assets\/f4cda746-9f4a-4097-bb10-57fb754e1183"},"geometry":{"type":"Point","coordinates":[-52.893221,-30.0336816]}},{"type":"Feature","properties":{"municipio":"04081224-de73-411c-9676-582484911e3d","title":"RS - PASSO FUNDO","tipo":"FGV","url":"\/dashboard\/details-assets\/04081224-de73-411c-9676-582484911e3d"},"geometry":{"type":"Point","coordinates":[-52.407095092617,-28.261767127117]}},{"type":"Feature","properties":{"municipio":"bcb2f4d5-8a74-4817-aa2c-5880e54a756e","title":"RS - SAO JERONIMO","tipo":"FGV","url":"\/dashboard\/details-assets\/bcb2f4d5-8a74-4817-aa2c-5880e54a756e"},"geometry":{"type":"Point","coordinates":[-51.7250108,-29.962127]}},{"type":"Feature","properties":{"municipio":"a5514dd5-e22d-4667-99ec-5535fb509dc2","title":"RS - OSORIO","tipo":"FGV","url":"\/dashboard\/details-assets\/a5514dd5-e22d-4667-99ec-5535fb509dc2"},"geometry":{"type":"Point","coordinates":[-50.284867704687,-29.852781436418]}},{"type":"Feature","properties":{"municipio":"29093e50-bbc8-49f5-887c-56c154b3d8d3","title":"RS - ARROIO DO MEIO","tipo":"FGV","url":"\/dashboard\/details-assets\/29093e50-bbc8-49f5-887c-56c154b3d8d3"},"geometry":{"type":"Point","coordinates":[-51.947449491614,-29.398890718329]}},{"type":"Feature","properties":{"municipio":"8d3b92e5-4911-41e3-ae8d-50560f0d18f5","title":"RS - SARANDI","tipo":"FGV","url":"\/dashboard\/details-assets\/8d3b92e5-4911-41e3-ae8d-50560f0d18f5"},"geometry":{"type":"Point","coordinates":[-52.9164069,-27.946449]}},{"type":"Feature","properties":{"municipio":"476f344c-7d47-4eda-a123-671fa6e5ec35","title":"RS - GUAPORE","tipo":"FGV","url":"\/dashboard\/details-assets\/476f344c-7d47-4eda-a123-671fa6e5ec35"},"geometry":{"type":"Point","coordinates":[-51.8901313,-28.8479263]}},{"type":"Feature","properties":{"municipio":"e0c0830e-24e5-4610-a545-60c22ae0dc27","title":"RS - TAQUARA","tipo":"FGV","url":"\/dashboard\/details-assets\/e0c0830e-24e5-4610-a545-60c22ae0dc27"},"geometry":{"type":"Point","coordinates":[-50.781168619256,-29.650513103464]}},{"type":"Feature","properties":{"municipio":"0326a5ff-3857-4e66-b5c1-614ed3b20ce9","title":"SC - ARARANGUA","tipo":"CAEd","url":"\/dashboard\/details-assets\/0326a5ff-3857-4e66-b5c1-614ed3b20ce9"},"geometry":{"type":"Point","coordinates":[-49.4923013,-28.9361187]}},{"type":"Feature","properties":{"municipio":"c1252d9a-7b40-41cd-931f-74d1e0bbb701","title":"RS - NOVO HAMBURGO","tipo":"FGV","url":"\/dashboard\/details-assets\/c1252d9a-7b40-41cd-931f-74d1e0bbb701"},"geometry":{"type":"Point","coordinates":[-51.1255697,-29.6918991]}},{"type":"Feature","properties":{"municipio":"b5a019f9-9cdf-45d5-977d-73b5e32d6f81","title":"SC - VIDEIRA","tipo":"CAEd","url":"\/dashboard\/details-assets\/b5a019f9-9cdf-45d5-977d-73b5e32d6f81"},"geometry":{"type":"Point","coordinates":[-51.151705282833,-27.006129067206]}},{"type":"Feature","properties":{"municipio":"4550f19c-3a89-47ed-baf9-7047fd30f123","title":"RS - SANTO ANGELO","tipo":"FGV","url":"\/dashboard\/details-assets\/4550f19c-3a89-47ed-baf9-7047fd30f123"},"geometry":{"type":"Point","coordinates":[-54.264142798427,-28.301937872559]}},{"type":"Feature","properties":{"municipio":"21217bd5-bcb9-4e7c-a225-6da8d0445854","title":"RO - JARU","tipo":"FGV","url":"\/dashboard\/details-assets\/21217bd5-bcb9-4e7c-a225-6da8d0445854"},"geometry":{"type":"Point","coordinates":[-62.476230708132,-10.435948767548]}},{"type":"Feature","properties":{"municipio":"7a59f03b-8819-4e60-8cd4-6af9473ae1a4","title":"RO - PORTO VELHO","tipo":"FGV","url":"\/dashboard\/details-assets\/7a59f03b-8819-4e60-8cd4-6af9473ae1a4"},"geometry":{"type":"Point","coordinates":[-63.831445654361,-8.7688917897153]}},{"type":"Feature","properties":{"municipio":"8a98eaf6-b524-4010-a41a-7f80d6d32741","title":"RS - SAO SAPE","tipo":"FGV","url":"\/dashboard\/details-assets\/8a98eaf6-b524-4010-a41a-7f80d6d32741"},"geometry":{"type":"Point","coordinates":[-53.5718212,-30.1639889]}},{"type":"Feature","properties":{"municipio":"4fa1c7bd-331d-48db-afcc-835a21a3653e","title":"SC - MARAVILHA","tipo":"CAEd","url":"\/dashboard\/details-assets\/4fa1c7bd-331d-48db-afcc-835a21a3653e"},"geometry":{"type":"Point","coordinates":[-53.174818815895,-26.761623946503]}},{"type":"Feature","properties":{"municipio":"5ad1b119-e352-4b9f-8a8c-790744ff0363","title":"SC - ITAJAI","tipo":"CAEd","url":"\/dashboard\/details-assets\/5ad1b119-e352-4b9f-8a8c-790744ff0363"},"geometry":{"type":"Point","coordinates":[-48.6709133,-26.9107052]}},{"type":"Feature","properties":{"municipio":"3c33a3f9-338c-4383-97f5-791718a82a7d","title":"RJ - NOVA IGUACU","tipo":"Cesgranrio","url":"\/dashboard\/details-assets\/3c33a3f9-338c-4383-97f5-791718a82a7d"},"geometry":{"type":"Point","coordinates":[-43.4607419,-22.7561319]}},{"type":"Feature","properties":{"municipio":"ff0bf9a8-7160-43ee-9b10-7b933e56d5c5","title":"SC - SAO JOSE DO CEDRO","tipo":"CAEd","url":"\/dashboard\/details-assets\/ff0bf9a8-7160-43ee-9b10-7b933e56d5c5"},"geometry":{"type":"Point","coordinates":[-53.4994236,-26.4554731]}},{"type":"Feature","properties":{"municipio":"9229ba5f-fc25-4507-97e8-c3be1989c89f","title":"RO - ARIQUEMES","tipo":"FGV","url":"\/dashboard\/details-assets\/9229ba5f-fc25-4507-97e8-c3be1989c89f"},"geometry":{"type":"Point","coordinates":[-63.0330263,-9.9061087]}},{"type":"Feature","properties":{"municipio":"14ddfbd6-12ee-4459-b68a-c38094330a88","title":"RS - ROSARIO DO SUL","tipo":"FGV","url":"\/dashboard\/details-assets\/14ddfbd6-12ee-4459-b68a-c38094330a88"},"geometry":{"type":"Point","coordinates":[-54.9226452,-30.2488032]}},{"type":"Feature","properties":{"municipio":"2c6d1ac4-5e28-44c9-8600-c472fd8a1325","title":"RS - DOM PEDRITO","tipo":"FGV","url":"\/dashboard\/details-assets\/2c6d1ac4-5e28-44c9-8600-c472fd8a1325"},"geometry":{"type":"Point","coordinates":[-54.665005061133,-30.97105039377]}},{"type":"Feature","properties":{"municipio":"8ea17700-b201-4e1d-9e71-c5560fcbc968","title":"RJ - NOVA FRIBURGO","tipo":"Cesgranrio","url":"\/dashboard\/details-assets\/8ea17700-b201-4e1d-9e71-c5560fcbc968"},"geometry":{"type":"Point","coordinates":[-42.5340796,-22.2887261]}},{"type":"Feature","properties":{"municipio":"81605b04-26fa-476b-bccb-bd60f267ff6b","title":"RS - CARAZINHO","tipo":"FGV","url":"\/dashboard\/details-assets\/81605b04-26fa-476b-bccb-bd60f267ff6b"},"geometry":{"type":"Point","coordinates":[-52.793776,-28.2963334]}},{"type":"Feature","properties":{"municipio":"419d00ea-b679-4623-8c62-bd689a2a3ffa","title":"SC - CANOINHAS","tipo":"CAEd","url":"\/dashboard\/details-assets\/419d00ea-b679-4623-8c62-bd689a2a3ffa"},"geometry":{"type":"Point","coordinates":[-50.392923560156,-26.160361677561]}},{"type":"Feature","properties":{"municipio":"19fcc8e8-6d26-450b-a523-c01c619ee9fb","title":"RS - SAO  LEOPOLDO","tipo":"FGV","url":"\/dashboard\/details-assets\/19fcc8e8-6d26-450b-a523-c01c619ee9fb"},"geometry":{"type":"Point","coordinates":[-50.392923560156,-26.160361677561]}},{"type":"Feature","properties":{"municipio":"bdacf35a-9030-4ed8-9273-c03dadcab2d2","title":"SC - ITAPEMA","tipo":"CAEd","url":"\/dashboard\/details-assets\/bdacf35a-9030-4ed8-9273-c03dadcab2d2"},"geometry":{"type":"Point","coordinates":[-48.6178074,-27.0960682]}},{"type":"Feature","properties":{"municipio":"0c349b40-f8b1-4fd4-a299-c07401588e2b","title":"RJ - VOLTA REDONDA","tipo":"Cesgranrio","url":"\/dashboard\/details-assets\/0c349b40-f8b1-4fd4-a299-c07401588e2b"},"geometry":{"type":"Point","coordinates":[-44.0947303,-22.5077597]}},{"type":"Feature","properties":{"municipio":"ba399cd0-afb6-44eb-a5b8-c09fe76e1eb2","title":"RS - SANTA MARIA","tipo":"FGV","url":"\/dashboard\/details-assets\/ba399cd0-afb6-44eb-a5b8-c09fe76e1eb2"},"geometry":{"type":"Point","coordinates":[-53.8154499,-29.68725]}},{"type":"Feature","properties":{"municipio":"aa9aa8ac-e4cf-4a2c-961a-8d08a954f91a","title":"RS - ARRIO DOS RATOS","tipo":"FGV","url":"\/dashboard\/details-assets\/aa9aa8ac-e4cf-4a2c-961a-8d08a954f91a"},"geometry":{"type":"Point","coordinates":[-51.7279954,-30.0880438]}},{"type":"Feature","properties":{"municipio":"e15cc1f3-ee7a-4af8-9b39-8d7718df5ff8","title":"RS - VACARIA","tipo":"FGV","url":"\/dashboard\/details-assets\/e15cc1f3-ee7a-4af8-9b39-8d7718df5ff8"},"geometry":{"type":"Point","coordinates":[-50.936599164121,-28.502354394395]}},{"type":"Feature","properties":{"municipio":"0d0799c0-d7a1-403e-9c68-8e5203012fd7","title":"SC - IMBITUBA","tipo":"CAEd","url":"\/dashboard\/details-assets\/0d0799c0-d7a1-403e-9c68-8e5203012fd7"},"geometry":{"type":"Point","coordinates":[-48.669284196923,-28.239951113226]}},{"type":"Feature","properties":{"municipio":"06675857-a040-4009-be80-904abde56b32","title":"RS - SANT ANA DO LIVRAMENTO","tipo":"FGV","url":"\/dashboard\/details-assets\/06675857-a040-4009-be80-904abde56b32"},"geometry":{"type":"Point","coordinates":[-55.5392304,-30.8772854]}},{"type":"Feature","properties":{"municipio":"eb74a806-ecc6-4ccc-b5a2-891d13cf653b","title":"SC - CURITIBANOS","tipo":"CAEd","url":"\/dashboard\/details-assets\/eb74a806-ecc6-4ccc-b5a2-891d13cf653b"},"geometry":{"type":"Point","coordinates":[-50.582601035262,-27.282982505697]}},{"type":"Feature","properties":{"municipio":"5e8b6c40-6f48-4601-84e7-86523e40cbe9","title":"RN - CAICO","tipo":"CAEd","url":"\/dashboard\/details-assets\/5e8b6c40-6f48-4601-84e7-86523e40cbe9"},"geometry":{"type":"Point","coordinates":[-37.096488771192,-6.4591388311821]}},{"type":"Feature","properties":{"municipio":"589fff97-1da8-48c5-b771-9aaad5674e1e","title":"RJ - NITEROI","tipo":"Cesgranrio","url":"\/dashboard\/details-assets\/589fff97-1da8-48c5-b771-9aaad5674e1e"},"geometry":{"type":"Point","coordinates":[-43.1152211,-22.8858975]}},{"type":"Feature","properties":{"municipio":"4925fe29-6bbb-4069-942f-99c1c852c577","title":"RO - CACOAL","tipo":"FGV","url":"\/dashboard\/details-assets\/4925fe29-6bbb-4069-942f-99c1c852c577"},"geometry":{"type":"Point","coordinates":[-61.442944211822,-11.433865028318]}},{"type":"Feature","properties":{"municipio":"d6be207c-39d5-41da-b3cf-95e7995eebed","title":"RS - BAGE","tipo":"FGV","url":"\/dashboard\/details-assets\/d6be207c-39d5-41da-b3cf-95e7995eebed"},"geometry":{"type":"Point","coordinates":[-54.1004709,-31.3301746]}},{"type":"Feature","properties":{"municipio":"07fcff75-7d12-46de-b3b6-9535ec790ad6","title":"RS - SANTA CRUZ DO SUL","tipo":"FGV","url":"\/dashboard\/details-assets\/07fcff75-7d12-46de-b3b6-9535ec790ad6"},"geometry":{"type":"Point","coordinates":[-52.4348382,-29.722516]}},{"type":"Feature","properties":{"municipio":"ae827de8-ddc6-4fb0-8488-949330e8b6ec","title":"SC - XANXERE","tipo":"CAEd","url":"\/dashboard\/details-assets\/ae827de8-ddc6-4fb0-8488-949330e8b6ec"},"geometry":{"type":"Point","coordinates":[-52.404667138975,-26.874584498477]}},{"type":"Feature","properties":{"municipio":"cef550bf-d1d3-4288-909b-ab76bf047296","title":"RS - PRATA","tipo":"FGV","url":"\/dashboard\/details-assets\/cef550bf-d1d3-4288-909b-ab76bf047296"},"geometry":{"type":"Point","coordinates":[-51.6077771,-28.7840394]}},{"type":"Feature","properties":{"municipio":"088f13ee-c8e8-4960-a797-a6e8af982b13","title":"SC - FRANCISCO DO SUL","tipo":"CAEd","url":"\/dashboard\/details-assets\/088f13ee-c8e8-4960-a797-a6e8af982b13"},"geometry":{"type":"Point","coordinates":[-51.6077771,-28.7840394]}},{"type":"Feature","properties":{"municipio":"75faf4ec-3246-40dc-b339-a9e750811f30","title":"RJ - PORTO REAL","tipo":"Cesgranrio","url":"\/dashboard\/details-assets\/75faf4ec-3246-40dc-b339-a9e750811f30"},"geometry":{"type":"Point","coordinates":[-44.2955901,-22.4179651]}},{"type":"Feature","properties":{"municipio":"744c0eac-cdf8-43df-8696-a7a0710bdf87","title":"SC - BRUSQUE","tipo":"CAEd","url":"\/dashboard\/details-assets\/744c0eac-cdf8-43df-8696-a7a0710bdf87"},"geometry":{"type":"Point","coordinates":[-48.915163005515,-27.098310225445]}},{"type":"Feature","properties":{"municipio":"19ad5d59-eef4-45b7-902f-a7b895e0e157","title":"RS - BENTO GONCALVES","tipo":"FGV","url":"\/dashboard\/details-assets\/19ad5d59-eef4-45b7-902f-a7b895e0e157"},"geometry":{"type":"Point","coordinates":[-51.5169861,-29.1667089]}},{"type":"Feature","properties":{"municipio":"cef76b70-8f8d-430a-b0a3-a5f2bfa25cba","title":"RS - SAO FRANCISCO DE PAULA","tipo":"FGV","url":"\/dashboard\/details-assets\/cef76b70-8f8d-430a-b0a3-a5f2bfa25cba"},"geometry":{"type":"Point","coordinates":[-50.5807037,-29.445913]}},{"type":"Feature","properties":{"municipio":"ffecf872-2cbf-4670-a383-a5797b55256f","title":"RS - PELOTAS","tipo":"FGV","url":"\/dashboard\/details-assets\/ffecf872-2cbf-4670-a383-a5797b55256f"},"geometry":{"type":"Point","coordinates":[-52.34432,-31.74996529663]}},{"type":"Feature","properties":{"municipio":"756406d4-0382-44ad-9ace-a26e06162f3f","title":"RS - QUARAI","tipo":"FGV","url":"\/dashboard\/details-assets\/756406d4-0382-44ad-9ace-a26e06162f3f"},"geometry":{"type":"Point","coordinates":[-56.4488086,-30.3845133]}},{"type":"Feature","properties":{"municipio":"3979cad3-748d-43e0-a8a9-ad376a3abcde","title":"RS - SAO BORJA","tipo":"FGV","url":"\/dashboard\/details-assets\/3979cad3-748d-43e0-a8a9-ad376a3abcde"},"geometry":{"type":"Point","coordinates":[-56.0041451,-28.6583059]}},{"type":"Feature","properties":{"municipio":"6e154f27-4c9f-4fa8-b52d-ad543928c583","title":"RS - ITAQUI","tipo":"FGV","url":"\/dashboard\/details-assets\/6e154f27-4c9f-4fa8-b52d-ad543928c583"},"geometry":{"type":"Point","coordinates":[-56.5481122,-29.1294007]}},{"type":"Feature","properties":{"municipio":"9bbaa949-779e-47be-8111-ba442c148da0","title":"SC - SAO MIGUEL DO OESTE","tipo":"CAEd","url":"\/dashboard\/details-assets\/9bbaa949-779e-47be-8111-ba442c148da0"},"geometry":{"type":"Point","coordinates":[-53.518839406156,-26.726427175902]}},{"type":"Feature","properties":{"municipio":"fbb377e1-fb70-47c9-99dd-ba531b4fdbe0","title":"SC - BIGUACU","tipo":"CAEd","url":"\/dashboard\/details-assets\/fbb377e1-fb70-47c9-99dd-ba531b4fdbe0"},"geometry":{"type":"Point","coordinates":[-48.654488928951,-27.494322742697]}},{"type":"Feature","properties":{"municipio":"ce1d8308-44ac-4a5f-b42e-b8e8b40d4981","title":"SC - BARRA VELHA","tipo":"CAEd","url":"\/dashboard\/details-assets\/ce1d8308-44ac-4a5f-b42e-b8e8b40d4981"},"geometry":{"type":"Point","coordinates":[-48.6846608,-26.6331439]}},{"type":"Feature","properties":{"municipio":"dff509ba-e9eb-48e9-b595-b72db85a9f32","title":"RS - CANELA","tipo":"FGV","url":"\/dashboard\/details-assets\/dff509ba-e9eb-48e9-b595-b72db85a9f32"},"geometry":{"type":"Point","coordinates":[-50.8124263,-29.3564931]}},{"type":"Feature","properties":{"municipio":"381095b5-f9a4-4873-ba8b-ded6b29dbcd4","title":"RR - SAO LUIZ","tipo":"Cesgranrio","url":"\/dashboard\/details-assets\/381095b5-f9a4-4873-ba8b-ded6b29dbcd4"},"geometry":{"type":"Point","coordinates":[-60.1647697,0.8187674]}},{"type":"Feature","properties":{"municipio":"dbec8e45-ecf4-499f-ad65-e3ed5faa7423","title":"RS - ESPUMOSO","tipo":"FGV","url":"\/dashboard\/details-assets\/dbec8e45-ecf4-499f-ad65-e3ed5faa7423"},"geometry":{"type":"Point","coordinates":[-52.8444231,-28.7245183]}},{"type":"Feature","properties":{"municipio":"11eb5173-9c27-48ca-94a5-dae5072abce4","title":"SC - BLUMENAU","tipo":"CAEd","url":"\/dashboard\/details-assets\/11eb5173-9c27-48ca-94a5-dae5072abce4"},"geometry":{"type":"Point","coordinates":[-49.057630884361,-26.916107704544]}},{"type":"Feature","properties":{"municipio":"c30f9a40-a0c4-46fb-8163-d9b4d51f378b","title":"RS - LAJEADO","tipo":"FGV","url":"\/dashboard\/details-assets\/c30f9a40-a0c4-46fb-8163-d9b4d51f378b"},"geometry":{"type":"Point","coordinates":[-51.9678277005,-29.465454401662]}},{"type":"Feature","properties":{"municipio":"0d6cd64e-a1e9-45eb-924f-d6236f5a121a","title":"RS - SAO FRANCISCO DE ASSIS","tipo":"FGV","url":"\/dashboard\/details-assets\/0d6cd64e-a1e9-45eb-924f-d6236f5a121a"},"geometry":{"type":"Point","coordinates":[-55.1257125,-29.5549057]}},{"type":"Feature","properties":{"municipio":"96c82fac-aff6-4e9d-9fa8-c6c77a785367","title":"SC - JOACABA","tipo":"CAEd","url":"\/dashboard\/details-assets\/96c82fac-aff6-4e9d-9fa8-c6c77a785367"},"geometry":{"type":"Point","coordinates":[-51.506689733338,-27.173944528466]}},{"type":"Feature","properties":{"municipio":"5a7fa4be-610a-42c5-a9d1-c717d786108a","title":"RS - SANTIAGO","tipo":"FGV","url":"\/dashboard\/details-assets\/5a7fa4be-610a-42c5-a9d1-c717d786108a"},"geometry":{"type":"Point","coordinates":[-54.869075853789,-29.191460170091]}},{"type":"Feature","properties":{"municipio":"3cdc0463-9fb7-4f1b-93a0-ca9076bd3fe7","title":"RJ - RIO DE JANEIRO","tipo":"Cesgranrio","url":"\/dashboard\/details-assets\/3cdc0463-9fb7-4f1b-93a0-ca9076bd3fe7"},"geometry":{"type":"Point","coordinates":[-43.16743575,-22.836157221111]}},{"type":"Feature","properties":{"municipio":"51d2022d-6428-4aa0-94c2-ce522e7181b5","title":"SC - JOINVILLE","tipo":"CAEd","url":"\/dashboard\/details-assets\/51d2022d-6428-4aa0-94c2-ce522e7181b5"},"geometry":{"type":"Point","coordinates":[-48.849409143238,-26.304517647904]}},{"type":"Feature","properties":{"municipio":"bade4a5e-fe5a-4b68-8e4f-ce90f9e3441f","title":"RS - RIO GRANDE","tipo":"FGV","url":"\/dashboard\/details-assets\/bade4a5e-fe5a-4b68-8e4f-ce90f9e3441f"},"geometry":{"type":"Point","coordinates":[-52.100478064063,-32.020868229372]}},{"type":"Feature","properties":{"municipio":"6e43543a-a589-4716-b874-cfa332eba4d1","title":"RS - CACEQUI","tipo":"FGV","url":"\/dashboard\/details-assets\/6e43543a-a589-4716-b874-cfa332eba4d1"},"geometry":{"type":"Point","coordinates":[-54.8265622,-29.8801552]}},{"type":"Feature","properties":{"municipio":"be2df5ed-38b0-4b8a-ba51-d2a61bac9eb6","title":"SC - INDAIAL","tipo":"CAEd","url":"\/dashboard\/details-assets\/be2df5ed-38b0-4b8a-ba51-d2a61bac9eb6"},"geometry":{"type":"Point","coordinates":[-49.240140460015,-26.906255998476]}},{"type":"Feature","properties":{"municipio":"798cf91c-0706-4efb-a9c8-d2d8d67bfe64","title":"RS - SANTA VITORIA DO PALMAR","tipo":"FGV","url":"\/dashboard\/details-assets\/798cf91c-0706-4efb-a9c8-d2d8d67bfe64"},"geometry":{"type":"Point","coordinates":[-53.3664818,-33.5215632]}},{"type":"Feature","properties":{"municipio":"f0b814ef-d6ae-4f87-91cc-d5e57f289dd5","title":"RN - NATAL","tipo":"CAEd","url":"\/dashboard\/details-assets\/f0b814ef-d6ae-4f87-91cc-d5e57f289dd5"},"geometry":{"type":"Point","coordinates":[-35.215862788086,-5.7987202553601]}},{"type":"Feature","properties":{"municipio":"38320a8d-df9c-41aa-8be4-d4a71d976437","title":"SC - LAGES","tipo":"CAEd","url":"\/dashboard\/details-assets\/38320a8d-df9c-41aa-8be4-d4a71d976437"},"geometry":{"type":"Point","coordinates":[-50.33022242419,-27.817259462335]}},{"type":"Feature","properties":{"municipio":"f2f1afbd-cc67-4e0b-9e10-d3942e21725f","title":"RO - ALTA FLORESTA D OESTE","tipo":"FGV","url":"\/dashboard\/details-assets\/f2f1afbd-cc67-4e0b-9e10-d3942e21725f"},"geometry":{"type":"Point","coordinates":[-61.999824,-11.93554]}},{"type":"Feature","properties":{"municipio":"a93f2385-75b5-4924-8781-f60fd9d1677c","title":"RS - CACAPAVA DO SUL","tipo":"FGV","url":"\/dashboard\/details-assets\/a93f2385-75b5-4924-8781-f60fd9d1677c"},"geometry":{"type":"Point","coordinates":[-51.961482953216,-30.116144011828]}},{"type":"Feature","properties":{"municipio":"2dc05bc7-ac95-4cfa-a5c0-f4c40b464114","title":"RR - BOA VISTA","tipo":"Cesgranrio","url":"\/dashboard\/details-assets\/2dc05bc7-ac95-4cfa-a5c0-f4c40b464114"},"geometry":{"type":"Point","coordinates":[-60.670532672965,2.8166819190116]}},{"type":"Feature","properties":{"municipio":"e60ea70d-12a0-40b5-8244-f50f9b73b01f","title":"RS - SANTO CRISTO","tipo":"FGV","url":"\/dashboard\/details-assets\/e60ea70d-12a0-40b5-8244-f50f9b73b01f"},"geometry":{"type":"Point","coordinates":[-54.6630812,-27.8263074]}},{"type":"Feature","properties":{"municipio":"c5140800-c605-4fea-91d8-f3d9a53224df","title":"SC - MAFRA","tipo":"CAEd","url":"\/dashboard\/details-assets\/c5140800-c605-4fea-91d8-f3d9a53224df"},"geometry":{"type":"Point","coordinates":[-49.801037528269,-26.115228493507]}},{"type":"Feature","properties":{"municipio":"196ba3b1-104a-4bef-a2eb-f0e6ffe7ed6e","title":"SC - JARAGUA DO SUL","tipo":"CAEd","url":"\/dashboard\/details-assets\/196ba3b1-104a-4bef-a2eb-f0e6ffe7ed6e"},"geometry":{"type":"Point","coordinates":[-49.076298822802,-26.49048434866]}},{"type":"Feature","properties":{"municipio":"9120549c-310c-42a4-8a56-f25265615aef","title":"RS - ERECHIM","tipo":"FGV","url":"\/dashboard\/details-assets\/9120549c-310c-42a4-8a56-f25265615aef"},"geometry":{"type":"Point","coordinates":[-52.2740707,-27.6347754]}},{"type":"Feature","properties":{"municipio":"94a27741-98b3-4063-ada2-f763ce7aa31a","title":"RO - JI-PARANA","tipo":"FGV","url":"\/dashboard\/details-assets\/94a27741-98b3-4063-ada2-f763ce7aa31a"},"geometry":{"type":"Point","coordinates":[-61.9326728,-10.8781412]}},{"type":"Feature","properties":{"municipio":"88ec3325-bdfc-4a2a-a013-f7b0b9380b9a","title":"SC - CRICIUMA","tipo":"CAEd","url":"\/dashboard\/details-assets\/88ec3325-bdfc-4a2a-a013-f7b0b9380b9a"},"geometry":{"type":"Point","coordinates":[-49.365939558822,-28.67357225188]}},{"type":"Feature","properties":{"municipio":"ce71c611-37d1-42b1-9af8-ef85d78893bd","title":"SC - TUBARAO","tipo":"CAEd","url":"\/dashboard\/details-assets\/ce71c611-37d1-42b1-9af8-ef85d78893bd"},"geometry":{"type":"Point","coordinates":[-49.005268077025,-28.480033947059]}},{"type":"Feature","properties":{"municipio":"f10f0f87-8a34-4a8a-bd8e-f0101f5f41a3","title":"RJ - TERESOPOLIS","tipo":"Cesgranrio","url":"\/dashboard\/details-assets\/f10f0f87-8a34-4a8a-bd8e-f0101f5f41a3"},"geometry":{"type":"Point","coordinates":[-42.9756194,-22.416956]}},{"type":"Feature","properties":{"municipio":"3bce68ba-d0cc-46b3-be43-eb1bbfedd027","title":"RO - MACHADINHO D OESTE","tipo":"FGV","url":"\/dashboard\/details-assets\/3bce68ba-d0cc-46b3-be43-eb1bbfedd027"},"geometry":{"type":"Point","coordinates":[-61.999592572447,-9.4255624796948]}},{"type":"Feature","properties":{"municipio":"f95f6bc0-a1a2-4987-a991-e62e3e866786","title":"RS - VENANCIO AIRES","tipo":"FGV","url":"\/dashboard\/details-assets\/f95f6bc0-a1a2-4987-a991-e62e3e866786"},"geometry":{"type":"Point","coordinates":[-52.19188024049,-29.611652891844]}},{"type":"Feature","properties":{"municipio":"5a4a97d5-3642-46c5-bc6c-e71fece2d921","title":"SC - SAO CRISTOVAO DO SUL","tipo":"CAEd","url":"\/dashboard\/details-assets\/5a4a97d5-3642-46c5-bc6c-e71fece2d921"},"geometry":{"type":"Point","coordinates":[-50.3275427,-27.3167602]}},{"type":"Feature","properties":{"municipio":"a9c30502-fc64-4c41-81ab-e6e55de6c483","title":"RS - IJUI","tipo":"FGV","url":"\/dashboard\/details-assets\/a9c30502-fc64-4c41-81ab-e6e55de6c483"},"geometry":{"type":"Point","coordinates":[-53.918066835708,-28.388536540195]}},{"type":"Feature","properties":{"municipio":"c603dbd1-f215-4ad9-b3c9-e857e8764157","title":"SC - LAGUNA","tipo":"CAEd","url":"\/dashboard\/details-assets\/c603dbd1-f215-4ad9-b3c9-e857e8764157"},"geometry":{"type":"Point","coordinates":[-48.781388621799,-28.48358595312]}},{"type":"Feature","properties":{"municipio":"b9ced9fb-f027-4a93-aacc-e882e5392745","title":"RS - SANTA ROSA","tipo":"FGV","url":"\/dashboard\/details-assets\/b9ced9fb-f027-4a93-aacc-e882e5392745"},"geometry":{"type":"Point","coordinates":[-54.4801558,-27.8706817]}},{"type":"Feature","properties":{"municipio":"47412fef-350d-43b4-b265-e8e5124811c8","title":"SC - SAO PEDRO DE ALCANTARA","tipo":"CAEd","url":"\/dashboard\/details-assets\/47412fef-350d-43b4-b265-e8e5124811c8"},"geometry":{"type":"Point","coordinates":[-48.806334652734,-27.562096352644]}},{"type":"Feature","properties":{"municipio":"a64b66b8-2665-473d-b71f-2d373c1ffa8b","title":"PI - ESPERANTINA","tipo":"CAEd","url":"\/dashboard\/details-assets\/a64b66b8-2665-473d-b71f-2d373c1ffa8b"},"geometry":{"type":"Point","coordinates":[-42.2342203,-3.8945585]}},{"type":"Feature","properties":{"municipio":"72450d0c-89bc-46ed-8329-2be94f4cd306","title":"PE - SANTA CRUZ DO CAPIBARIBE","tipo":"Cesgranrio","url":"\/dashboard\/details-assets\/72450d0c-89bc-46ed-8329-2be94f4cd306"},"geometry":{"type":"Point","coordinates":[-36.203950017146,-7.955189499741]}},{"type":"Feature","properties":{"municipio":"77639aca-085a-494a-9423-318f68058119","title":"PB - CUITE","tipo":"CAEd","url":"\/dashboard\/details-assets\/77639aca-085a-494a-9423-318f68058119"},"geometry":{"type":"Point","coordinates":[-36.1532081655,-6.4855553009422]}},{"type":"Feature","properties":{"municipio":"e54c0499-33f0-4674-8963-3492d338f2e9","title":"PB - CAJAZEIRAS","tipo":"CAEd","url":"\/dashboard\/details-assets\/e54c0499-33f0-4674-8963-3492d338f2e9"},"geometry":{"type":"Point","coordinates":[-35.883859114782,-7.2214970397644]}},{"type":"Feature","properties":{"municipio":"aad05f65-3cfd-4155-b4a5-3589f28afd3d","title":"PI - OEIRAS","tipo":"CAEd","url":"\/dashboard\/details-assets\/aad05f65-3cfd-4155-b4a5-3589f28afd3d"},"geometry":{"type":"Point","coordinates":[-42.131405660425,-7.0164180057338]}},{"type":"Feature","properties":{"municipio":"7c512e4d-8659-4e56-9299-36dd63439a78","title":"PB - POCINHOS","tipo":"CAEd","url":"\/dashboard\/details-assets\/7c512e4d-8659-4e56-9299-36dd63439a78"},"geometry":{"type":"Point","coordinates":[-36.054535612109,-7.0691161292968]}},{"type":"Feature","properties":{"municipio":"00730e7e-f059-441a-951d-1ea6c55aa673","title":"PB - ITABAIANA","tipo":"CAEd","url":"\/dashboard\/details-assets\/00730e7e-f059-441a-951d-1ea6c55aa673"},"geometry":{"type":"Point","coordinates":[-37.426860940332,-10.685716037974]}},{"type":"Feature","properties":{"municipio":"0aad8e62-8538-4cec-a355-1f33a7cd5ac0","title":"PR - SANTO ANTONIO DA PLATINA","tipo":"Cesgranrio","url":"\/dashboard\/details-assets\/0aad8e62-8538-4cec-a355-1f33a7cd5ac0"},"geometry":{"type":"Point","coordinates":[-50.0726882,-23.2980974]}},{"type":"Feature","properties":{"municipio":"624d7190-8f26-4908-b3be-20b44392ca9c","title":"PB - JUAZEIRINHO","tipo":"CAEd","url":"\/dashboard\/details-assets\/624d7190-8f26-4908-b3be-20b44392ca9c"},"geometry":{"type":"Point","coordinates":[-36.5794208,-7.0693466]}},{"type":"Feature","properties":{"municipio":"bc4f3946-30d9-4db8-b3da-1bf6bad723f0","title":"PA - SANTAREM","tipo":"FGV","url":"\/dashboard\/details-assets\/bc4f3946-30d9-4db8-b3da-1bf6bad723f0"},"geometry":{"type":"Point","coordinates":[-54.718570167271,-2.4362133299197]}},{"type":"Feature","properties":{"municipio":"d9c68887-d6d7-4db9-b1b7-1b530da0b067","title":"PB - PATOS","tipo":"CAEd","url":"\/dashboard\/details-assets\/d9c68887-d6d7-4db9-b1b7-1b530da0b067"},"geometry":{"type":"Point","coordinates":[-37.276913337293,-7.0244916679899]}},{"type":"Feature","properties":{"municipio":"82ccd035-e45c-4958-ad62-1b1ca17d053f","title":"RJ - CAMPOS DOS GOYTACAZES","tipo":"Cesgranrio","url":"\/dashboard\/details-assets\/82ccd035-e45c-4958-ad62-1b1ca17d053f"},"geometry":{"type":"Point","coordinates":[-41.3184877,-21.7626902]}},{"type":"Feature","properties":{"municipio":"60d4ef0c-916c-445f-b7f0-257c0acd4a3b","title":"PB - UMBUZEIRO","tipo":"CAEd","url":"\/dashboard\/details-assets\/60d4ef0c-916c-445f-b7f0-257c0acd4a3b"},"geometry":{"type":"Point","coordinates":[-35.6653832,-7.6963786]}},{"type":"Feature","properties":{"municipio":"9d747b48-0eec-456c-aed6-21659a987583","title":"PB - CAMPINA GRANDE","tipo":"CAEd","url":"\/dashboard\/details-assets\/9d747b48-0eec-456c-aed6-21659a987583"},"geometry":{"type":"Point","coordinates":[-35.883859114782,-7.2214970397644]}},{"type":"Feature","properties":{"municipio":"1cffd872-afab-4884-9fcc-02113bdfdadd","title":"PB - ITAPORANGA","tipo":"CAEd","url":"\/dashboard\/details-assets\/1cffd872-afab-4884-9fcc-02113bdfdadd"},"geometry":{"type":"Point","coordinates":[-49.484396312081,-23.703499942468]}},{"type":"Feature","properties":{"municipio":"98912d01-1b39-4492-9d6d-002963501e90","title":"PB - SANTA LUZIA","tipo":"CAEd","url":"\/dashboard\/details-assets\/98912d01-1b39-4492-9d6d-002963501e90"},"geometry":{"type":"Point","coordinates":[-36.925263,-6.83917]}},{"type":"Feature","properties":{"municipio":"b55f9385-e445-404b-891c-03e75c3bdafd","title":"PE - ARCOVERDE","tipo":"Cesgranrio","url":"\/dashboard\/details-assets\/b55f9385-e445-404b-891c-03e75c3bdafd"},"geometry":{"type":"Point","coordinates":[-37.056505564625,-8.4239404997262]}},{"type":"Feature","properties":{"municipio":"979c517a-71d6-4f5d-9ca9-051387c7d1aa","title":"PA - MOCAJUBA","tipo":"FGV","url":"\/dashboard\/details-assets\/979c517a-71d6-4f5d-9ca9-051387c7d1aa"},"geometry":{"type":"Point","coordinates":[-49.509023461273,-2.5828729731865]}},{"type":"Feature","properties":{"municipio":"110cd93f-eb78-4588-af7f-178801b2b564","title":"PR - WENCESLAU BRAZ","tipo":"Cesgranrio","url":"\/dashboard\/details-assets\/110cd93f-eb78-4588-af7f-178801b2b564"},"geometry":{"type":"Point","coordinates":[-49.80298478237,-23.870422852151]}},{"type":"Feature","properties":{"municipio":"ebbc2031-a68b-4bfa-8ea4-174f907646d7","title":"PR - FOZ DO IGUACU","tipo":"Cesgranrio","url":"\/dashboard\/details-assets\/ebbc2031-a68b-4bfa-8ea4-174f907646d7"},"geometry":{"type":"Point","coordinates":[-54.587102488605,-25.542493278795]}},{"type":"Feature","properties":{"municipio":"7367aa97-b015-4184-ad1a-15febf1c88dc","title":"PR - LAPA","tipo":"Cesgranrio","url":"\/dashboard\/details-assets\/7367aa97-b015-4184-ad1a-15febf1c88dc"},"geometry":{"type":"Point","coordinates":[-49.7172529,-25.7675725]}},{"type":"Feature","properties":{"municipio":"dd66e02a-a929-4051-b2c5-19d852d45a3d","title":"PA - MARITUBA","tipo":"FGV","url":"\/dashboard\/details-assets\/dd66e02a-a929-4051-b2c5-19d852d45a3d"},"geometry":{"type":"Point","coordinates":[-48.3424868,-1.3603782]}},{"type":"Feature","properties":{"municipio":"4a41069d-b021-414c-8bc2-398cfec14720","title":"PB - CATOLE DO ROCHA","tipo":"CAEd","url":"\/dashboard\/details-assets\/4a41069d-b021-414c-8bc2-398cfec14720"},"geometry":{"type":"Point","coordinates":[-37.748500090594,-6.3467529947924]}},{"type":"Feature","properties":{"municipio":"bd1c5bce-dc06-49b7-8aee-39e9478de13e","title":"PB - SANTA RITA","tipo":"CAEd","url":"\/dashboard\/details-assets\/bd1c5bce-dc06-49b7-8aee-39e9478de13e"},"geometry":{"type":"Point","coordinates":[-34.9662353,-7.135868]}},{"type":"Feature","properties":{"municipio":"dc2b9500-c2c1-41c3-84fe-3827024bf482","title":"PR - ARAUCARIA","tipo":"Cesgranrio","url":"\/dashboard\/details-assets\/dc2b9500-c2c1-41c3-84fe-3827024bf482"},"geometry":{"type":"Point","coordinates":[-49.401939696709,-25.591644999264]}},{"type":"Feature","properties":{"municipio":"d3daaa50-f61a-43c1-b29b-3a918af28ab7","title":"PB - ALAGOINHA","tipo":"CAEd","url":"\/dashboard\/details-assets\/d3daaa50-f61a-43c1-b29b-3a918af28ab7"},"geometry":{"type":"Point","coordinates":[-35.5110513,-6.9502454]}},{"type":"Feature","properties":{"municipio":"eaf1d19e-7730-437d-a674-3c7a867b3df4","title":"PB - JACARAU","tipo":"CAEd","url":"\/dashboard\/details-assets\/eaf1d19e-7730-437d-a674-3c7a867b3df4"},"geometry":{"type":"Point","coordinates":[-35.2911117,-6.6150571]}},{"type":"Feature","properties":{"municipio":"8c18189f-3620-49aa-847a-3fa3123b0edf","title":"PR - PATO BRANCO","tipo":"Cesgranrio","url":"\/dashboard\/details-assets\/8c18189f-3620-49aa-847a-3fa3123b0edf"},"geometry":{"type":"Point","coordinates":[-52.677361997672,-26.229958514251]}},{"type":"Feature","properties":{"municipio":"c3603ce6-b3de-45f8-973f-3fa7a2ccdae4","title":"PB - BAYEUX","tipo":"CAEd","url":"\/dashboard\/details-assets\/c3603ce6-b3de-45f8-973f-3fa7a2ccdae4"},"geometry":{"type":"Point","coordinates":[-34.929185820086,-7.1322764847672]}},{"type":"Feature","properties":{"municipio":"7dbd071b-7848-4745-8d76-3e18767d1a65","title":"PB - PIACO","tipo":"CAEd","url":"\/dashboard\/details-assets\/7dbd071b-7848-4745-8d76-3e18767d1a65"},"geometry":{"type":"Point","coordinates":[-37.9228255,-7.1957199]}},{"type":"Feature","properties":{"municipio":"311562ff-0d92-453d-afe9-7bb777352a5c","title":"PR - FRANCISCO BELTRAO","tipo":"Cesgranrio","url":"\/dashboard\/details-assets\/311562ff-0d92-453d-afe9-7bb777352a5c"},"geometry":{"type":"Point","coordinates":[-53.056135721489,-26.078449999254]}},{"type":"Feature","properties":{"municipio":"21ae78f9-02e1-4e82-9b40-7bc45a2db8e0","title":"PB - PEDRA DE FOGO","tipo":"CAEd","url":"\/dashboard\/details-assets\/21ae78f9-02e1-4e82-9b40-7bc45a2db8e0"},"geometry":{"type":"Point","coordinates":[-35.1117491,-7.4009253]}},{"type":"Feature","properties":{"municipio":"8dc5b3a7-3265-46cc-906e-7b597e85cc8e","title":"PR - CATANDUVAS","tipo":"Cesgranrio","url":"\/dashboard\/details-assets\/8dc5b3a7-3265-46cc-906e-7b597e85cc8e"},"geometry":{"type":"Point","coordinates":[-53.1553309,-25.204834]}},{"type":"Feature","properties":{"municipio":"16c5e8c7-ccc7-4e00-a419-7d5e2dcef88d","title":"RJ - JAPERI","tipo":"Cesgranrio","url":"\/dashboard\/details-assets\/16c5e8c7-ccc7-4e00-a419-7d5e2dcef88d"},"geometry":{"type":"Point","coordinates":[-43.6606463,-22.6439978]}},{"type":"Feature","properties":{"municipio":"95c23914-0c86-4281-acac-7e16e249e4a6","title":"PI - TERESINA","tipo":"CAEd","url":"\/dashboard\/details-assets\/95c23914-0c86-4281-acac-7e16e249e4a6"},"geometry":{"type":"Point","coordinates":[-42.805270458223,-5.0863419521548]}},{"type":"Feature","properties":{"municipio":"056d796c-d06b-47d2-a92a-78a1525b87d5","title":"PE - CARUARU","tipo":"Cesgranrio","url":"\/dashboard\/details-assets\/056d796c-d06b-47d2-a92a-78a1525b87d5"},"geometry":{"type":"Point","coordinates":[-35.967073360053,-8.2858979997306]}},{"type":"Feature","properties":{"municipio":"f8693c8b-7f8c-4ae7-9311-79be1dacab9d","title":"PR - PIRAQUARA","tipo":"Cesgranrio","url":"\/dashboard\/details-assets\/f8693c8b-7f8c-4ae7-9311-79be1dacab9d"},"geometry":{"type":"Point","coordinates":[-49.065305613923,-25.446550355722]}},{"type":"Feature","properties":{"municipio":"70776d2a-94a8-4da4-bbe0-7e664181d54e","title":"PB - SOLANEA","tipo":"CAEd","url":"\/dashboard\/details-assets\/70776d2a-94a8-4da4-bbe0-7e664181d54e"},"geometry":{"type":"Point","coordinates":[-35.6595757,-6.758019]}},{"type":"Feature","properties":{"municipio":"8afb3627-4280-4ec9-9bb6-7098c8baefdd","title":"PB - MAMANGUAPE","tipo":"CAEd","url":"\/dashboard\/details-assets\/8afb3627-4280-4ec9-9bb6-7098c8baefdd"},"geometry":{"type":"Point","coordinates":[-35.12389320209,-6.8337151467099]}},{"type":"Feature","properties":{"municipio":"8d2e1b5a-6d52-4a47-aa7d-6ed90efec3ad","title":"PB - QUEIMADAS","tipo":"CAEd","url":"\/dashboard\/details-assets\/8d2e1b5a-6d52-4a47-aa7d-6ed90efec3ad"},"geometry":{"type":"Point","coordinates":[-35.902741,-7.348847]}},{"type":"Feature","properties":{"municipio":"043aafe4-161d-49d9-b8e3-7404ef8486ec","title":"RJ - MACAE","tipo":"Cesgranrio","url":"\/dashboard\/details-assets\/043aafe4-161d-49d9-b8e3-7404ef8486ec"},"geometry":{"type":"Point","coordinates":[-41.7827891,-22.3836904]}},{"type":"Feature","properties":{"municipio":"db6bd5e7-01f4-4d57-b812-71e21ce65ffe","title":"PR - PONTA GROSSA","tipo":"Cesgranrio","url":"\/dashboard\/details-assets\/db6bd5e7-01f4-4d57-b812-71e21ce65ffe"},"geometry":{"type":"Point","coordinates":[-50.161442059294,-25.092546999275]}},{"type":"Feature","properties":{"municipio":"36887603-b9ba-4da5-9f9b-72f722d35673","title":"PR - TOLEDO","tipo":"Cesgranrio","url":"\/dashboard\/details-assets\/36887603-b9ba-4da5-9f9b-72f722d35673"},"geometry":{"type":"Point","coordinates":[-53.741411491157,-24.732076999282]}},{"type":"Feature","properties":{"municipio":"ae00407f-cf7c-4de3-9a14-753d51f57a1f","title":"PE - TIMBAUBA","tipo":"Cesgranrio","url":"\/dashboard\/details-assets\/ae00407f-cf7c-4de3-9a14-753d51f57a1f"},"geometry":{"type":"Point","coordinates":[-35.3168703,-7.512005]}},{"type":"Feature","properties":{"municipio":"8c093ed5-e8bc-459a-baa3-75b8d3fd8720","title":"PE - IGARASSU","tipo":"Cesgranrio","url":"\/dashboard\/details-assets\/8c093ed5-e8bc-459a-baa3-75b8d3fd8720"},"geometry":{"type":"Point","coordinates":[-34.910583387588,-7.828371989745]}},{"type":"Feature","properties":{"municipio":"d2194c00-e635-4e44-ba64-762f9e20f5ae","title":"PI - BOM JESUS","tipo":"CAEd","url":"\/dashboard\/details-assets\/d2194c00-e635-4e44-ba64-762f9e20f5ae"},"geometry":{"type":"Point","coordinates":[-44.357392,-9.074637]}},{"type":"Feature","properties":{"municipio":"2b328d3e-21ae-45e6-ac06-6471538729c0","title":"PA - PARAUAPEBAS","tipo":"FGV","url":"\/dashboard\/details-assets\/2b328d3e-21ae-45e6-ac06-6471538729c0"},"geometry":{"type":"Point","coordinates":[-49.904199,-6.0682494]}},{"type":"Feature","properties":{"municipio":"ba50a4a8-e1a6-4df8-9ef7-68331790b666","title":"PI - ALTOS","tipo":"CAEd","url":"\/dashboard\/details-assets\/ba50a4a8-e1a6-4df8-9ef7-68331790b666"},"geometry":{"type":"Point","coordinates":[-42.460948035557,-5.0365464341753]}},{"type":"Feature","properties":{"municipio":"818c57c7-da54-4e6d-85dc-6a674d8a51bd","title":"PB - GUARABIRA","tipo":"CAEd","url":"\/dashboard\/details-assets\/818c57c7-da54-4e6d-85dc-6a674d8a51bd"},"geometry":{"type":"Point","coordinates":[-35.489964984885,-6.8527149997762]}},{"type":"Feature","properties":{"municipio":"67e3ac26-6725-4036-bc8b-505a2a0cfac3","title":"PB - MONTEIRO","tipo":"CAEd","url":"\/dashboard\/details-assets\/67e3ac26-6725-4036-bc8b-505a2a0cfac3"},"geometry":{"type":"Point","coordinates":[-37.1171012,-7.8887727]}},{"type":"Feature","properties":{"municipio":"55e31c33-ab91-4d32-891a-52b463efe095","title":"PR - FAZENDA RIO GRANDE","tipo":"Cesgranrio","url":"\/dashboard\/details-assets\/55e31c33-ab91-4d32-891a-52b463efe095"},"geometry":{"type":"Point","coordinates":[-49.3077648,-25.6628343]}},{"type":"Feature","properties":{"municipio":"cbd0513b-12b5-42d2-a749-52b77bf24cc0","title":"RJ - NILOPOLIS","tipo":"Cesgranrio","url":"\/dashboard\/details-assets\/cbd0513b-12b5-42d2-a749-52b77bf24cc0"},"geometry":{"type":"Point","coordinates":[-43.41941,-22.809816]}},{"type":"Feature","properties":{"municipio":"665d758b-e946-40a2-ab19-51a227ab1007","title":"PR - LARANJEIRAS DO SUL","tipo":"Cesgranrio","url":"\/dashboard\/details-assets\/665d758b-e946-40a2-ab19-51a227ab1007"},"geometry":{"type":"Point","coordinates":[-52.4134746,-25.4079504]}},{"type":"Feature","properties":{"municipio":"ce97679d-7587-4985-ab7f-533c60e42901","title":"PR - PINHAIS","tipo":"Cesgranrio","url":"\/dashboard\/details-assets\/ce97679d-7587-4985-ab7f-533c60e42901"},"geometry":{"type":"Point","coordinates":[-49.1931448,-25.4434411]}},{"type":"Feature","properties":{"municipio":"59cc4f8a-ad7c-4d09-a96b-580857a9a77a","title":"PI - PICOS","tipo":"CAEd","url":"\/dashboard\/details-assets\/59cc4f8a-ad7c-4d09-a96b-580857a9a77a"},"geometry":{"type":"Point","coordinates":[-41.468826714668,-7.0813739119682]}},{"type":"Feature","properties":{"municipio":"a0f442d7-c943-4634-b755-5772cec137a7","title":"PE - ILHA DE ITAMARACA","tipo":"Cesgranrio","url":"\/dashboard\/details-assets\/a0f442d7-c943-4634-b755-5772cec137a7"},"geometry":{"type":"Point","coordinates":[-34.8306327,-7.7480776]}},{"type":"Feature","properties":{"municipio":"918254fb-fd47-4f8d-b9b5-4927b3489985","title":"PB - LAGOA SECA","tipo":"CAEd","url":"\/dashboard\/details-assets\/918254fb-fd47-4f8d-b9b5-4927b3489985"},"geometry":{"type":"Point","coordinates":[-35.8498078,-7.1637491]}},{"type":"Feature","properties":{"municipio":"c73c64d1-cb96-4426-8f58-42a4f50396dd","title":"PB - SOUSA","tipo":"CAEd","url":"\/dashboard\/details-assets\/c73c64d1-cb96-4426-8f58-42a4f50396dd"},"geometry":{"type":"Point","coordinates":[-38.229605080601,-6.763378004779]}},{"type":"Feature","properties":{"municipio":"f731f7e8-b3f1-4e63-a544-4abc86a68d7e","title":"PB - BONITO DE SANTA FE","tipo":"CAEd","url":"\/dashboard\/details-assets\/f731f7e8-b3f1-4e63-a544-4abc86a68d7e"},"geometry":{"type":"Point","coordinates":[-38.560530371841,-6.890464499775]}},{"type":"Feature","properties":{"municipio":"5574f0f6-c4f3-4322-84f2-4f1b1e0fe8fb","title":"PE - RECIFE","tipo":"Cesgranrio","url":"\/dashboard\/details-assets\/5574f0f6-c4f3-4322-84f2-4f1b1e0fe8fb"},"geometry":{"type":"Point","coordinates":[-34.888941944578,-8.06276248279]}},{"type":"Feature","properties":{"municipio":"8045a4a6-f279-4b93-bcf0-4f6c52793e30","title":"PA - TUCURUI","tipo":"FGV","url":"\/dashboard\/details-assets\/8045a4a6-f279-4b93-bcf0-4f6c52793e30"},"geometry":{"type":"Point","coordinates":[-49.667184367225,-3.7668890841878]}},{"type":"Feature","properties":{"municipio":"83c3ebb9-0d6f-4159-b371-b3f059296745","title":"PR - CASCAVEL","tipo":"Cesgranrio","url":"\/dashboard\/details-assets\/83c3ebb9-0d6f-4159-b371-b3f059296745"},"geometry":{"type":"Point","coordinates":[-53.4595112,-24.9577771]}},{"type":"Feature","properties":{"municipio":"4fdf2b98-6dbb-460d-96c5-b8a44502751d","title":"PI - PARNAIBA","tipo":"CAEd","url":"\/dashboard\/details-assets\/4fdf2b98-6dbb-460d-96c5-b8a44502751d"},"geometry":{"type":"Point","coordinates":[-41.778170592025,-2.9033601444133]}},{"type":"Feature","properties":{"municipio":"fbcebbed-d9a7-4a6e-ac6d-ad3154151022","title":"PE - ABREU E LIMA","tipo":"Cesgranrio","url":"\/dashboard\/details-assets\/fbcebbed-d9a7-4a6e-ac6d-ad3154151022"},"geometry":{"type":"Point","coordinates":[-34.8987086,-7.9011493]}},{"type":"Feature","properties":{"municipio":"8e1489a7-2581-454e-989f-ae87f7d99e54","title":"PE - GARANHUNS","tipo":"Cesgranrio","url":"\/dashboard\/details-assets\/8e1489a7-2581-454e-989f-ae87f7d99e54"},"geometry":{"type":"Point","coordinates":[-36.4930502821,-8.8889055297116]}},{"type":"Feature","properties":{"municipio":"887d5d7c-2a61-4327-83ae-aedf840b25c9","title":"PE - CANHOTINHO","tipo":"Cesgranrio","url":"\/dashboard\/details-assets\/887d5d7c-2a61-4327-83ae-aedf840b25c9"},"geometry":{"type":"Point","coordinates":[-36.199859003516,-8.8705138823292]}},{"type":"Feature","properties":{"municipio":"fce74104-a0cb-46ee-b4f5-afcb33b70788","title":"PB - SERRA BRANCA","tipo":"CAEd","url":"\/dashboard\/details-assets\/fce74104-a0cb-46ee-b4f5-afcb33b70788"},"geometry":{"type":"Point","coordinates":[-36.6639815,-7.4828261]}},{"type":"Feature","properties":{"municipio":"b0c91e8e-b9d9-4643-b637-b39f4e324dcd","title":"PE - CABO DE SANTO AGOSTINHO","tipo":"Cesgranrio","url":"\/dashboard\/details-assets\/b0c91e8e-b9d9-4643-b637-b39f4e324dcd"},"geometry":{"type":"Point","coordinates":[-35.038488971813,-8.2898642300283]}},{"type":"Feature","properties":{"municipio":"13f190f6-10fa-4262-a11d-a476b0cd5236","title":"PB - PRINCESA ISABEL","tipo":"CAEd","url":"\/dashboard\/details-assets\/13f190f6-10fa-4262-a11d-a476b0cd5236"},"geometry":{"type":"Point","coordinates":[-37.9916987,-7.7362124]}},{"type":"Feature","properties":{"municipio":"e452f6db-10a5-458d-84f4-a2d202989c47","title":"PE - LIMOEIRO","tipo":"Cesgranrio","url":"\/dashboard\/details-assets\/e452f6db-10a5-458d-84f4-a2d202989c47"},"geometry":{"type":"Point","coordinates":[-35.45526105096,-7.8801979997434]}},{"type":"Feature","properties":{"municipio":"7384625e-7afd-4d39-970b-a9d81b0797fc","title":"RJ - BELFORD ROXO","tipo":"Cesgranrio","url":"\/dashboard\/details-assets\/7384625e-7afd-4d39-970b-a9d81b0797fc"},"geometry":{"type":"Point","coordinates":[-43.3996264,-22.7645391]}},{"type":"Feature","properties":{"municipio":"d9633ebb-33a6-4281-87de-a6172c2ddce3","title":"PA - TOME-ACU","tipo":"FGV","url":"\/dashboard\/details-assets\/d9633ebb-33a6-4281-87de-a6172c2ddce3"},"geometry":{"type":"Point","coordinates":[-48.146896586572,-2.4193668551876]}},{"type":"Feature","properties":{"municipio":"c33f6690-c80e-457a-9bd0-ad1a338cb817","title":"PA - PARAGOMINAS","tipo":"FGV","url":"\/dashboard\/details-assets\/c33f6690-c80e-457a-9bd0-ad1a338cb817"},"geometry":{"type":"Point","coordinates":[-47.356961561052,-2.9941904999014]}},{"type":"Feature","properties":{"municipio":"77bcd2c5-0ea3-495b-b8e6-9468ce13b780","title":"PA - MARABA","tipo":"FGV","url":"\/dashboard\/details-assets\/77bcd2c5-0ea3-495b-b8e6-9468ce13b780"},"geometry":{"type":"Point","coordinates":[-49.142025333407,-5.3526057629547]}},{"type":"Feature","properties":{"municipio":"134530aa-4b8a-4b93-bdc3-958e086bea1c","title":"PR - CRUZEIRO DO OESTE","tipo":"Cesgranrio","url":"\/dashboard\/details-assets\/134530aa-4b8a-4b93-bdc3-958e086bea1c"},"geometry":{"type":"Point","coordinates":[-53.0762805,-23.7834562]}},{"type":"Feature","properties":{"municipio":"a8f16ebb-c550-44d2-915c-96958cd9febb","title":"PB - AROIRAS","tipo":"CAEd","url":"\/dashboard\/details-assets\/a8f16ebb-c550-44d2-915c-96958cd9febb"},"geometry":{"type":"Point","coordinates":[-35.7063659,-7.5453203]}},{"type":"Feature","properties":{"municipio":"ea469df8-7a0e-4219-ba65-99c56135d54a","title":"PI - FLORIANO","tipo":"CAEd","url":"\/dashboard\/details-assets\/ea469df8-7a0e-4219-ba65-99c56135d54a"},"geometry":{"type":"Point","coordinates":[-43.020644738326,-6.7696724335652]}},{"type":"Feature","properties":{"municipio":"a1125e7f-30c7-4db2-bd74-9a9f774e4868","title":"PE - JABOATAO DOS GUARARAPES","tipo":"Cesgranrio","url":"\/dashboard\/details-assets\/a1125e7f-30c7-4db2-bd74-9a9f774e4868"},"geometry":{"type":"Point","coordinates":[-34.998856895703,-8.1680212423986]}},{"type":"Feature","properties":{"municipio":"ba1fdace-c266-428c-a052-9bacf488c089","title":"PB - SAPE","tipo":"CAEd","url":"\/dashboard\/details-assets\/ba1fdace-c266-428c-a052-9bacf488c089"},"geometry":{"type":"Point","coordinates":[-35.23043261655,-7.0871109997687]}},{"type":"Feature","properties":{"municipio":"7c8720a3-63a2-434e-96b9-85602ebc7be9","title":"PR - LONDRINA","tipo":"Cesgranrio","url":"\/dashboard\/details-assets\/7c8720a3-63a2-434e-96b9-85602ebc7be9"},"geometry":{"type":"Point","coordinates":[-51.162773423878,-23.312155999314]}},{"type":"Feature","properties":{"municipio":"9890b0be-d612-4163-8f26-856c5a496c4b","title":"PA - REDENCAO","tipo":"FGV","url":"\/dashboard\/details-assets\/9890b0be-d612-4163-8f26-856c5a496c4b"},"geometry":{"type":"Point","coordinates":[-50.029641825509,-8.0276044997387]}},{"type":"Feature","properties":{"municipio":"1652f47c-0978-4642-ad19-881f648ef8c3","title":"RJ - CABO FRIO","tipo":"Cesgranrio","url":"\/dashboard\/details-assets\/1652f47c-0978-4642-ad19-881f648ef8c3"},"geometry":{"type":"Point","coordinates":[-42.0262542,-22.8867507]}},{"type":"Feature","properties":{"municipio":"154c0292-0838-4d52-b212-8a22910bf5c1","title":"PB - ESPERANCA","tipo":"CAEd","url":"\/dashboard\/details-assets\/154c0292-0838-4d52-b212-8a22910bf5c1"},"geometry":{"type":"Point","coordinates":[-35.85859328697,-7.0206849997708]}},{"type":"Feature","properties":{"municipio":"634b1386-b651-43ec-a2e8-8a028ceaa71f","title":"PE - PALMARES","tipo":"Cesgranrio","url":"\/dashboard\/details-assets\/634b1386-b651-43ec-a2e8-8a028ceaa71f"},"geometry":{"type":"Point","coordinates":[-35.588335993758,-8.6790824997182]}},{"type":"Feature","properties":{"municipio":"7f741342-f593-4ae9-9c63-89acbfda55e5","title":"PA - ITAITUBA","tipo":"FGV","url":"\/dashboard\/details-assets\/7f741342-f593-4ae9-9c63-89acbfda55e5"},"geometry":{"type":"Point","coordinates":[-55.990048857278,-4.2637294798599]}},{"type":"Feature","properties":{"municipio":"fde27402-247a-4904-8593-89bfd32497d9","title":"PB - ALHANDRA","tipo":"CAEd","url":"\/dashboard\/details-assets\/fde27402-247a-4904-8593-89bfd32497d9"},"geometry":{"type":"Point","coordinates":[-34.9114797,-7.4347697]}},{"type":"Feature","properties":{"municipio":"ca6966be-dd53-4705-b6ab-bfec11659e16","title":"PI - SAO RAIMUNDO NONATO","tipo":"CAEd","url":"\/dashboard\/details-assets\/ca6966be-dd53-4705-b6ab-bfec11659e16"},"geometry":{"type":"Point","coordinates":[-42.692285164191,-9.0153604820623]}},{"type":"Feature","properties":{"municipio":"0b94fb1a-14e1-49f0-b83b-bf942d9b9144","title":"PA - SALINOPOLIS","tipo":"FGV","url":"\/dashboard\/details-assets\/0b94fb1a-14e1-49f0-b83b-bf942d9b9144"},"geometry":{"type":"Point","coordinates":[-47.353120263154,-0.62363799997943]}},{"type":"Feature","properties":{"municipio":"005bcb32-732b-4a69-a93c-bfae2f2ff1b3","title":"PA - SANTA ISABEL DO PARA","tipo":"FGV","url":"\/dashboard\/details-assets\/005bcb32-732b-4a69-a93c-bfae2f2ff1b3"},"geometry":{"type":"Point","coordinates":[-48.163059940953,-1.2973959012487]}},{"type":"Feature","properties":{"municipio":"b1914c5f-1bb2-433c-973c-bdc1a95074e3","title":"PE - BUIQUE","tipo":"Cesgranrio","url":"\/dashboard\/details-assets\/b1914c5f-1bb2-433c-973c-bdc1a95074e3"},"geometry":{"type":"Point","coordinates":[-37.0829593,-8.6165115]}},{"type":"Feature","properties":{"municipio":"a3b48f7d-46b2-4a54-b283-be7df3eae80d","title":"RJ - BARRA MANSA","tipo":"Cesgranrio","url":"\/dashboard\/details-assets\/a3b48f7d-46b2-4a54-b283-be7df3eae80d"},"geometry":{"type":"Point","coordinates":[-44.1772604,-22.5408519]}},{"type":"Feature","properties":{"municipio":"21c3b137-bd62-45ba-b107-bbd3578aba60","title":"PR - PARANAVAI","tipo":"Cesgranrio","url":"\/dashboard\/details-assets\/21c3b137-bd62-45ba-b107-bbd3578aba60"},"geometry":{"type":"Point","coordinates":[-48.524732836657,-25.506841499266]}},{"type":"Feature","properties":{"municipio":"3d506623-dd61-4913-8135-bc25ad8468d6","title":"PR - MARINGA","tipo":"Cesgranrio","url":"\/dashboard\/details-assets\/3d506623-dd61-4913-8135-bc25ad8468d6"},"geometry":{"type":"Point","coordinates":[-51.939881870252,-23.422279999311]}},{"type":"Feature","properties":{"municipio":"b283a054-1632-4cc3-ae6e-c5d3921bdb44","title":"PR - SAO JOSE DOS PINHAIS","tipo":"Cesgranrio","url":"\/dashboard\/details-assets\/b283a054-1632-4cc3-ae6e-c5d3921bdb44"},"geometry":{"type":"Point","coordinates":[-53.7256129,-26.074187]}},{"type":"Feature","properties":{"municipio":"dbb614d7-c2a8-48bf-9db0-c2cbe5cbfa41","title":"PB - SAO JOAO DO RIO DO PEIXE","tipo":"CAEd","url":"\/dashboard\/details-assets\/dbb614d7-c2a8-48bf-9db0-c2cbe5cbfa41"},"geometry":{"type":"Point","coordinates":[-38.445453570848,-6.7344308281005]}},{"type":"Feature","properties":{"municipio":"4c318197-16ed-4d0e-8cca-eaa1ef47ba9a","title":"RJ - DUQUE DE CAXIAS","tipo":"Cesgranrio","url":"\/dashboard\/details-assets\/4c318197-16ed-4d0e-8cca-eaa1ef47ba9a"},"geometry":{"type":"Point","coordinates":[-43.3053106,-22.7862985]}},{"type":"Feature","properties":{"municipio":"2ef5db48-f263-40f3-ab90-ec31d56964a0","title":"PB - AREIA","tipo":"CAEd","url":"\/dashboard\/details-assets\/2ef5db48-f263-40f3-ab90-ec31d56964a0"},"geometry":{"type":"Point","coordinates":[-35.703391401107,-6.9655149997726]}},{"type":"Feature","properties":{"municipio":"5e8cc3e9-818c-496c-83f2-ef083a3bea58","title":"PB - POMBAL","tipo":"CAEd","url":"\/dashboard\/details-assets\/5e8cc3e9-818c-496c-83f2-ef083a3bea58"},"geometry":{"type":"Point","coordinates":[-37.7973839,-6.7708458]}},{"type":"Feature","properties":{"municipio":"39f1bb63-df46-47ef-827b-ee23417f039c","title":"PB - ARARUNA","tipo":"CAEd","url":"\/dashboard\/details-assets\/39f1bb63-df46-47ef-827b-ee23417f039c"},"geometry":{"type":"Point","coordinates":[-35.7524896,-6.5297363]}},{"type":"Feature","properties":{"municipio":"0dbc1604-e4a1-440b-9e74-f05bfcad3af2","title":"RJ - ITAPERUNA","tipo":"Cesgranrio","url":"\/dashboard\/details-assets\/0dbc1604-e4a1-440b-9e74-f05bfcad3af2"},"geometry":{"type":"Point","coordinates":[-41.8802333,-21.2000807]}},{"type":"Feature","properties":{"municipio":"de7a11ee-b977-4d41-8270-f04bd94627f2","title":"PR - CASTRO","tipo":"Cesgranrio","url":"\/dashboard\/details-assets\/de7a11ee-b977-4d41-8270-f04bd94627f2"},"geometry":{"type":"Point","coordinates":[-50.002811127761,-24.795417499281]}},{"type":"Feature","properties":{"municipio":"ca825d56-3290-4002-adb8-d33e913ddd81","title":"PB - PILAR","tipo":"CAEd","url":"\/dashboard\/details-assets\/ca825d56-3290-4002-adb8-d33e913ddd81"},"geometry":{"type":"Point","coordinates":[-35.2697802,-7.2787651]}},{"type":"Feature","properties":{"municipio":"264bef22-a870-4938-a1bd-d5994ee6a6cb","title":"PB - JOAO PESSOA","tipo":"CAEd","url":"\/dashboard\/details-assets\/264bef22-a870-4938-a1bd-d5994ee6a6cb"},"geometry":{"type":"Point","coordinates":[-34.873384813539,-7.1493820197667]}},{"type":"Feature","properties":{"municipio":"2a5b8d28-894e-4d78-905e-d314e1575af3","title":"PR - UMARAMA","tipo":"Cesgranrio","url":"\/dashboard\/details-assets\/2a5b8d28-894e-4d78-905e-d314e1575af3"},"geometry":{"type":"Point","coordinates":[-53.3206105,-23.7661064]}},